DATA_Files/Russia2Constellation/AreaTarget-Russia-To-Satellite-KinoSat_10_plane.txt

                                                                                                                                                                                                                                                                                           10 May 2023 21:20:54
Civil Air Patrol Use Only
AreaTarget-Russia-To-Satellite-KinoSat_111001, Satellite-KinoSat_111002, Satellite-KinoSat_111003, Satellite-KinoSat_111004, Satellite-KinoSat_111005, Satellite-KinoSat_111006, Satellite-KinoSat_111007, Satellite-KinoSat_111008, Satellite-KinoSat_111009, Satellite-KinoSat_111010:  Access Summary Report


Russia-To-KinoSat_111001
------------------------
                  Access        Start Time (UTCG)           Stop Time (UTCG)        Duration (sec)
                  ------    ------------------------    ------------------------    --------------
                       1     1 Jun 2027 01:03:51.165     1 Jun 2027 01:04:51.862            60.697
                       2     1 Jun 2027 01:04:57.443     1 Jun 2027 01:10:01.963           304.520
                       3     1 Jun 2027 02:42:28.886     1 Jun 2027 02:46:26.055           237.169
                       4     1 Jun 2027 04:05:26.076     1 Jun 2027 04:08:28.085           182.010
                       5     1 Jun 2027 05:41:55.226     1 Jun 2027 05:45:25.744           210.518
                       6     1 Jun 2027 07:17:02.124     1 Jun 2027 07:23:47.187           405.063
                       7     1 Jun 2027 08:53:23.497     1 Jun 2027 08:59:41.927           378.430
                       8     1 Jun 2027 10:30:50.503     1 Jun 2027 10:35:18.965           268.463
                       9     1 Jun 2027 12:07:01.165     1 Jun 2027 12:11:11.263           250.098
                      10     1 Jun 2027 18:49:30.228     1 Jun 2027 18:52:34.638           184.411
                      11     1 Jun 2027 20:25:25.588     1 Jun 2027 20:31:14.467           348.879
                      12     1 Jun 2027 22:02:08.213     1 Jun 2027 22:08:18.500           370.288
                      13     1 Jun 2027 23:37:38.105     1 Jun 2027 23:44:41.772           423.667
                      14     2 Jun 2027 01:15:47.339     2 Jun 2027 01:16:40.525            53.186
                      15     2 Jun 2027 01:16:54.241     2 Jun 2027 01:21:55.363           301.122
                      16     2 Jun 2027 02:54:01.946     2 Jun 2027 02:54:39.071            37.124
                      17     2 Jun 2027 02:54:51.634     2 Jun 2027 02:57:40.795           169.162
                      18     2 Jun 2027 04:17:29.585     2 Jun 2027 04:20:37.589           188.003
                      19     2 Jun 2027 05:53:58.604     2 Jun 2027 05:57:23.523           204.919
                      20     2 Jun 2027 07:29:09.433     2 Jun 2027 07:35:45.861           396.428
                      21     2 Jun 2027 09:05:06.876     2 Jun 2027 09:11:14.841           367.965
                      22     2 Jun 2027 10:42:57.158     2 Jun 2027 10:47:27.967           270.809
                      23     2 Jun 2027 12:18:56.788     2 Jun 2027 12:23:09.854           253.066
                      24     2 Jun 2027 12:23:14.088     2 Jun 2027 12:24:00.830            46.742
                      25     2 Jun 2027 17:25:54.363     2 Jun 2027 17:26:55.717            61.354
                      26     2 Jun 2027 19:01:37.874     2 Jun 2027 19:04:36.379           178.505
                      27     2 Jun 2027 20:37:37.430     2 Jun 2027 20:43:04.114           326.683
                      28     2 Jun 2027 22:14:05.722     2 Jun 2027 22:20:21.335           375.612
                      29     2 Jun 2027 23:49:35.080     2 Jun 2027 23:56:33.436           418.356
                      30     3 Jun 2027 01:28:52.838     3 Jun 2027 01:34:07.476           314.637
                      31     3 Jun 2027 01:35:08.514     3 Jun 2027 01:36:42.590            94.076
                      32     3 Jun 2027 02:55:06.735     3 Jun 2027 02:55:28.255            21.520
                      33     3 Jun 2027 03:05:58.925     3 Jun 2027 03:09:34.896           215.971
                      34     3 Jun 2027 04:29:56.303     3 Jun 2027 04:32:41.770           165.467
                      35     3 Jun 2027 06:05:43.000     3 Jun 2027 06:09:56.787           253.787
                      36     3 Jun 2027 07:40:26.410     3 Jun 2027 07:47:56.505           450.095
                      37     3 Jun 2027 09:17:11.157     3 Jun 2027 09:23:33.554           382.397
                      38     3 Jun 2027 10:55:28.025     3 Jun 2027 10:59:22.299           234.274
                      39     3 Jun 2027 12:28:46.564     3 Jun 2027 12:30:15.049            88.484
                      40     3 Jun 2027 12:30:45.216     3 Jun 2027 12:35:00.491           255.275
                      41     3 Jun 2027 12:35:20.914     3 Jun 2027 12:36:25.204            64.290
                      42     3 Jun 2027 17:37:12.240     3 Jun 2027 17:39:20.835           128.595
                      43     3 Jun 2027 19:13:24.738     3 Jun 2027 19:16:47.720           202.982
                      44     3 Jun 2027 20:50:00.859     3 Jun 2027 20:56:10.605           369.746
                      45     3 Jun 2027 22:26:11.900     3 Jun 2027 22:32:58.548           406.648
                      46     4 Jun 2027 00:02:16.176     4 Jun 2027 00:08:42.658           386.482
                      47     4 Jun 2027 01:41:13.281     4 Jun 2027 01:48:38.006           444.725
                      48     4 Jun 2027 03:06:22.520     4 Jun 2027 03:07:43.713            81.193
                      49     4 Jun 2027 03:17:56.982     4 Jun 2027 03:19:25.477            88.495
                      50     4 Jun 2027 04:40:34.569     4 Jun 2027 04:41:32.843            58.274
                      51     4 Jun 2027 04:42:11.549     4 Jun 2027 04:45:16.519           184.971
                      52     4 Jun 2027 06:15:43.516     4 Jun 2027 06:16:57.128            73.612
                      53     4 Jun 2027 06:17:26.139     4 Jun 2027 06:22:16.658           290.519
                      54     4 Jun 2027 07:52:30.348     4 Jun 2027 07:59:56.866           446.517
                      55     4 Jun 2027 09:29:31.378     4 Jun 2027 09:35:21.896           350.518
                      56     4 Jun 2027 09:35:25.320     4 Jun 2027 09:35:40.441            15.121
                      57     4 Jun 2027 11:07:25.165     4 Jun 2027 11:11:24.514           239.348
                      58     4 Jun 2027 12:40:41.089     4 Jun 2027 12:47:00.709           379.620
                      59     4 Jun 2027 12:47:16.366     4 Jun 2027 12:48:31.729            75.362
                      60     4 Jun 2027 17:49:09.489     4 Jun 2027 17:51:50.212           160.723
                      61     4 Jun 2027 19:25:29.792     4 Jun 2027 19:28:53.981           204.189
                      62     4 Jun 2027 19:30:48.993     4 Jun 2027 19:32:04.021            75.028
                      63     4 Jun 2027 21:02:04.076     4 Jun 2027 21:08:18.466           374.390
                      64     4 Jun 2027 22:38:19.371     4 Jun 2027 22:44:55.508           396.137
                      65     5 Jun 2027 00:14:22.095     5 Jun 2027 00:20:29.237           367.142
                      66     5 Jun 2027 01:53:26.879     5 Jun 2027 02:00:33.070           426.190
                      67     5 Jun 2027 03:17:42.444     5 Jun 2027 03:19:54.379           131.935
                      68     5 Jun 2027 03:29:56.114     5 Jun 2027 03:30:54.756            58.642
                      69     5 Jun 2027 04:52:10.464     5 Jun 2027 04:53:17.819            67.355
                      70     5 Jun 2027 04:54:06.339     5 Jun 2027 04:57:31.045           204.706
                      71     5 Jun 2027 06:27:03.577     5 Jun 2027 06:29:11.181           127.605
                      72     5 Jun 2027 06:29:14.154     5 Jun 2027 06:34:35.859           321.705
                      73     5 Jun 2027 06:35:06.794     5 Jun 2027 06:35:36.401            29.607
                      74     5 Jun 2027 08:04:38.188     5 Jun 2027 08:12:00.470           442.282
                      75     5 Jun 2027 09:41:21.064     5 Jun 2027 09:47:34.882           373.819
                      76     5 Jun 2027 09:47:39.221     5 Jun 2027 09:48:00.299            21.078
                      77     5 Jun 2027 11:19:25.100     5 Jun 2027 11:23:34.436           249.335
                      78     5 Jun 2027 12:53:07.958     5 Jun 2027 13:00:01.448           413.490
                      79     5 Jun 2027 18:01:10.696     5 Jun 2027 18:04:05.701           175.005
                      80     5 Jun 2027 19:37:42.284     5 Jun 2027 19:41:16.822           214.538
                      81     5 Jun 2027 19:42:25.329     5 Jun 2027 19:45:26.976           181.647
                      82     5 Jun 2027 21:14:15.264     5 Jun 2027 21:20:34.365           379.101
                      83     5 Jun 2027 22:49:46.934     5 Jun 2027 22:50:23.866            36.932
                      84     5 Jun 2027 22:50:34.985     5 Jun 2027 22:57:23.823           408.838
                      85     6 Jun 2027 00:26:43.511     6 Jun 2027 00:27:08.306            24.796
                      86     6 Jun 2027 00:27:15.257     6 Jun 2027 00:27:45.186            29.930
                      87     6 Jun 2027 00:27:50.315     6 Jun 2027 00:28:44.305            53.990
                      88     6 Jun 2027 00:28:46.461     6 Jun 2027 00:32:45.188           238.728
                      89     6 Jun 2027 02:05:31.252     6 Jun 2027 02:12:25.025           413.773
                      90     6 Jun 2027 03:29:48.195     6 Jun 2027 03:31:42.364           114.169
                      91     6 Jun 2027 03:42:11.029     6 Jun 2027 03:42:29.327            18.298
                      92     6 Jun 2027 05:03:39.191     6 Jun 2027 05:09:41.565           362.374
                      93     6 Jun 2027 06:38:33.516     6 Jun 2027 06:46:44.143           490.627
                      94     6 Jun 2027 06:47:03.905     6 Jun 2027 06:48:03.220            59.315
                      95     6 Jun 2027 08:16:33.199     6 Jun 2027 08:24:01.962           448.763
                      96     6 Jun 2027 09:53:29.173     6 Jun 2027 09:58:47.711           318.538
                      97     6 Jun 2027 09:59:05.946     6 Jun 2027 09:59:58.437            52.491
                      98     6 Jun 2027 11:31:02.585     6 Jun 2027 11:35:33.010           270.425
                      99     6 Jun 2027 13:05:26.602     6 Jun 2027 13:06:37.520            70.918
                     100     6 Jun 2027 13:07:13.806     6 Jun 2027 13:10:43.791           209.984
                     101     6 Jun 2027 18:13:17.350     6 Jun 2027 18:16:31.624           194.274
                     102     6 Jun 2027 18:16:44.130     6 Jun 2027 18:18:04.578            80.448
                     103     6 Jun 2027 19:49:38.242     6 Jun 2027 19:54:12.011           273.769
                     104     6 Jun 2027 19:54:26.641     6 Jun 2027 19:56:17.736           111.094
                     105     6 Jun 2027 19:57:03.090     6 Jun 2027 19:57:39.173            36.082
                     106     6 Jun 2027 21:26:11.770     6 Jun 2027 21:32:47.225           395.456
                     107     6 Jun 2027 23:01:44.461     6 Jun 2027 23:09:29.575           465.114
                     108     7 Jun 2027 00:39:25.044     7 Jun 2027 00:39:38.411            13.367
                     109     7 Jun 2027 00:39:48.282     7 Jun 2027 00:40:49.095            60.813
                     110     7 Jun 2027 00:40:57.585     7 Jun 2027 00:41:24.677            27.092
                     111     7 Jun 2027 00:41:34.582     7 Jun 2027 00:45:02.373           207.791
                     112     7 Jun 2027 02:17:56.856     7 Jun 2027 02:22:55.850           298.994
                     113     7 Jun 2027 03:41:44.415     7 Jun 2027 03:44:01.928           137.513
                     114     7 Jun 2027 05:17:57.692     7 Jun 2027 05:21:25.460           207.767
                     115     7 Jun 2027 06:51:29.040     7 Jun 2027 06:58:59.154           450.114
                     116     7 Jun 2027 06:59:03.366     7 Jun 2027 07:00:03.668            60.302
                     117     7 Jun 2027 08:28:55.084     7 Jun 2027 08:35:49.034           413.950
                     118     7 Jun 2027 10:05:58.072     7 Jun 2027 10:10:27.111           269.040
                     119     7 Jun 2027 10:10:33.898     7 Jun 2027 10:11:48.195            74.297
                     120     7 Jun 2027 11:42:45.223     7 Jun 2027 11:47:30.983           285.759
                     121     7 Jun 2027 13:18:00.658     7 Jun 2027 13:18:04.330             3.672
                     122     7 Jun 2027 13:19:42.705     7 Jun 2027 13:22:30.077           167.371
                     123     7 Jun 2027 18:25:38.528     7 Jun 2027 18:28:06.531           148.003
                     124     7 Jun 2027 18:28:28.828     7 Jun 2027 18:30:28.840           120.012
                     125     7 Jun 2027 20:01:32.615     7 Jun 2027 20:08:18.816           406.201
                     126     7 Jun 2027 21:38:15.870     7 Jun 2027 21:44:40.949           385.079
                     127     7 Jun 2027 23:13:44.904     7 Jun 2027 23:21:15.429           450.524
                     128     8 Jun 2027 00:51:59.127     8 Jun 2027 00:52:26.122            26.995
                     129     8 Jun 2027 00:52:36.729     8 Jun 2027 00:58:07.968           331.239
                     130     8 Jun 2027 02:30:15.168     8 Jun 2027 02:34:48.493           273.325
                     131     8 Jun 2027 03:53:36.237     8 Jun 2027 03:56:13.398           157.161
                     132     8 Jun 2027 05:30:02.796     8 Jun 2027 05:33:34.980           212.185
                     133     8 Jun 2027 07:02:12.260     8 Jun 2027 07:02:22.585            10.326
                     134     8 Jun 2027 07:04:06.951     8 Jun 2027 07:10:57.337           410.386
                     135     8 Jun 2027 07:11:00.013     8 Jun 2027 07:12:00.555            60.542
                     136     8 Jun 2027 08:41:06.435     8 Jun 2027 08:47:50.658           404.222
                     137     8 Jun 2027 10:18:09.395     8 Jun 2027 10:22:29.636           260.241
                     138     8 Jun 2027 10:22:33.175     8 Jun 2027 10:23:06.735            33.560
                     139     8 Jun 2027 11:54:49.233     8 Jun 2027 11:59:57.944           308.712
                     140     8 Jun 2027 13:33:08.736     8 Jun 2027 13:33:59.121            50.385
                     141     8 Jun 2027 18:37:40.209     8 Jun 2027 18:39:56.117           135.907
                     142     8 Jun 2027 20:13:36.927     8 Jun 2027 20:20:09.176           392.248
                     143     8 Jun 2027 21:50:18.462     8 Jun 2027 21:56:47.918           389.455
                     144     8 Jun 2027 23:25:53.680     8 Jun 2027 23:33:26.385           452.705
                     145     9 Jun 2027 01:04:06.044     9 Jun 2027 01:05:06.826            60.782
                     146     9 Jun 2027 01:05:12.463     9 Jun 2027 01:10:18.451           305.987
                     147     9 Jun 2027 02:42:44.624     9 Jun 2027 02:46:41.985           237.361
                     148     9 Jun 2027 04:05:41.620     9 Jun 2027 04:08:43.798           182.177
                     149     9 Jun 2027 05:42:10.435     9 Jun 2027 05:45:49.496           219.061
                     150     9 Jun 2027 07:17:17.980     9 Jun 2027 07:24:02.202           404.222
                     151     9 Jun 2027 08:53:39.559     9 Jun 2027 08:59:57.215           377.656
                     152     9 Jun 2027 10:31:05.485     9 Jun 2027 10:35:34.653           269.168
                     153     9 Jun 2027 12:07:16.411     9 Jun 2027 12:11:26.562           250.150
                     154     9 Jun 2027 18:49:45.795     9 Jun 2027 18:52:49.442           183.647
                     155     9 Jun 2027 20:25:40.979     9 Jun 2027 20:31:29.027           348.049
                     156     9 Jun 2027 22:02:23.585     9 Jun 2027 22:08:33.980           370.395
                     157     9 Jun 2027 23:37:53.354     9 Jun 2027 23:44:56.297           422.943
                     158    10 Jun 2027 01:16:02.711    10 Jun 2027 01:16:52.153            49.442
                     159    10 Jun 2027 01:17:09.478    10 Jun 2027 01:22:10.689           301.212
                     160    10 Jun 2027 02:54:16.868    10 Jun 2027 02:54:54.359            37.491
                     161    10 Jun 2027 02:55:06.828    10 Jun 2027 02:57:55.355           168.527
                     162    10 Jun 2027 04:17:44.617    10 Jun 2027 04:20:52.949           188.332
                     163    10 Jun 2027 05:54:13.484    10 Jun 2027 05:57:38.372           204.888
                     164    10 Jun 2027 07:29:24.924    10 Jun 2027 07:36:01.694           396.770
                     165    10 Jun 2027 09:05:21.151    10 Jun 2027 09:11:30.624           369.473
                     166    10 Jun 2027 10:43:12.659    10 Jun 2027 10:47:42.748           270.089
                     167    10 Jun 2027 12:19:10.880    10 Jun 2027 12:23:24.589           253.709
                     168    10 Jun 2027 12:23:29.260    10 Jun 2027 12:24:17.047            47.788
                     169    10 Jun 2027 17:26:08.376    10 Jun 2027 17:27:11.252            62.876
                     170    10 Jun 2027 19:01:53.015    10 Jun 2027 19:04:52.086           179.071
                     171    10 Jun 2027 20:37:52.700    10 Jun 2027 20:43:19.233           326.534
                     172    10 Jun 2027 22:14:21.163    10 Jun 2027 22:20:37.046           375.883
                     173    10 Jun 2027 23:49:50.275    10 Jun 2027 23:56:49.525           419.250
                     174    11 Jun 2027 01:29:08.120    11 Jun 2027 01:34:24.000           315.880
                     175    11 Jun 2027 01:35:23.287    11 Jun 2027 01:36:57.904            94.617
                     176    11 Jun 2027 02:55:20.827    11 Jun 2027 02:55:44.053            23.226
                     177    11 Jun 2027 03:06:14.087    11 Jun 2027 03:09:49.658           215.571
                     178    11 Jun 2027 04:30:11.287    11 Jun 2027 04:32:57.259           165.972
                     179    11 Jun 2027 06:05:57.616    11 Jun 2027 06:10:12.352           254.736
                     180    11 Jun 2027 07:40:40.664    11 Jun 2027 07:48:11.931           451.268
                     181    11 Jun 2027 09:17:26.596    11 Jun 2027 09:23:48.687           382.091
                     182    11 Jun 2027 10:55:42.480    11 Jun 2027 10:59:37.443           234.962
                     183    11 Jun 2027 12:29:01.410    11 Jun 2027 12:30:30.790            89.381
                     184    11 Jun 2027 12:30:58.592    11 Jun 2027 12:35:15.769           257.177
                     185    11 Jun 2027 12:35:36.749    11 Jun 2027 12:36:40.949            64.200
                     186    11 Jun 2027 17:37:26.882    11 Jun 2027 17:39:37.861           130.979
                     187    11 Jun 2027 19:13:39.945    11 Jun 2027 19:17:03.270           203.325
                     188    11 Jun 2027 20:50:16.464    11 Jun 2027 20:56:26.181           369.717
                     189    11 Jun 2027 22:26:27.648    11 Jun 2027 22:33:13.424           405.776
                     190    12 Jun 2027 00:02:31.248    12 Jun 2027 00:08:57.755           386.507
                     191    12 Jun 2027 01:41:28.504    12 Jun 2027 01:48:53.226           444.722
                     192    12 Jun 2027 03:06:36.314    12 Jun 2027 03:07:59.180            82.866
                     193    12 Jun 2027 03:18:12.271    12 Jun 2027 03:19:40.496            88.226
                     194    12 Jun 2027 04:40:48.765    12 Jun 2027 04:41:47.516            58.751
                     195    12 Jun 2027 04:42:26.932    12 Jun 2027 04:45:31.922           184.990
                     196    12 Jun 2027 06:15:58.382    12 Jun 2027 06:17:12.501            74.119
                     197    12 Jun 2027 06:17:40.915    12 Jun 2027 06:22:32.131           291.216
                     198    12 Jun 2027 07:52:46.035    12 Jun 2027 08:00:12.079           446.044
                     199    12 Jun 2027 09:29:47.065    12 Jun 2027 09:35:37.410           350.345
                     200    12 Jun 2027 09:35:47.302    12 Jun 2027 09:35:55.029             7.727
                     201    12 Jun 2027 11:07:40.450    12 Jun 2027 11:11:39.569           239.120
                     202    12 Jun 2027 12:40:57.650    12 Jun 2027 12:47:16.157           378.507
                     203    12 Jun 2027 12:47:31.301    12 Jun 2027 12:48:47.153            75.852
                     204    12 Jun 2027 17:49:24.653    12 Jun 2027 17:52:04.781           160.128
                     205    12 Jun 2027 19:25:45.211    12 Jun 2027 19:29:09.309           204.098
                     206    12 Jun 2027 19:30:58.261    12 Jun 2027 19:32:21.042            82.781
                     207    12 Jun 2027 21:02:19.147    12 Jun 2027 21:08:34.431           375.284
                     208    12 Jun 2027 22:38:34.640    12 Jun 2027 22:45:10.946           396.307
                     209    13 Jun 2027 00:14:37.443    13 Jun 2027 00:20:44.613           367.170
                     210    13 Jun 2027 01:53:42.513    13 Jun 2027 02:00:48.437           425.924
                     211    13 Jun 2027 03:17:57.618    13 Jun 2027 03:20:10.003           132.385
                     212    13 Jun 2027 03:30:11.338    13 Jun 2027 03:31:09.526            58.188
                     213    13 Jun 2027 04:52:24.642    13 Jun 2027 04:53:33.138            68.495
                     214    13 Jun 2027 04:54:21.146    13 Jun 2027 04:57:46.529           205.383
                     215    13 Jun 2027 06:27:18.328    13 Jun 2027 06:29:26.898           128.570
                     216    13 Jun 2027 06:29:28.944    13 Jun 2027 06:34:51.309           322.365
                     217    13 Jun 2027 06:35:21.711    13 Jun 2027 06:35:51.875            30.164
                     218    13 Jun 2027 08:04:53.068    13 Jun 2027 08:12:15.699           442.631
                     219    13 Jun 2027 09:41:36.367    13 Jun 2027 09:47:49.904           373.538
                     220    13 Jun 2027 09:47:53.487    13 Jun 2027 09:48:15.837            22.350
                     221    13 Jun 2027 11:19:39.910    13 Jun 2027 11:23:49.544           249.634
                     222    13 Jun 2027 12:53:23.625    13 Jun 2027 13:00:16.307           412.682
                     223    13 Jun 2027 18:01:26.585    13 Jun 2027 18:04:21.316           174.731
                     224    13 Jun 2027 19:37:57.542    13 Jun 2027 19:41:32.468           214.927
                     225    13 Jun 2027 19:42:40.542    13 Jun 2027 19:45:43.398           182.856
                     226    13 Jun 2027 21:14:30.348    13 Jun 2027 21:20:50.054           379.706
                     227    13 Jun 2027 22:50:02.009    13 Jun 2027 22:50:39.381            37.372
                     228    13 Jun 2027 22:50:50.431    13 Jun 2027 22:57:39.042           408.611

Min Duration         121     7 Jun 2027 13:18:00.658     7 Jun 2027 13:18:04.330             3.672
Max Duration          93     6 Jun 2027 06:38:33.516     6 Jun 2027 06:46:44.143           490.627
Mean Duration                                                                              230.769
Total Duration                                                                           52615.365


Russia-To-KinoSat_111002
------------------------
                  Access        Start Time (UTCG)           Stop Time (UTCG)        Duration (sec)
                  ------    ------------------------    ------------------------    --------------
                       1     1 Jun 2027 00:54:05.797     1 Jun 2027 00:54:34.026            28.229
                       2     1 Jun 2027 00:54:39.272     1 Jun 2027 01:00:15.029           335.757
                       3     1 Jun 2027 02:32:06.009     1 Jun 2027 02:36:58.821           292.812
                       4     1 Jun 2027 03:55:44.924     1 Jun 2027 03:58:24.145           159.221
                       5     1 Jun 2027 05:32:11.980     1 Jun 2027 05:35:47.748           215.768
                       6     1 Jun 2027 07:04:19.879     1 Jun 2027 07:04:30.955            11.076
                       7     1 Jun 2027 07:06:18.810     1 Jun 2027 07:13:06.939           408.129
                       8     1 Jun 2027 07:13:09.928     1 Jun 2027 07:14:07.993            58.065
                       9     1 Jun 2027 08:43:17.446     1 Jun 2027 08:50:02.122           404.676
                      10     1 Jun 2027 10:20:43.933     1 Jun 2027 10:24:43.308           239.376
                      11     1 Jun 2027 10:24:45.915     1 Jun 2027 10:25:24.617            38.702
                      12     1 Jun 2027 11:57:04.719     1 Jun 2027 12:01:55.077           290.357
                      13     1 Jun 2027 13:35:21.613     1 Jun 2027 13:35:53.153            31.541
                      14     1 Jun 2027 18:39:51.650     1 Jun 2027 18:42:09.289           137.639
                      15     1 Jun 2027 20:15:47.580     1 Jun 2027 20:22:17.218           389.638
                      16     1 Jun 2027 21:52:28.790     1 Jun 2027 21:58:59.164           390.374
                      17     1 Jun 2027 23:28:01.933     1 Jun 2027 23:35:31.923           449.990
                      18     2 Jun 2027 01:06:12.125     2 Jun 2027 01:07:14.920            62.795
                      19     2 Jun 2027 01:07:21.952     2 Jun 2027 01:12:28.025           306.074
                      20     2 Jun 2027 02:45:19.437     2 Jun 2027 02:48:52.505           213.067
                      21     2 Jun 2027 04:07:53.145     2 Jun 2027 04:10:56.818           183.673
                      22     2 Jun 2027 05:44:21.788     2 Jun 2027 05:47:59.790           218.003
                      23     2 Jun 2027 07:19:32.841     2 Jun 2027 07:26:10.205           397.364
                      24     2 Jun 2027 08:55:51.724     2 Jun 2027 09:02:08.119           376.395
                      25     2 Jun 2027 10:33:14.819     2 Jun 2027 10:37:47.262           272.443
                      26     2 Jun 2027 12:09:24.428     2 Jun 2027 12:14:01.100           276.672
                      27     2 Jun 2027 18:51:58.060     2 Jun 2027 18:55:01.893           183.833
                      28     2 Jun 2027 20:27:52.669     2 Jun 2027 20:33:34.367           341.698
                      29     2 Jun 2027 22:04:34.401     2 Jun 2027 22:10:44.146           369.745
                      30     2 Jun 2027 23:40:00.106     2 Jun 2027 23:47:02.191           422.085
                      31     3 Jun 2027 01:18:14.722     3 Jun 2027 01:18:55.697            40.975
                      32     3 Jun 2027 01:19:19.168     3 Jun 2027 01:24:23.060           303.892
                      33     3 Jun 2027 02:56:27.259     3 Jun 2027 02:57:04.711            37.452
                      34     3 Jun 2027 02:57:33.352     3 Jun 2027 02:59:59.229           145.877
                      35     3 Jun 2027 04:20:35.518     3 Jun 2027 04:23:04.108           148.590
                      36     3 Jun 2027 05:56:20.321     3 Jun 2027 05:59:51.736           211.415
                      37     3 Jun 2027 07:31:25.976     3 Jun 2027 07:38:16.272           410.296
                      38     3 Jun 2027 09:07:30.204     3 Jun 2027 09:13:50.109           379.905
                      39     3 Jun 2027 10:45:27.994     3 Jun 2027 10:49:53.121           265.128
                      40     3 Jun 2027 12:21:19.382     3 Jun 2027 12:25:33.564           254.182
                      41     3 Jun 2027 12:25:39.636     3 Jun 2027 12:26:32.131            52.495
                      42     3 Jun 2027 17:28:10.403     3 Jun 2027 17:29:25.919            75.516
                      43     3 Jun 2027 19:03:54.749     3 Jun 2027 19:07:03.266           188.518
                      44     3 Jun 2027 20:40:04.344     3 Jun 2027 20:45:31.848           327.504
                      45     3 Jun 2027 22:16:32.831     3 Jun 2027 22:23:22.450           409.619
                      46     3 Jun 2027 23:52:01.261     3 Jun 2027 23:59:05.355           424.094
                      47     4 Jun 2027 01:31:19.290     4 Jun 2027 01:36:41.920           322.630
                      48     4 Jun 2027 01:37:29.160     4 Jun 2027 01:39:06.522            97.362
                      49     4 Jun 2027 02:57:24.199     4 Jun 2027 02:57:56.348            32.148
                      50     4 Jun 2027 03:08:23.935     4 Jun 2027 03:11:51.782           207.847
                      51     4 Jun 2027 04:31:42.238     4 Jun 2027 04:35:18.364           216.126
                      52     4 Jun 2027 06:08:04.887     4 Jun 2027 06:12:28.260           263.373
                      53     4 Jun 2027 07:42:50.149     4 Jun 2027 07:50:22.928           452.779
                      54     4 Jun 2027 09:19:39.499     4 Jun 2027 09:25:58.921           379.422
                      55     4 Jun 2027 10:57:50.312     4 Jun 2027 11:01:47.805           237.493
                      56     4 Jun 2027 12:31:08.143     4 Jun 2027 12:32:51.377           103.234
                      57     4 Jun 2027 12:32:56.063     4 Jun 2027 12:37:32.542           276.479
                      58     4 Jun 2027 12:37:49.154     4 Jun 2027 12:38:55.081            65.927
                      59     4 Jun 2027 17:39:36.116     4 Jun 2027 17:41:56.409           140.293
                      60     4 Jun 2027 19:15:50.478     4 Jun 2027 19:19:14.018           203.539
                      61     4 Jun 2027 20:52:30.290     4 Jun 2027 20:58:41.155           370.866
                      62     4 Jun 2027 22:28:40.725     4 Jun 2027 22:35:22.938           402.213
                      63     5 Jun 2027 00:04:41.608     5 Jun 2027 00:11:04.590           382.982
                      64     5 Jun 2027 01:43:40.221     5 Jun 2027 01:50:59.989           439.769
                      65     5 Jun 2027 03:08:43.892     5 Jun 2027 03:10:11.033            87.142
                      66     5 Jun 2027 03:20:24.488     5 Jun 2027 03:21:49.667            85.179
                      67     5 Jun 2027 04:42:40.489     5 Jun 2027 04:43:56.107            75.617
                      68     5 Jun 2027 04:44:37.241     5 Jun 2027 04:47:45.211           187.971
                      69     5 Jun 2027 06:17:53.199     5 Jun 2027 06:19:17.597            84.398
                      70     5 Jun 2027 06:19:48.819     5 Jun 2027 06:24:43.751           294.932
                      71     5 Jun 2027 07:54:57.337     5 Jun 2027 08:02:22.690           445.353
                      72     5 Jun 2027 09:31:55.343     5 Jun 2027 09:37:50.268           354.925
                      73     5 Jun 2027 11:09:51.768     5 Jun 2027 11:13:50.475           238.707
                      74     5 Jun 2027 12:43:12.716     5 Jun 2027 12:50:55.146           462.430
                      75     5 Jun 2027 17:51:34.794     5 Jun 2027 17:54:12.640           157.847
                      76     5 Jun 2027 19:27:57.779     5 Jun 2027 19:31:20.747           202.968
                      77     5 Jun 2027 19:32:58.514     5 Jun 2027 19:34:54.351           115.836
                      78     5 Jun 2027 21:04:47.932     5 Jun 2027 21:10:47.256           359.324
                      79     5 Jun 2027 22:40:45.139     5 Jun 2027 22:47:25.774           400.635
                      80     6 Jun 2027 00:16:49.660     6 Jun 2027 00:18:20.350            90.689
                      81     6 Jun 2027 00:18:23.918     6 Jun 2027 00:22:53.715           269.797
                      82     6 Jun 2027 01:55:56.317     6 Jun 2027 02:02:58.004           421.686
                      83     6 Jun 2027 03:20:06.113     6 Jun 2027 03:22:22.849           136.736
                      84     6 Jun 2027 03:32:21.786     6 Jun 2027 03:33:17.054            55.268
                      85     6 Jun 2027 04:54:21.064     6 Jun 2027 04:55:43.359            82.295
                      86     6 Jun 2027 04:56:27.518     6 Jun 2027 04:59:58.247           210.730
                      87     6 Jun 2027 06:29:20.615     6 Jun 2027 06:37:03.901           463.286
                      88     6 Jun 2027 06:37:31.144     6 Jun 2027 06:38:03.280            32.136
                      89     6 Jun 2027 08:06:59.351     6 Jun 2027 08:14:25.873           446.523
                      90     6 Jun 2027 09:43:45.770     6 Jun 2027 09:49:42.723           356.953
                      91     6 Jun 2027 09:50:01.648     6 Jun 2027 09:50:28.801            27.153
                      92     6 Jun 2027 11:21:49.877     6 Jun 2027 11:25:59.267           249.390
                      93     6 Jun 2027 12:55:39.385     6 Jun 2027 13:02:24.886           405.501
                      94     6 Jun 2027 18:03:38.423     6 Jun 2027 18:06:23.269           164.846
                      95     6 Jun 2027 19:40:05.842     6 Jun 2027 19:43:56.253           230.411
                      96     6 Jun 2027 19:44:56.595     6 Jun 2027 19:48:00.293           183.699
                      97     6 Jun 2027 21:16:38.758     6 Jun 2027 21:23:02.570           383.812
                      98     6 Jun 2027 22:52:12.099     6 Jun 2027 22:52:59.366            47.267
                      99     6 Jun 2027 22:53:04.600     6 Jun 2027 22:59:55.906           411.306
                     100     7 Jun 2027 00:29:16.090     7 Jun 2027 00:29:29.537            13.448
                     101     7 Jun 2027 00:29:43.115     7 Jun 2027 00:30:11.130            28.015
                     102     7 Jun 2027 00:30:14.252     7 Jun 2027 00:35:13.859           299.607
                     103     7 Jun 2027 02:08:02.533     7 Jun 2027 02:14:47.332           404.799
                     104     7 Jun 2027 03:32:13.185     7 Jun 2027 03:34:13.195           120.010
                     105     7 Jun 2027 03:44:45.898     7 Jun 2027 03:44:48.629             2.731
                     106     7 Jun 2027 05:06:01.985     7 Jun 2027 05:12:02.401           360.416
                     107     7 Jun 2027 06:40:54.343     7 Jun 2027 06:49:11.155           496.812
                     108     7 Jun 2027 06:49:28.521     7 Jun 2027 06:50:29.428            60.906
                     109     7 Jun 2027 08:19:00.803     7 Jun 2027 08:26:27.047           446.244
                     110     7 Jun 2027 09:55:55.773     7 Jun 2027 10:01:01.299           305.525
                     111     7 Jun 2027 10:01:13.012     7 Jun 2027 10:02:20.598            67.586
                     112     7 Jun 2027 11:33:03.632     7 Jun 2027 11:37:57.601           293.970
                     113     7 Jun 2027 13:07:56.543     7 Jun 2027 13:09:00.041            63.498
                     114     7 Jun 2027 13:09:45.618     7 Jun 2027 13:13:06.847           201.229
                     115     7 Jun 2027 18:15:43.773     7 Jun 2027 18:20:33.059           289.286
                     116     7 Jun 2027 19:52:00.509     7 Jun 2027 19:56:46.935           286.426
                     117     7 Jun 2027 19:56:53.300     7 Jun 2027 19:58:47.171           113.870
                     118     7 Jun 2027 19:59:27.037     7 Jun 2027 20:00:15.862            48.826
                     119     7 Jun 2027 21:28:38.069     7 Jun 2027 21:35:12.383           394.313
                     120     7 Jun 2027 23:04:09.758     7 Jun 2027 23:11:54.916           465.158
                     121     8 Jun 2027 00:41:53.188     8 Jun 2027 00:42:03.108             9.920
                     122     8 Jun 2027 00:42:15.283     8 Jun 2027 00:43:16.855            61.572
                     123     8 Jun 2027 00:43:21.753     8 Jun 2027 00:48:25.865           304.112
                     124     8 Jun 2027 02:20:27.367     8 Jun 2027 02:25:21.504           294.137
                     125     8 Jun 2027 03:44:08.637     8 Jun 2027 03:46:30.113           141.476
                     126     8 Jun 2027 05:20:23.063     8 Jun 2027 05:23:55.250           212.186
                     127     8 Jun 2027 06:53:55.482     8 Jun 2027 07:02:28.831           513.348
                     128     8 Jun 2027 08:31:28.014     8 Jun 2027 08:38:12.862           404.848
                     129     8 Jun 2027 10:08:22.957     8 Jun 2027 10:12:52.271           269.314
                     130     8 Jun 2027 10:12:56.974     8 Jun 2027 10:14:13.829            76.855
                     131     8 Jun 2027 11:45:17.428     8 Jun 2027 11:49:51.364           273.936
                     132     8 Jun 2027 13:22:26.947     8 Jun 2027 13:24:53.403           146.457
                     133     8 Jun 2027 18:27:59.522     8 Jun 2027 18:30:36.154           156.632
                     134     8 Jun 2027 18:31:10.575     8 Jun 2027 18:32:45.016            94.441
                     135     8 Jun 2027 20:03:58.853     8 Jun 2027 20:10:39.371           400.518
                     136     8 Jun 2027 21:40:41.709     8 Jun 2027 21:47:03.943           382.234
                     137     8 Jun 2027 23:16:12.348     8 Jun 2027 23:23:46.108           453.760
                     138     9 Jun 2027 00:54:20.772     9 Jun 2027 00:54:48.888            28.116
                     139     9 Jun 2027 00:54:53.184     9 Jun 2027 01:00:28.355           335.172
                     140     9 Jun 2027 02:32:21.183     9 Jun 2027 02:37:13.882           292.699
                     141     9 Jun 2027 03:56:00.143     9 Jun 2027 03:58:39.821           159.679
                     142     9 Jun 2027 05:32:27.382     9 Jun 2027 05:36:03.052           215.670
                     143     9 Jun 2027 07:04:35.077     9 Jun 2027 07:04:45.903            10.826
                     144     9 Jun 2027 07:06:34.222     9 Jun 2027 07:13:22.168           407.945
                     145     9 Jun 2027 07:13:25.210     9 Jun 2027 07:14:23.184            57.974
                     146     9 Jun 2027 08:43:32.691     9 Jun 2027 08:50:17.411           404.720
                     147     9 Jun 2027 10:21:02.265     9 Jun 2027 10:24:59.485           237.220
                     148     9 Jun 2027 10:25:00.069     9 Jun 2027 10:25:40.150            40.082
                     149     9 Jun 2027 11:57:21.235     9 Jun 2027 12:02:09.806           288.571
                     150     9 Jun 2027 13:35:36.539     9 Jun 2027 13:36:07.962            31.423
                     151     9 Jun 2027 18:40:06.983     9 Jun 2027 18:42:24.329           137.345
                     152     9 Jun 2027 20:16:02.836     9 Jun 2027 20:22:32.274           389.438
                     153     9 Jun 2027 21:52:43.978     9 Jun 2027 21:59:14.438           390.460
                     154     9 Jun 2027 23:28:17.162     9 Jun 2027 23:35:46.272           449.110
                     155    10 Jun 2027 01:06:26.746    10 Jun 2027 01:07:29.833            63.088
                     156    10 Jun 2027 01:07:37.099    10 Jun 2027 01:12:42.952           305.853
                     157    10 Jun 2027 02:45:34.546    10 Jun 2027 02:49:06.826           212.280
                     158    10 Jun 2027 04:08:08.267    10 Jun 2027 04:11:12.360           184.094
                     159    10 Jun 2027 05:44:37.218    10 Jun 2027 05:48:14.814           217.597
                     160    10 Jun 2027 07:19:48.228    10 Jun 2027 07:26:25.422           397.193
                     161    10 Jun 2027 08:56:07.206    10 Jun 2027 09:02:23.587           376.381
                     162    10 Jun 2027 10:33:30.495    10 Jun 2027 10:38:02.789           272.294
                     163    10 Jun 2027 12:09:39.576    10 Jun 2027 12:14:16.583           277.008
                     164    10 Jun 2027 17:17:25.750    10 Jun 2027 17:17:29.222             3.473
                     165    10 Jun 2027 18:52:13.577    10 Jun 2027 18:55:19.253           185.676
                     166    10 Jun 2027 20:28:08.003    10 Jun 2027 20:33:49.320           341.317
                     167    10 Jun 2027 22:04:49.663    10 Jun 2027 22:10:59.205           369.542
                     168    10 Jun 2027 23:40:15.314    10 Jun 2027 23:47:17.007           421.693
                     169    11 Jun 2027 01:18:30.051    11 Jun 2027 01:19:11.317            41.266
                     170    11 Jun 2027 01:19:34.219    11 Jun 2027 01:24:38.151           303.931
                     171    11 Jun 2027 02:56:43.439    11 Jun 2027 02:57:19.851            36.413
                     172    11 Jun 2027 02:57:48.422    11 Jun 2027 03:00:14.396           145.974
                     173    11 Jun 2027 04:20:50.762    11 Jun 2027 04:23:19.383           148.621
                     174    11 Jun 2027 05:56:34.946    11 Jun 2027 06:00:06.966           212.019
                     175    11 Jun 2027 07:31:39.400    11 Jun 2027 07:38:31.727           412.327
                     176    11 Jun 2027 09:07:44.771    11 Jun 2027 09:14:05.771           381.000
                     177    11 Jun 2027 10:45:43.058    11 Jun 2027 10:50:07.973           264.915
                     178    11 Jun 2027 12:21:34.272    11 Jun 2027 12:25:48.653           254.381
                     179    11 Jun 2027 12:25:54.755    11 Jun 2027 12:26:48.337            53.582
                     180    11 Jun 2027 17:28:24.487    11 Jun 2027 17:29:42.305            77.818
                     181    11 Jun 2027 19:04:09.489    11 Jun 2027 19:07:18.329           188.840
                     182    11 Jun 2027 20:40:19.960    11 Jun 2027 20:45:47.496           327.536
                     183    11 Jun 2027 22:16:48.081    11 Jun 2027 22:23:37.564           409.483
                     184    11 Jun 2027 23:52:16.621    11 Jun 2027 23:59:20.999           424.378
                     185    12 Jun 2027 01:31:34.589    12 Jun 2027 01:36:58.398           323.809
                     186    12 Jun 2027 01:37:44.319    12 Jun 2027 01:39:21.770            97.452
                     187    12 Jun 2027 02:57:38.259    12 Jun 2027 02:58:12.108            33.850
                     188    12 Jun 2027 03:08:39.030    12 Jun 2027 03:12:06.059           207.030
                     189    12 Jun 2027 04:31:57.107    12 Jun 2027 04:35:34.150           217.042
                     190    12 Jun 2027 06:08:19.607    12 Jun 2027 06:12:44.701           265.094
                     191    12 Jun 2027 07:43:05.337    12 Jun 2027 07:50:38.106           452.769
                     192    12 Jun 2027 09:19:54.852    12 Jun 2027 09:26:14.051           379.199
                     193    12 Jun 2027 10:58:05.308    12 Jun 2027 11:02:02.930           237.622
                     194    12 Jun 2027 12:31:22.745    12 Jun 2027 12:33:07.138           104.394
                     195    12 Jun 2027 12:33:10.007    12 Jun 2027 12:37:48.293           278.286
                     196    12 Jun 2027 12:38:04.643    12 Jun 2027 12:39:11.285            66.642
                     197    12 Jun 2027 17:39:51.155    12 Jun 2027 17:42:12.382           141.227
                     198    12 Jun 2027 19:16:05.720    12 Jun 2027 19:19:29.493           203.772
                     199    12 Jun 2027 20:52:46.225    12 Jun 2027 20:58:57.471           371.246
                     200    12 Jun 2027 22:28:56.124    12 Jun 2027 22:35:37.861           401.736
                     201    13 Jun 2027 00:04:56.891    13 Jun 2027 00:11:21.147           384.256
                     202    13 Jun 2027 01:43:55.840    13 Jun 2027 01:51:15.171           439.331
                     203    13 Jun 2027 03:08:58.702    13 Jun 2027 03:10:26.721            88.019
                     204    13 Jun 2027 03:20:39.760    13 Jun 2027 03:22:03.820            84.060
                     205    13 Jun 2027 04:42:55.205    13 Jun 2027 04:44:10.855            75.650
                     206    13 Jun 2027 04:44:52.469    13 Jun 2027 04:48:01.163           188.693
                     207    13 Jun 2027 06:18:07.581    13 Jun 2027 06:19:32.419            84.838
                     208    13 Jun 2027 06:20:03.683    13 Jun 2027 06:24:59.047           295.365
                     209    13 Jun 2027 06:26:00.529    13 Jun 2027 06:26:00.861             0.331
                     210    13 Jun 2027 07:55:12.270    13 Jun 2027 08:02:38.313           446.043
                     211    13 Jun 2027 09:32:10.399    13 Jun 2027 09:38:18.989           368.589
                     212    13 Jun 2027 11:10:06.702    13 Jun 2027 11:14:05.580           238.878
                     213    13 Jun 2027 12:43:28.288    13 Jun 2027 12:51:10.216           461.928
                     214    13 Jun 2027 17:51:50.062    13 Jun 2027 17:54:28.083           158.021
                     215    13 Jun 2027 19:28:13.244    13 Jun 2027 19:31:36.119           202.875
                     216    13 Jun 2027 19:33:13.485    13 Jun 2027 19:35:14.395           120.910
                     217    13 Jun 2027 21:05:03.149    13 Jun 2027 21:11:02.527           359.378
                     218    13 Jun 2027 22:40:57.852    13 Jun 2027 22:47:41.591           403.739

Min Duration         209    13 Jun 2027 06:26:00.529    13 Jun 2027 06:26:00.861             0.331
Max Duration         127     8 Jun 2027 06:53:55.482     8 Jun 2027 07:02:28.831           513.348
Mean Duration                                                                              240.022
Total Duration                                                                           52324.809


Russia-To-KinoSat_111003
------------------------
                  Access        Start Time (UTCG)           Stop Time (UTCG)        Duration (sec)
                  ------    ------------------------    ------------------------    --------------
                       1     1 Jun 2027 00:44:05.404     1 Jun 2027 00:44:07.313             1.909
                       2     1 Jun 2027 00:44:27.254     1 Jun 2027 00:45:23.329            56.075
                       3     1 Jun 2027 00:45:31.329     1 Jun 2027 00:50:39.439           308.110
                       4     1 Jun 2027 02:22:53.274     1 Jun 2027 02:27:34.146           280.873
                       5     1 Jun 2027 03:46:17.055     1 Jun 2027 03:48:42.095           145.040
                       6     1 Jun 2027 05:22:38.690     1 Jun 2027 05:26:06.180           207.490
                       7     1 Jun 2027 06:56:08.220     1 Jun 2027 07:04:38.995           510.775
                       8     1 Jun 2027 08:33:39.548     1 Jun 2027 08:40:23.950           404.402
                       9     1 Jun 2027 10:10:35.075     1 Jun 2027 10:14:58.544           263.470
                      10     1 Jun 2027 10:15:03.977     1 Jun 2027 10:16:21.978            78.001
                      11     1 Jun 2027 11:47:25.543     1 Jun 2027 11:51:58.175           272.632
                      12     1 Jun 2027 13:25:02.661     1 Jun 2027 13:26:46.122           103.461
                      13     1 Jun 2027 18:30:08.150     1 Jun 2027 18:32:42.074           153.924
                      14     1 Jun 2027 18:33:28.353     1 Jun 2027 18:34:43.015            74.662
                      15     1 Jun 2027 20:06:10.453     1 Jun 2027 20:12:46.363           395.910
                      16     1 Jun 2027 21:42:52.007     1 Jun 2027 21:49:15.173           383.166
                      17     1 Jun 2027 23:18:24.245     1 Jun 2027 23:25:56.943           452.698
                      18     2 Jun 2027 00:56:28.996     2 Jun 2027 00:56:57.012            28.015
                      19     2 Jun 2027 00:57:00.089     2 Jun 2027 01:02:43.124           343.035
                      20     2 Jun 2027 02:34:31.658     2 Jun 2027 02:39:13.868           282.210
                      21     2 Jun 2027 03:58:08.080     2 Jun 2027 04:00:50.981           162.901
                      22     2 Jun 2027 05:34:40.247     2 Jun 2027 05:38:13.526           213.279
                      23     2 Jun 2027 07:09:08.499     2 Jun 2027 07:15:33.166           384.667
                      24     2 Jun 2027 07:15:36.027     2 Jun 2027 07:16:34.180            58.153
                      25     2 Jun 2027 08:45:47.204     2 Jun 2027 08:52:28.678           401.475
                      26     2 Jun 2027 10:23:28.087     2 Jun 2027 10:27:55.687           267.600
                      27     2 Jun 2027 11:59:28.087     2 Jun 2027 12:04:15.683           287.596
                      28     2 Jun 2027 18:42:18.798     2 Jun 2027 18:44:36.990           138.192
                      29     2 Jun 2027 20:18:13.954     2 Jun 2027 20:24:33.314           379.360
                      30     2 Jun 2027 21:54:55.339     2 Jun 2027 22:01:24.134           388.796
                      31     2 Jun 2027 23:30:26.963     2 Jun 2027 23:37:50.469           443.507
                      32     3 Jun 2027 01:08:36.602     3 Jun 2027 01:09:37.109            60.508
                      33     3 Jun 2027 01:09:45.627     3 Jun 2027 01:14:57.400           311.774
                      34     3 Jun 2027 02:47:44.803     3 Jun 2027 02:51:07.274           202.471
                      35     3 Jun 2027 04:10:18.226     3 Jun 2027 04:13:24.436           186.210
                      36     3 Jun 2027 05:46:49.616     3 Jun 2027 05:50:23.239           213.623
                      37     3 Jun 2027 07:21:58.883     3 Jun 2027 07:28:35.960           397.077
                      38     3 Jun 2027 08:58:22.089     3 Jun 2027 09:04:34.602           372.513
                      39     3 Jun 2027 10:35:36.367     3 Jun 2027 10:40:14.868           278.501
                      40     3 Jun 2027 12:11:54.996     3 Jun 2027 12:16:35.482           280.486
                      41     3 Jun 2027 18:54:28.144     3 Jun 2027 18:57:31.193           183.049
                      42     3 Jun 2027 20:30:19.608     3 Jun 2027 20:35:56.982           337.373
                      43     3 Jun 2027 22:07:00.152     3 Jun 2027 22:13:08.567           368.415
                      44     3 Jun 2027 23:42:24.796     3 Jun 2027 23:49:25.039           420.243
                      45     4 Jun 2027 01:20:41.345     4 Jun 2027 01:20:59.760            18.415
                      46     4 Jun 2027 01:21:07.760     4 Jun 2027 01:21:21.712            13.952
                      47     4 Jun 2027 01:21:43.880     4 Jun 2027 01:26:46.830           302.950
                      48     4 Jun 2027 01:28:18.434     4 Jun 2027 01:28:25.881             7.447
                      49     4 Jun 2027 02:58:52.692     4 Jun 2027 02:59:29.996            37.304
                      50     4 Jun 2027 03:00:00.128     4 Jun 2027 03:02:27.027           146.899
                      51     4 Jun 2027 04:22:56.891     4 Jun 2027 04:25:30.320           153.429
                      52     4 Jun 2027 05:58:43.093     4 Jun 2027 06:02:41.919           238.826
                      53     4 Jun 2027 07:33:40.832     4 Jun 2027 07:40:43.335           422.503
                      54     4 Jun 2027 09:09:53.765     4 Jun 2027 09:16:21.278           387.513
                      55     4 Jun 2027 10:48:14.137     4 Jun 2027 10:52:04.972           230.835
                      56     4 Jun 2027 12:23:33.889     4 Jun 2027 12:27:57.568           263.679
                      57     4 Jun 2027 12:28:05.141     4 Jun 2027 12:29:02.538            57.396
                      58     4 Jun 2027 17:30:26.962     4 Jun 2027 17:31:56.164            89.203
                      59     4 Jun 2027 19:06:17.577     4 Jun 2027 19:09:26.706           189.129
                      60     4 Jun 2027 20:42:50.634     4 Jun 2027 20:47:59.594           308.959
                      61     4 Jun 2027 22:18:58.976     4 Jun 2027 22:25:47.346           408.369
                      62     4 Jun 2027 23:54:27.750     5 Jun 2027 00:01:33.721           425.971
                      63     5 Jun 2027 01:33:46.161     5 Jun 2027 01:39:24.666           338.505
                      64     5 Jun 2027 01:39:55.360     5 Jun 2027 01:41:30.167            94.807
                      65     5 Jun 2027 02:59:41.250     5 Jun 2027 03:00:25.980            44.730
                      66     5 Jun 2027 03:10:48.646     5 Jun 2027 03:12:31.887           103.241
                      67     5 Jun 2027 03:12:43.657     5 Jun 2027 03:14:07.879            84.223
                      68     5 Jun 2027 04:33:45.628     5 Jun 2027 04:37:48.197           242.569
                      69     5 Jun 2027 06:09:05.349     5 Jun 2027 06:09:30.250            24.901
                      70     5 Jun 2027 06:10:28.294     5 Jun 2027 06:14:58.227           269.933
                      71     5 Jun 2027 07:45:13.807     5 Jun 2027 07:52:48.312           454.505
                      72     5 Jun 2027 09:22:15.767     5 Jun 2027 09:28:23.385           367.619
                      73     5 Jun 2027 11:00:15.586     5 Jun 2027 11:04:12.609           237.024
                      74     5 Jun 2027 12:33:27.796     5 Jun 2027 12:39:38.966           371.170
                      75     5 Jun 2027 12:39:43.747     5 Jun 2027 12:41:22.284            98.537
                      76     5 Jun 2027 17:42:00.260     5 Jun 2027 17:44:28.473           148.213
                      77     5 Jun 2027 19:18:16.669     5 Jun 2027 19:21:40.167           203.497
                      78     5 Jun 2027 20:54:59.322     5 Jun 2027 21:01:12.393           373.072
                      79     5 Jun 2027 22:31:07.657     5 Jun 2027 22:37:43.590           395.933
                      80     6 Jun 2027 00:07:07.956     6 Jun 2027 00:13:33.583           385.627
                      81     6 Jun 2027 01:46:09.670     6 Jun 2027 01:53:22.794           433.125
                      82     6 Jun 2027 03:11:07.826     6 Jun 2027 03:12:38.440            90.615
                      83     6 Jun 2027 03:22:50.144     6 Jun 2027 03:24:10.121            79.977
                      84     6 Jun 2027 04:45:03.151     6 Jun 2027 04:46:16.130            72.978
                      85     6 Jun 2027 04:47:05.212     6 Jun 2027 04:50:14.297           189.085
                      86     6 Jun 2027 06:20:09.999     6 Jun 2027 06:21:39.250            89.251
                      87     6 Jun 2027 06:22:11.969     6 Jun 2027 06:27:11.144           299.175
                      88     6 Jun 2027 06:28:04.378     6 Jun 2027 06:28:21.629            17.251
                      89     6 Jun 2027 07:57:24.317     6 Jun 2027 08:04:49.370           445.052
                      90     6 Jun 2027 09:34:19.608     6 Jun 2027 09:40:29.294           369.686
                      91     6 Jun 2027 11:12:14.807     6 Jun 2027 11:16:14.789           239.982
                      92     6 Jun 2027 12:45:48.315     6 Jun 2027 12:53:20.199           451.884
                      93     6 Jun 2027 17:54:01.162     6 Jun 2027 17:56:39.643           158.480
                      94     6 Jun 2027 19:30:25.896     6 Jun 2027 19:33:48.681           202.784
                      95     6 Jun 2027 19:35:21.530     6 Jun 2027 19:37:36.756           135.226
                      96     6 Jun 2027 21:07:14.251     6 Jun 2027 21:13:09.820           355.569
                      97     6 Jun 2027 22:43:07.455     6 Jun 2027 22:49:57.522           410.067
                      98     7 Jun 2027 00:19:25.765     7 Jun 2027 00:25:21.577           355.812
                      99     7 Jun 2027 01:58:28.298     7 Jun 2027 02:05:26.746           418.448
                     100     7 Jun 2027 03:22:36.221     7 Jun 2027 03:24:51.017           134.797
                     101     7 Jun 2027 03:34:46.895     7 Jun 2027 03:35:25.994            39.099
                     102     7 Jun 2027 04:56:48.699     7 Jun 2027 04:58:09.439            80.741
                     103     7 Jun 2027 04:58:51.445     7 Jun 2027 05:02:25.583           214.138
                     104     7 Jun 2027 06:31:39.395     7 Jun 2027 06:39:31.713           472.318
                     105     7 Jun 2027 06:39:56.134     7 Jun 2027 06:40:35.964            39.830
                     106     7 Jun 2027 08:09:25.590     7 Jun 2027 08:16:51.158           445.567
                     107     7 Jun 2027 09:46:11.231     7 Jun 2027 09:52:06.341           355.109
                     108     7 Jun 2027 09:52:13.988     7 Jun 2027 09:52:55.801            41.813
                     109     7 Jun 2027 11:24:16.249     7 Jun 2027 11:28:24.816           248.566
                     110     7 Jun 2027 12:58:07.120     7 Jun 2027 13:04:47.619           400.499
                     111     7 Jun 2027 18:06:04.979     7 Jun 2027 18:08:59.716           174.737
                     112     7 Jun 2027 19:42:29.609     7 Jun 2027 19:46:30.782           241.173
                     113     7 Jun 2027 19:47:23.639     7 Jun 2027 19:50:31.105           187.466
                     114     7 Jun 2027 21:19:06.455     7 Jun 2027 21:25:31.279           384.824
                     115     7 Jun 2027 22:54:35.881     7 Jun 2027 23:02:23.946           468.065
                     116     8 Jun 2027 00:31:49.458     8 Jun 2027 00:31:54.723             5.266
                     117     8 Jun 2027 00:32:10.726     8 Jun 2027 00:37:41.920           331.193
                     118     8 Jun 2027 02:10:32.430     8 Jun 2027 02:17:12.529           400.099
                     119     8 Jun 2027 03:34:38.083     8 Jun 2027 03:36:51.915           133.832
                     120     8 Jun 2027 05:10:35.673     8 Jun 2027 05:14:29.921           234.248
                     121     8 Jun 2027 06:44:25.193     8 Jun 2027 06:51:44.946           439.754
                     122     8 Jun 2027 06:51:55.136     8 Jun 2027 06:52:54.851            59.715
                     123     8 Jun 2027 08:21:28.989     8 Jun 2027 08:28:48.359           439.370
                     124     8 Jun 2027 09:58:24.032     8 Jun 2027 10:03:25.537           301.506
                     125     8 Jun 2027 10:03:33.664     8 Jun 2027 10:04:43.001            69.337
                     126     8 Jun 2027 11:35:29.770     8 Jun 2027 11:40:22.426           292.656
                     127     8 Jun 2027 13:10:33.130     8 Jun 2027 13:11:14.929            41.799
                     128     8 Jun 2027 13:12:11.000     8 Jun 2027 13:15:29.604           198.604
                     129     8 Jun 2027 18:18:09.780     8 Jun 2027 18:20:39.003           149.222
                     130     8 Jun 2027 18:20:50.070     8 Jun 2027 18:23:25.585           155.515
                     131     8 Jun 2027 19:54:23.725     8 Jun 2027 20:01:18.256           414.531
                     132     8 Jun 2027 21:31:06.091     8 Jun 2027 21:37:39.622           393.531
                     133     8 Jun 2027 23:06:35.049     8 Jun 2027 23:14:14.263           459.214
                     134     9 Jun 2027 00:44:21.245     9 Jun 2027 00:44:21.909             0.664
                     135     9 Jun 2027 00:44:43.009     9 Jun 2027 00:45:36.917            53.908
                     136     9 Jun 2027 00:45:46.410     9 Jun 2027 00:50:00.401           253.991
                     137     9 Jun 2027 02:23:08.373     9 Jun 2027 02:27:49.612           281.238
                     138     9 Jun 2027 03:46:32.074     9 Jun 2027 03:48:57.571           145.497
