DATA_Files/Russia2Constellation/AreaTarget-Russia-To-Satellite-KinoSat_01_plane.txt

                                                                                                                                                                                                                                                                                           10 May 2023 20:54:33
Civil Air Patrol Use Only
AreaTarget-Russia-To-Satellite-KinoSat_110101, Satellite-KinoSat_110102, Satellite-KinoSat_110103, Satellite-KinoSat_110104, Satellite-KinoSat_110105, Satellite-KinoSat_110106, Satellite-KinoSat_110107, Satellite-KinoSat_110108, Satellite-KinoSat_110109, Satellite-KinoSat_110110:  Access Summary Report


Russia-To-KinoSat_110101
------------------------
                  Access        Start Time (UTCG)           Stop Time (UTCG)        Duration (sec)
                  ------    ------------------------    ------------------------    --------------
                       1     1 Jun 2027 00:00:01.000     1 Jun 2027 00:01:27.766            86.766
                       2     1 Jun 2027 01:31:20.774     1 Jun 2027 01:38:40.320           439.545
                       3     1 Jun 2027 01:38:52.598     1 Jun 2027 01:39:52.724            60.126
                       4     1 Jun 2027 03:08:30.346     1 Jun 2027 03:15:49.225           438.879
                       5     1 Jun 2027 04:45:33.998     1 Jun 2027 04:50:18.020           284.021
                       6     1 Jun 2027 04:50:27.629     1 Jun 2027 04:51:38.555            70.926
                       7     1 Jun 2027 06:22:27.659     1 Jun 2027 06:27:22.645           294.986
                       8     1 Jun 2027 07:57:37.871     1 Jun 2027 07:57:57.480            19.609
                       9     1 Jun 2027 07:59:12.904     1 Jun 2027 08:02:23.887           190.982
                      10     1 Jun 2027 13:05:08.748     1 Jun 2027 13:07:37.493           148.744
                      11     1 Jun 2027 13:07:54.385     1 Jun 2027 13:10:33.677           159.292
                      12     1 Jun 2027 14:41:20.756     1 Jun 2027 14:48:17.457           416.701
                      13     1 Jun 2027 16:18:05.766     1 Jun 2027 16:24:34.780           389.013
                      14     1 Jun 2027 17:53:32.641     1 Jun 2027 18:01:10.338           457.698
                      15     1 Jun 2027 19:31:47.986     1 Jun 2027 19:32:32.257            44.271
                      16     1 Jun 2027 19:32:39.261     1 Jun 2027 19:33:24.327            45.066
                      17     1 Jun 2027 19:33:26.194     1 Jun 2027 19:37:52.621           266.427
                      18     1 Jun 2027 21:10:08.059     1 Jun 2027 21:14:48.057           279.998
                      19     1 Jun 2027 22:33:27.293     1 Jun 2027 22:35:58.051           150.758
                      20     2 Jun 2027 00:09:49.675     2 Jun 2027 00:13:17.859           208.184
                      21     2 Jun 2027 01:43:42.062     2 Jun 2027 01:50:49.661           427.599
                      22     2 Jun 2027 01:50:50.687     2 Jun 2027 01:51:51.355            60.668
                      23     2 Jun 2027 03:20:56.823     2 Jun 2027 03:27:36.971           400.148
                      24     2 Jun 2027 04:57:58.741     2 Jun 2027 05:02:15.064           256.323
                      25     2 Jun 2027 05:02:16.164     2 Jun 2027 05:03:22.182            66.018
                      26     2 Jun 2027 06:34:42.465     2 Jun 2027 06:39:12.391           269.926
                      27     2 Jun 2027 08:12:51.545     2 Jun 2027 08:14:00.347            68.801
                      28     2 Jun 2027 13:17:25.446     2 Jun 2027 13:19:44.573           139.127
                      29     2 Jun 2027 13:20:47.130     2 Jun 2027 13:21:42.833            55.703
                      30     2 Jun 2027 14:53:25.308     2 Jun 2027 14:59:58.358           393.050
                      31     2 Jun 2027 16:30:06.198     2 Jun 2027 16:36:28.587           382.389
                      32     2 Jun 2027 18:05:39.244     2 Jun 2027 18:13:08.896           449.651
                      33     2 Jun 2027 19:43:41.534     2 Jun 2027 19:43:47.274             5.740
                      34     2 Jun 2027 19:44:05.966     2 Jun 2027 19:49:55.827           349.861
                      35     2 Jun 2027 21:22:22.598     2 Jun 2027 21:26:23.254           240.656
                      36     2 Jun 2027 22:45:16.492     2 Jun 2027 22:48:03.262           166.770
                      37     3 Jun 2027 00:21:52.971     3 Jun 2027 00:25:26.677           213.706
                      38     3 Jun 2027 01:56:59.817     3 Jun 2027 02:02:46.159           346.342
                      39     3 Jun 2027 02:02:48.928     3 Jun 2027 02:03:49.028            60.100
                      40     3 Jun 2027 03:33:20.380     3 Jun 2027 03:39:43.804           383.424
                      41     3 Jun 2027 05:10:50.595     3 Jun 2027 05:15:14.621           264.026
                      42     3 Jun 2027 06:46:55.220     3 Jun 2027 06:51:11.967           256.748
                      43     3 Jun 2027 13:29:31.111     3 Jun 2027 13:32:08.436           157.324
                      44     3 Jun 2027 15:05:27.847     3 Jun 2027 15:11:36.040           368.193
                      45     3 Jun 2027 16:42:10.520     3 Jun 2027 16:48:34.986           384.466
                      46     3 Jun 2027 18:17:40.807     3 Jun 2027 18:24:56.172           435.365
                      47     3 Jun 2027 19:55:50.080     3 Jun 2027 19:56:51.819            61.739
                      48     3 Jun 2027 19:56:59.137     3 Jun 2027 20:02:04.671           305.534
                      49     3 Jun 2027 21:34:08.584     3 Jun 2027 21:34:39.773            31.189
                      50     3 Jun 2027 21:35:15.000     3 Jun 2027 21:37:59.780           164.780
                      51     3 Jun 2027 22:57:29.641     3 Jun 2027 23:00:39.482           189.841
                      52     4 Jun 2027 00:34:03.871     4 Jun 2027 00:37:32.732           208.861
                      53     4 Jun 2027 02:09:13.372     4 Jun 2027 02:15:49.325           395.952
                      54     4 Jun 2027 03:45:34.725     4 Jun 2027 03:51:44.972           370.247
                      55     4 Jun 2027 05:22:52.683     4 Jun 2027 05:27:31.225           278.542
                      56     4 Jun 2027 06:59:04.653     4 Jun 2027 07:03:53.254           288.600
                      57     4 Jun 2027 13:41:41.133     4 Jun 2027 13:44:47.743           186.611
                      58     4 Jun 2027 15:17:33.318     4 Jun 2027 15:23:10.870           337.552
                      59     4 Jun 2027 16:54:07.704     4 Jun 2027 17:00:22.413           374.710
                      60     4 Jun 2027 18:29:37.962     4 Jun 2027 18:36:35.408           417.446
                      61     4 Jun 2027 20:07:55.082     4 Jun 2027 20:08:03.642             8.560
                      62     4 Jun 2027 20:08:56.470     4 Jun 2027 20:14:04.620           308.150
                      63     4 Jun 2027 20:15:27.131     4 Jun 2027 20:16:53.681            86.549
                      64     4 Jun 2027 21:46:05.205     4 Jun 2027 21:46:44.194            38.989
                      65     4 Jun 2027 21:47:06.580     4 Jun 2027 21:49:38.014           151.434
                      66     4 Jun 2027 23:09:31.584     4 Jun 2027 23:12:43.661           192.077
                      67     5 Jun 2027 00:45:53.910     5 Jun 2027 00:49:59.618           245.708
                      68     5 Jun 2027 02:20:47.536     5 Jun 2027 02:27:58.355           430.820
                      69     5 Jun 2027 03:57:11.359     5 Jun 2027 04:03:36.645           385.286
                      70     5 Jun 2027 05:35:27.849     5 Jun 2027 05:39:19.188           231.339
                      71     5 Jun 2027 07:10:53.415     5 Jun 2027 07:14:56.838           243.423
                      72     5 Jun 2027 07:15:19.157     5 Jun 2027 07:16:17.303            58.147
                      73     5 Jun 2027 12:17:30.503     5 Jun 2027 12:19:16.055           105.552
                      74     5 Jun 2027 13:53:29.139     5 Jun 2027 13:56:49.334           200.195
                      75     5 Jun 2027 15:30:03.096     5 Jun 2027 15:35:15.868           312.772
                      76     5 Jun 2027 17:06:13.286     5 Jun 2027 17:13:00.851           407.566
                      77     5 Jun 2027 18:41:58.427     5 Jun 2027 18:48:51.106           412.679
                      78     5 Jun 2027 20:20:59.987     5 Jun 2027 20:26:31.559           331.572
                      79     5 Jun 2027 20:27:02.267     5 Jun 2027 20:28:37.252            94.985
                      80     5 Jun 2027 21:46:43.345     5 Jun 2027 21:47:45.539            62.195
                      81     5 Jun 2027 21:58:01.253     5 Jun 2027 21:59:41.943           100.690
                      82     5 Jun 2027 22:00:39.016     5 Jun 2027 22:01:08.567            29.551
                      83     5 Jun 2027 23:20:36.652     5 Jun 2027 23:25:17.501           280.849
                      84     6 Jun 2027 00:56:11.616     6 Jun 2027 00:56:57.933            46.316
                      85     6 Jun 2027 00:57:37.978     6 Jun 2027 01:02:13.474           275.496
                      86     6 Jun 2027 02:32:24.492     6 Jun 2027 02:39:59.073           454.581
                      87     6 Jun 2027 04:09:30.827     6 Jun 2027 04:15:52.836           382.009
                      88     6 Jun 2027 05:47:28.695     6 Jun 2027 05:51:26.135           237.440
                      89     6 Jun 2027 07:20:34.790     6 Jun 2027 07:26:53.247           378.457
                      90     6 Jun 2027 07:27:35.191     6 Jun 2027 07:28:34.732            59.541
                      91     6 Jun 2027 12:29:12.522     6 Jun 2027 12:31:50.140           157.618
                      92     6 Jun 2027 14:05:30.968     6 Jun 2027 14:08:58.466           207.498
                      93     6 Jun 2027 15:42:12.145     6 Jun 2027 15:48:24.845           372.700
                      94     6 Jun 2027 17:18:18.738     6 Jun 2027 17:24:58.086           399.348
                      95     6 Jun 2027 18:54:22.831     6 Jun 2027 19:00:36.675           373.844
                      96     6 Jun 2027 20:33:29.397     6 Jun 2027 20:40:36.985           427.589
                      97     6 Jun 2027 21:58:19.899     6 Jun 2027 21:59:54.117            94.218
                      98     6 Jun 2027 22:10:03.763     6 Jun 2027 22:11:12.303            68.540
                      99     6 Jun 2027 23:32:19.049     6 Jun 2027 23:33:25.346            66.297
                     100     6 Jun 2027 23:34:15.930     6 Jun 2027 23:37:30.427           194.497
                     101     7 Jun 2027 01:07:18.142     7 Jun 2027 01:09:11.202           113.060
                     102     7 Jun 2027 01:09:21.517     7 Jun 2027 01:14:36.728           315.210
                     103     7 Jun 2027 01:15:14.845     7 Jun 2027 01:15:38.036            23.192
                     104     7 Jun 2027 02:44:44.425     7 Jun 2027 02:52:03.206           438.781
                     105     7 Jun 2027 04:21:31.020     7 Jun 2027 04:28:01.765           390.746
                     106     7 Jun 2027 05:59:29.200     7 Jun 2027 06:03:39.099           249.899
                     107     7 Jun 2027 07:33:06.727     7 Jun 2027 07:40:30.060           443.333
                     108     7 Jun 2027 12:41:13.285     7 Jun 2027 12:43:55.623           162.338
                     109     7 Jun 2027 14:17:42.567     7 Jun 2027 14:21:04.449           201.881
                     110     7 Jun 2027 14:22:28.479     7 Jun 2027 14:25:04.781           156.302
                     111     7 Jun 2027 15:54:26.045     7 Jun 2027 16:00:22.995           356.950
                     112     7 Jun 2027 17:29:57.077     7 Jun 2027 17:30:13.711            16.635
                     113     7 Jun 2027 17:30:23.505     7 Jun 2027 17:37:16.759           413.254
                     114     7 Jun 2027 19:06:40.564     7 Jun 2027 19:08:54.325           133.762
                     115     7 Jun 2027 19:08:54.908     7 Jun 2027 19:12:42.237           227.329
                     116     7 Jun 2027 20:45:29.718     7 Jun 2027 20:52:34.380           424.662
                     117     7 Jun 2027 22:09:52.522     7 Jun 2027 22:11:59.137           126.616
                     118     7 Jun 2027 22:22:04.951     7 Jun 2027 22:22:36.576            31.625
                     119     7 Jun 2027 23:43:57.504     7 Jun 2027 23:45:12.139            74.634
                     120     7 Jun 2027 23:46:01.334     7 Jun 2027 23:49:43.215           221.882
                     121     8 Jun 2027 01:18:46.328     8 Jun 2027 01:26:47.311           480.983
                     122     8 Jun 2027 01:27:08.018     8 Jun 2027 01:28:05.964            57.946
                     123     8 Jun 2027 02:56:38.499     8 Jun 2027 03:04:03.047           444.548
                     124     8 Jun 2027 04:33:22.755     8 Jun 2027 04:39:14.460           351.706
                     125     8 Jun 2027 04:39:21.941     8 Jun 2027 04:40:06.555            44.615
                     126     8 Jun 2027 06:11:32.665     8 Jun 2027 06:15:37.194           244.529
                     127     8 Jun 2027 07:46:42.253     8 Jun 2027 07:51:38.101           295.849
                     128     8 Jun 2027 12:53:18.659     8 Jun 2027 12:56:11.230           172.571
                     129     8 Jun 2027 12:56:57.148     8 Jun 2027 12:57:15.922            18.774
                     130     8 Jun 2027 14:29:42.235     8 Jun 2027 14:33:56.031           253.796
                     131     8 Jun 2027 14:34:33.115     8 Jun 2027 14:37:45.863           192.748
                     132     8 Jun 2027 16:06:17.202     8 Jun 2027 16:12:49.451           392.249
                     133     8 Jun 2027 17:41:48.051     8 Jun 2027 17:49:32.270           464.220
                     134     8 Jun 2027 19:19:25.812     8 Jun 2027 19:21:05.953           100.142
                     135     8 Jun 2027 19:21:27.869     8 Jun 2027 19:25:00.361           212.491
                     136     8 Jun 2027 20:57:49.071     8 Jun 2027 21:03:01.778           312.707
                     137     8 Jun 2027 22:21:49.319     8 Jun 2027 22:24:05.961           136.641
                     138     8 Jun 2027 23:57:48.012     9 Jun 2027 00:01:42.640           234.627
                     139     9 Jun 2027 01:31:36.009     9 Jun 2027 01:38:55.404           439.395
                     140     9 Jun 2027 01:39:07.623     9 Jun 2027 01:40:07.663            60.040
                     141     9 Jun 2027 03:08:45.423     9 Jun 2027 03:16:04.199           438.776
                     142     9 Jun 2027 04:45:49.889     9 Jun 2027 04:50:32.567           282.677
                     143     9 Jun 2027 04:50:42.280     9 Jun 2027 04:51:53.389            71.109
                     144     9 Jun 2027 06:22:42.468     9 Jun 2027 06:27:37.618           295.150
                     145     9 Jun 2027 07:57:53.628     9 Jun 2027 07:58:11.604            17.975
                     146     9 Jun 2027 07:59:27.708     9 Jun 2027 08:02:38.562           190.854
                     147     9 Jun 2027 13:05:23.804     9 Jun 2027 13:07:52.368           148.565
                     148     9 Jun 2027 13:08:09.956     9 Jun 2027 13:10:49.871           159.915
                     149     9 Jun 2027 14:41:35.729     9 Jun 2027 14:48:32.135           416.406
                     150     9 Jun 2027 16:18:20.762     9 Jun 2027 16:24:49.397           388.635
                     151     9 Jun 2027 17:53:47.633     9 Jun 2027 18:01:24.126           456.493
                     152     9 Jun 2027 19:32:03.110     9 Jun 2027 19:32:46.914            43.804
                     153     9 Jun 2027 19:32:52.843     9 Jun 2027 19:33:39.087            46.244
                     154     9 Jun 2027 19:33:41.167     9 Jun 2027 19:38:10.780           269.613
                     155     9 Jun 2027 21:10:22.851     9 Jun 2027 21:15:03.114           280.263
                     156     9 Jun 2027 22:33:42.191     9 Jun 2027 22:36:14.807           152.616
                     157    10 Jun 2027 00:10:04.696    10 Jun 2027 00:13:32.644           207.948
                     158    10 Jun 2027 01:43:57.945    10 Jun 2027 01:51:04.562           426.617
                     159    10 Jun 2027 01:51:05.622    10 Jun 2027 01:52:06.235            60.614
                     160    10 Jun 2027 03:21:11.509    10 Jun 2027 03:27:51.762           400.253
                     161    10 Jun 2027 04:58:13.420    10 Jun 2027 05:02:30.217           256.797
                     162    10 Jun 2027 05:02:30.971    10 Jun 2027 05:03:36.803            65.832
                     163    10 Jun 2027 06:34:57.661    10 Jun 2027 06:39:27.601           269.940
                     164    10 Jun 2027 08:13:06.936    10 Jun 2027 08:14:15.108            68.172
                     165    10 Jun 2027 13:17:41.350    10 Jun 2027 13:19:59.820           138.470
                     166    10 Jun 2027 13:21:02.267    10 Jun 2027 13:21:56.507            54.240
                     167    10 Jun 2027 14:53:40.263    10 Jun 2027 15:00:13.295           393.032
                     168    10 Jun 2027 16:30:21.715    10 Jun 2027 16:36:44.398           382.683
                     169    10 Jun 2027 18:05:54.415    10 Jun 2027 18:13:24.116           449.701
                     170    10 Jun 2027 19:43:56.477    10 Jun 2027 19:44:02.011             5.534
                     171    10 Jun 2027 19:44:26.459    10 Jun 2027 19:50:10.630           344.171
                     172    10 Jun 2027 21:22:37.560    10 Jun 2027 21:26:38.188           240.627
                     173    10 Jun 2027 22:45:32.018    10 Jun 2027 22:48:18.116           166.098
                     174    11 Jun 2027 00:22:07.901    11 Jun 2027 00:25:41.597           213.696
                     175    11 Jun 2027 01:57:15.435    11 Jun 2027 02:03:01.281           345.847
                     176    11 Jun 2027 02:03:03.815    11 Jun 2027 02:04:04.293            60.477
                     177    11 Jun 2027 03:33:35.740    11 Jun 2027 03:39:58.902           383.162
                     178    11 Jun 2027 05:11:06.420    11 Jun 2027 05:15:30.188           263.767
                     179    11 Jun 2027 06:47:13.690    11 Jun 2027 06:51:26.509           252.819
                     180    11 Jun 2027 13:29:46.004    11 Jun 2027 13:32:24.222           158.218
                     181    11 Jun 2027 15:05:42.896    11 Jun 2027 15:11:49.786           366.891
                     182    11 Jun 2027 16:42:25.515    11 Jun 2027 16:48:49.775           384.260
                     183    11 Jun 2027 18:17:55.895    11 Jun 2027 18:25:10.459           434.564
                     184    11 Jun 2027 19:56:05.076    11 Jun 2027 19:57:07.064            61.988
                     185    11 Jun 2027 19:57:13.962    11 Jun 2027 20:02:19.126           305.164
                     186    11 Jun 2027 21:34:23.552    11 Jun 2027 21:34:55.017            31.466
                     187    11 Jun 2027 21:35:13.078    11 Jun 2027 21:38:14.516           181.437
                     188    11 Jun 2027 22:57:44.314    11 Jun 2027 23:00:54.664           190.350
                     189    12 Jun 2027 00:34:18.891    12 Jun 2027 00:37:47.395           208.504
                     190    12 Jun 2027 02:09:28.297    12 Jun 2027 02:16:04.353           396.056
                     191    12 Jun 2027 03:45:49.630    12 Jun 2027 03:51:59.823           370.192
                     192    12 Jun 2027 05:23:07.257    12 Jun 2027 05:27:46.444           279.187
                     193    12 Jun 2027 06:59:19.329    12 Jun 2027 07:04:08.792           289.463
                     194    12 Jun 2027 13:41:56.047    12 Jun 2027 13:45:02.989           186.942
                     195    12 Jun 2027 15:17:48.133    12 Jun 2027 15:23:25.910           337.778
                     196    12 Jun 2027 16:54:22.730    12 Jun 2027 17:00:37.017           374.287
                     197    12 Jun 2027 18:29:53.102    12 Jun 2027 18:36:50.120           417.018
                     198    12 Jun 2027 20:08:10.343    12 Jun 2027 20:08:17.881             7.538
                     199    12 Jun 2027 20:09:11.466    12 Jun 2027 20:14:19.471           308.004
                     200    12 Jun 2027 20:15:41.741    12 Jun 2027 20:17:08.662            86.921
                     201    12 Jun 2027 21:46:20.313    12 Jun 2027 21:46:59.204            38.891
                     202    12 Jun 2027 21:47:21.204    12 Jun 2027 21:49:52.937           151.734
                     203    12 Jun 2027 23:10:14.519    12 Jun 2027 23:12:58.814           164.295
                     204    13 Jun 2027 00:46:08.424    13 Jun 2027 00:50:14.762           246.338
                     205    13 Jun 2027 02:21:01.909    13 Jun 2027 02:28:13.363           431.454
                     206    13 Jun 2027 03:57:26.391    13 Jun 2027 04:03:51.843           385.452
                     207    13 Jun 2027 05:35:43.503    13 Jun 2027 05:39:35.389           231.886
                     208    13 Jun 2027 07:11:09.882    13 Jun 2027 07:15:12.128           242.245
                     209    13 Jun 2027 07:15:34.356    13 Jun 2027 07:16:32.584            58.227
                     210    13 Jun 2027 12:17:44.599    13 Jun 2027 12:19:31.851           107.252
                     211    13 Jun 2027 13:53:44.032    13 Jun 2027 13:57:04.477           200.446
                     212    13 Jun 2027 15:30:18.089    13 Jun 2027 15:35:31.356           313.267
                     213    13 Jun 2027 17:06:28.327    13 Jun 2027 17:13:16.102           407.775
                     214    13 Jun 2027 18:42:29.319    13 Jun 2027 18:49:05.809           396.489
                     215    13 Jun 2027 20:21:14.956    13 Jun 2027 20:26:46.128           331.172
                     216    13 Jun 2027 20:27:17.194    13 Jun 2027 20:28:52.025            94.830
                     217    13 Jun 2027 21:46:57.415    13 Jun 2027 21:48:00.813            63.399
                     218    13 Jun 2027 21:58:16.132    13 Jun 2027 21:59:56.787           100.655
                     219    13 Jun 2027 22:00:55.095    13 Jun 2027 22:01:22.684            27.588
                     220    13 Jun 2027 23:20:51.218    13 Jun 2027 23:25:32.693           281.475

Min Duration         170    10 Jun 2027 19:43:56.477    10 Jun 2027 19:44:02.011             5.534
Max Duration         121     8 Jun 2027 01:18:46.328     8 Jun 2027 01:26:47.311           480.983
Mean Duration                                                                              235.337
Total Duration                                                                           51774.152


Russia-To-KinoSat_110102
------------------------
                  Access        Start Time (UTCG)           Stop Time (UTCG)        Duration (sec)
                  ------    ------------------------    ------------------------    --------------
                       1     1 Jun 2027 01:20:53.109     1 Jun 2027 01:28:58.572           485.463
                       2     1 Jun 2027 01:29:18.746     1 Jun 2027 01:30:16.941            58.195
                       3     1 Jun 2027 02:58:48.996     1 Jun 2027 03:06:15.095           446.099
                       4     1 Jun 2027 04:35:36.601     1 Jun 2027 04:41:16.140           339.539
                       5     1 Jun 2027 04:41:25.231     1 Jun 2027 04:42:15.604            50.373
                       6     1 Jun 2027 06:13:26.937     1 Jun 2027 06:17:48.264           261.327
                       7     1 Jun 2027 07:49:25.614     1 Jun 2027 07:53:43.446           257.832
                       8     1 Jun 2027 12:55:31.387     1 Jun 2027 12:58:25.218           173.831
                       9     1 Jun 2027 12:58:55.503     1 Jun 2027 12:59:54.480            58.977
                      10     1 Jun 2027 14:31:53.177     1 Jun 2027 14:36:18.917           265.740
                      11     1 Jun 2027 14:36:39.114     1 Jun 2027 14:38:26.294           107.179
                      12     1 Jun 2027 16:08:26.889     1 Jun 2027 16:15:01.044           394.155
                      13     1 Jun 2027 17:43:59.149     1 Jun 2027 17:51:44.517           465.368
                      14     1 Jun 2027 19:21:37.674     1 Jun 2027 19:21:57.071            19.397
                      15     1 Jun 2027 19:22:02.519     1 Jun 2027 19:23:02.733            60.214
                      16     1 Jun 2027 19:23:42.739     1 Jun 2027 19:27:14.596           211.857
                      17     1 Jun 2027 21:00:06.510     1 Jun 2027 21:05:14.247           307.737
                      18     1 Jun 2027 22:23:59.613     1 Jun 2027 22:26:15.378           135.765
                      19     1 Jun 2027 23:59:59.032     2 Jun 2027 00:03:51.586           232.553
                      20     2 Jun 2027 01:33:46.645     2 Jun 2027 01:42:18.337           511.692
                      21     2 Jun 2027 03:11:01.003     2 Jun 2027 03:18:13.744           432.741
                      22     2 Jun 2027 04:48:13.297     2 Jun 2027 04:52:41.787           268.489
                      23     2 Jun 2027 04:52:51.514     2 Jun 2027 04:54:03.103            71.589
                      24     2 Jun 2027 06:24:56.123     2 Jun 2027 06:29:45.337           289.214
                      25     2 Jun 2027 08:00:09.174     2 Jun 2027 08:00:21.042            11.868
                      26     2 Jun 2027 08:01:53.329     2 Jun 2027 08:04:46.702           173.374
                      27     2 Jun 2027 13:07:35.785     2 Jun 2027 13:10:10.946           155.161
                      28     2 Jun 2027 13:10:35.128     2 Jun 2027 13:12:56.996           141.868
                      29     2 Jun 2027 14:43:46.384     2 Jun 2027 14:50:44.300           417.917
                      30     2 Jun 2027 16:20:30.612     2 Jun 2027 16:26:55.592           384.980
                      31     2 Jun 2027 17:55:58.380     2 Jun 2027 18:03:28.884           450.504
                      32     2 Jun 2027 19:34:22.392     2 Jun 2027 19:34:41.771            19.379
                      33     2 Jun 2027 19:34:56.326     2 Jun 2027 19:35:50.298            53.972
                      34     2 Jun 2027 19:35:51.745     2 Jun 2027 19:40:23.134           271.389
                      35     2 Jun 2027 21:12:29.868     2 Jun 2027 21:17:06.430           276.562
                      36     2 Jun 2027 22:35:51.292     2 Jun 2027 22:38:26.335           155.043
                      37     3 Jun 2027 00:12:13.075     3 Jun 2027 00:15:46.199           213.124
                      38     3 Jun 2027 01:44:32.529     3 Jun 2027 01:45:05.846            33.316
                      39     3 Jun 2027 01:46:18.012     3 Jun 2027 01:53:12.258           414.246
                      40     3 Jun 2027 01:53:15.137     3 Jun 2027 01:54:16.312            61.176
                      41     3 Jun 2027 03:23:22.159     3 Jun 2027 03:30:04.586           402.427
                      42     3 Jun 2027 05:00:19.997     3 Jun 2027 05:05:17.918           297.920
                      43     3 Jun 2027 06:37:05.731     3 Jun 2027 06:41:44.833           279.102
                      44     3 Jun 2027 08:15:17.329     3 Jun 2027 08:16:17.422            60.093
                      45     3 Jun 2027 13:19:54.009     3 Jun 2027 13:22:07.426           133.417
                      46     3 Jun 2027 13:23:29.531     3 Jun 2027 13:23:53.159            23.628
                      47     3 Jun 2027 14:55:50.963     3 Jun 2027 15:02:21.535           390.572
                      48     3 Jun 2027 16:32:32.682     3 Jun 2027 16:38:58.005           385.323
                      49     3 Jun 2027 18:08:06.326     3 Jun 2027 18:15:31.061           444.735
                      50     3 Jun 2027 19:46:09.124     3 Jun 2027 19:46:10.305             1.181
                      51     3 Jun 2027 19:46:30.423     3 Jun 2027 19:47:21.717            51.293
                      52     3 Jun 2027 19:47:27.638     3 Jun 2027 19:52:24.389           296.751
                      53     3 Jun 2027 21:24:48.813     3 Jun 2027 21:28:51.617           242.804
                      54     3 Jun 2027 22:47:54.437     3 Jun 2027 22:50:54.703           180.266
                      55     4 Jun 2027 00:24:20.134     4 Jun 2027 00:27:52.315           212.181
                      56     4 Jun 2027 01:59:27.668     4 Jun 2027 02:06:16.796           409.128
                      57     4 Jun 2027 03:35:48.742     4 Jun 2027 03:42:10.697           381.954
                      58     4 Jun 2027 05:13:21.528     4 Jun 2027 05:17:45.739           264.212
                      59     4 Jun 2027 06:49:25.491     4 Jun 2027 06:53:39.585           254.093
                      60     4 Jun 2027 13:31:58.983     4 Jun 2027 13:34:40.979           161.997
                      61     4 Jun 2027 15:07:54.409     4 Jun 2027 15:13:51.882           357.473
                      62     4 Jun 2027 16:44:36.884     4 Jun 2027 16:50:49.508           372.624
                      63     4 Jun 2027 18:20:07.743     4 Jun 2027 18:27:15.634           427.891
                      64     4 Jun 2027 19:58:15.740     4 Jun 2027 19:59:16.732            60.992
                      65     4 Jun 2027 19:59:23.489     4 Jun 2027 20:04:27.651           304.163
                      66     4 Jun 2027 21:36:32.975     4 Jun 2027 21:37:07.725            34.750
                      67     4 Jun 2027 21:37:21.540     4 Jun 2027 21:40:18.798           177.258
                      68     4 Jun 2027 22:59:51.781     4 Jun 2027 23:03:06.579           194.799
                      69     5 Jun 2027 00:36:29.056     5 Jun 2027 00:39:55.357           206.301
                      70     5 Jun 2027 02:11:39.013     5 Jun 2027 02:18:15.308           396.296
                      71     5 Jun 2027 03:47:56.334     5 Jun 2027 03:53:43.370           347.036
                      72     5 Jun 2027 03:53:51.712     5 Jun 2027 03:54:01.718            10.005
                      73     5 Jun 2027 05:25:27.887     5 Jun 2027 05:29:58.678           270.790
                      74     5 Jun 2027 07:01:28.590     5 Jun 2027 07:05:40.134           251.545
                      75     5 Jun 2027 07:05:44.394     5 Jun 2027 07:06:25.980            41.587
                      76     5 Jun 2027 12:08:32.049     5 Jun 2027 12:08:45.698            13.649
                      77     5 Jun 2027 13:44:07.052     5 Jun 2027 13:47:04.403           177.351
                      78     5 Jun 2027 15:19:58.688     5 Jun 2027 15:25:35.337           336.649
                      79     5 Jun 2027 16:56:33.993     5 Jun 2027 17:02:46.812           372.819
                      80     5 Jun 2027 18:32:05.026     5 Jun 2027 18:38:57.902           412.876
                      81     5 Jun 2027 20:11:22.104     5 Jun 2027 20:16:31.348           309.244
                      82     5 Jun 2027 20:17:43.839     5 Jun 2027 20:19:14.914            91.075
                      83     5 Jun 2027 21:37:41.785     5 Jun 2027 21:37:53.503            11.717
                      84     5 Jun 2027 21:48:29.618     5 Jun 2027 21:49:10.252            40.634
                      85     5 Jun 2027 21:49:27.146     5 Jun 2027 21:52:04.529           157.383
                      86     5 Jun 2027 23:12:27.855     5 Jun 2027 23:15:10.214           162.359
                      87     6 Jun 2027 00:48:12.826     6 Jun 2027 00:52:25.838           253.012
                      88     6 Jun 2027 02:23:05.840     6 Jun 2027 02:30:25.085           439.244
                      89     6 Jun 2027 03:59:39.634     6 Jun 2027 04:06:02.924           383.290
                      90     6 Jun 2027 05:37:57.027     6 Jun 2027 05:41:40.718           223.690
                      91     6 Jun 2027 07:11:58.245     6 Jun 2027 07:12:42.793            44.548
                      92     6 Jun 2027 07:13:17.837     6 Jun 2027 07:17:27.086           249.249
                      93     6 Jun 2027 07:17:47.037     6 Jun 2027 07:18:46.007            58.970
                      94     6 Jun 2027 12:19:48.033     6 Jun 2027 12:21:45.847           117.814
                      95     6 Jun 2027 13:55:54.105     6 Jun 2027 13:59:15.911           201.806
                      96     6 Jun 2027 15:32:29.084     6 Jun 2027 15:38:09.693           340.609
                      97     6 Jun 2027 17:08:39.722     6 Jun 2027 17:15:28.176           408.454
                      98     6 Jun 2027 18:44:43.998     6 Jun 2027 18:51:09.057           385.059
                      99     6 Jun 2027 20:23:25.915     6 Jun 2027 20:31:04.163           458.248
                     100     6 Jun 2027 21:48:59.342     6 Jun 2027 21:50:12.836            73.494
                     101     6 Jun 2027 22:00:26.181     6 Jun 2027 22:02:06.057            99.876
                     102     6 Jun 2027 23:23:04.839     6 Jun 2027 23:24:04.607            59.768
                     103     6 Jun 2027 23:24:41.257     6 Jun 2027 23:27:44.832           183.575
                     104     7 Jun 2027 00:58:27.083     7 Jun 2027 00:59:23.305            56.222
                     105     7 Jun 2027 00:59:58.236     7 Jun 2027 01:04:42.959           284.723
                     106     7 Jun 2027 02:34:53.984     7 Jun 2027 02:42:25.269           451.285
                     107     7 Jun 2027 04:12:00.679     7 Jun 2027 04:17:49.804           349.125
                     108     7 Jun 2027 04:17:51.169     7 Jun 2027 04:18:14.075            22.905
                     109     7 Jun 2027 05:49:54.754     7 Jun 2027 05:53:53.642           238.888
                     110     7 Jun 2027 07:23:01.200     7 Jun 2027 07:29:25.442           384.242
                     111     7 Jun 2027 07:30:02.868     7 Jun 2027 07:31:00.758            57.890
                     112     7 Jun 2027 12:31:38.083     7 Jun 2027 12:34:22.843           164.760
                     113     7 Jun 2027 14:07:58.071     7 Jun 2027 14:11:21.825           203.754
                     114     7 Jun 2027 14:14:02.518     7 Jun 2027 14:14:08.126             5.609
                     115     7 Jun 2027 15:44:36.012     7 Jun 2027 15:50:47.887           371.876
                     116     7 Jun 2027 17:20:43.281     7 Jun 2027 17:27:23.852           400.571
                     117     7 Jun 2027 18:56:49.625     7 Jun 2027 19:02:56.142           366.518
                     118     7 Jun 2027 20:35:55.693     7 Jun 2027 20:43:03.575           427.882
                     119     7 Jun 2027 22:00:13.902     7 Jun 2027 22:02:22.017           128.115
                     120     7 Jun 2027 22:12:27.366     7 Jun 2027 22:13:27.658            60.292
                     121     7 Jun 2027 23:34:42.334     7 Jun 2027 23:35:48.827            66.493
                     122     7 Jun 2027 23:36:37.268     7 Jun 2027 23:39:58.689           201.421
                     123     8 Jun 2027 01:09:36.474     8 Jun 2027 01:11:38.091           121.616
                     124     8 Jun 2027 01:11:44.645     8 Jun 2027 01:16:55.610           310.966
                     125     8 Jun 2027 01:17:37.700     8 Jun 2027 01:18:04.456            26.756
                     126     8 Jun 2027 02:47:08.972     8 Jun 2027 02:54:28.728           439.756
                     127     8 Jun 2027 04:23:52.040     8 Jun 2027 04:29:05.707           313.667
                     128     8 Jun 2027 04:29:08.128     8 Jun 2027 04:30:05.501            57.373
                     129     8 Jun 2027 04:30:10.028     8 Jun 2027 04:30:28.885            18.857
                     130     8 Jun 2027 06:01:54.788     8 Jun 2027 06:06:04.152           249.364
                     131     8 Jun 2027 07:35:31.160     8 Jun 2027 07:42:55.480           444.320
                     132     8 Jun 2027 12:43:38.538     8 Jun 2027 12:46:25.774           167.236
                     133     8 Jun 2027 14:20:10.345     8 Jun 2027 14:23:36.591           206.245
                     134     8 Jun 2027 14:24:51.774     8 Jun 2027 14:27:48.545           176.771
                     135     8 Jun 2027 15:56:49.954     8 Jun 2027 16:02:55.422           365.468
                     136     8 Jun 2027 17:32:18.942     8 Jun 2027 17:32:43.236            24.293
                     137     8 Jun 2027 17:32:49.662     8 Jun 2027 17:39:51.487           421.825
                     138     8 Jun 2027 19:09:09.340     8 Jun 2027 19:09:37.090            27.750
                     139     8 Jun 2027 19:09:41.993     8 Jun 2027 19:10:16.858            34.865
                     140     8 Jun 2027 19:10:20.583     8 Jun 2027 19:11:16.383            55.799
                     141     8 Jun 2027 19:11:16.811     8 Jun 2027 19:15:11.947           235.136
                     142     8 Jun 2027 20:47:57.493     8 Jun 2027 20:54:55.958           418.464
                     143     8 Jun 2027 22:12:18.773     8 Jun 2027 22:14:12.339           113.566
                     144     8 Jun 2027 22:24:34.427     8 Jun 2027 22:25:02.039            27.612
                     145     8 Jun 2027 23:46:13.380     8 Jun 2027 23:47:34.631            81.250
                     146     8 Jun 2027 23:48:23.005     8 Jun 2027 23:52:11.002           227.997
                     147     9 Jun 2027 01:21:07.417     9 Jun 2027 01:29:13.569           486.151
                     148     9 Jun 2027 01:29:33.789     9 Jun 2027 01:30:31.947            58.158
                     149     9 Jun 2027 02:59:03.758     9 Jun 2027 03:06:30.309           446.551
                     150     9 Jun 2027 04:35:52.090     9 Jun 2027 04:41:30.801           338.711
                     151     9 Jun 2027 04:41:39.680     9 Jun 2027 04:42:30.259            50.578
                     152     9 Jun 2027 06:13:42.274     9 Jun 2027 06:18:03.024           260.750
                     153     9 Jun 2027 07:49:41.158     9 Jun 2027 07:53:55.829           254.671
                     154     9 Jun 2027 12:55:46.249     9 Jun 2027 12:58:40.183           173.934
                     155     9 Jun 2027 12:59:10.358     9 Jun 2027 13:00:09.843            59.485
                     156     9 Jun 2027 14:32:07.812     9 Jun 2027 14:36:35.134           267.322
                     157     9 Jun 2027 14:36:54.040     9 Jun 2027 14:38:41.825           107.785
                     158     9 Jun 2027 16:08:41.689     9 Jun 2027 16:15:16.207           394.518
                     159     9 Jun 2027 17:44:14.059     9 Jun 2027 17:51:59.470           465.411
                     160     9 Jun 2027 19:21:52.895     9 Jun 2027 19:22:11.508            18.613
                     161     9 Jun 2027 19:22:17.401     9 Jun 2027 19:23:18.020            60.619
                     162     9 Jun 2027 19:23:58.230     9 Jun 2027 19:27:29.931           211.701
                     163     9 Jun 2027 21:00:22.444     9 Jun 2027 21:05:28.677           306.234
                     164     9 Jun 2027 22:24:14.890     9 Jun 2027 22:26:30.293           135.403
                     165    10 Jun 2027 00:00:14.088    10 Jun 2027 00:04:06.289           232.201
                     166    10 Jun 2027 01:34:01.274    10 Jun 2027 01:42:33.330           512.056
                     167    10 Jun 2027 03:11:16.570    10 Jun 2027 03:18:28.646           432.076
                     168    10 Jun 2027 04:48:28.524    10 Jun 2027 04:52:56.768           268.244
                     169    10 Jun 2027 04:53:06.205    10 Jun 2027 04:54:18.038            71.833
                     170    10 Jun 2027 06:25:11.520    10 Jun 2027 06:30:00.297           288.776
                     171    10 Jun 2027 08:00:26.662    10 Jun 2027 08:00:36.497             9.835
                     172    10 Jun 2027 08:02:08.380    10 Jun 2027 08:05:01.440           173.060
                     173    10 Jun 2027 13:08:07.218    10 Jun 2027 13:10:26.701           139.483
                     174    10 Jun 2027 13:10:50.919    10 Jun 2027 13:13:11.614           140.695
                     175    10 Jun 2027 14:44:01.442    10 Jun 2027 14:50:58.748           417.306
                     176    10 Jun 2027 16:20:45.407    10 Jun 2027 16:27:10.751           385.344
                     177    10 Jun 2027 17:56:13.376    10 Jun 2027 18:03:43.744           450.368
                     178    10 Jun 2027 19:34:37.305    10 Jun 2027 19:34:56.519            19.213
                     179    10 Jun 2027 19:35:10.611    10 Jun 2027 19:36:05.252            54.641
                     180    10 Jun 2027 19:36:05.942    10 Jun 2027 19:40:37.232           271.290
                     181    10 Jun 2027 21:12:44.736    10 Jun 2027 21:17:20.551           275.815
                     182    10 Jun 2027 22:36:06.251    10 Jun 2027 22:38:41.284           155.033
                     183    11 Jun 2027 00:12:28.466    11 Jun 2027 00:16:01.831           213.365
                     184    11 Jun 2027 01:44:46.285    11 Jun 2027 01:45:09.874            23.589
                     185    11 Jun 2027 01:46:32.972    11 Jun 2027 01:53:27.336           414.364
                     186    11 Jun 2027 01:53:29.949    11 Jun 2027 01:54:31.099            61.150
                     187    11 Jun 2027 03:23:36.905    11 Jun 2027 03:30:19.650           402.745
                     188    11 Jun 2027 05:00:34.825    11 Jun 2027 05:05:32.711           297.885
                     189    11 Jun 2027 06:37:20.379    11 Jun 2027 06:42:00.249           279.870
                     190    11 Jun 2027 08:15:32.035    11 Jun 2027 08:16:31.721            59.686
                     191    11 Jun 2027 13:20:09.228    11 Jun 2027 13:22:22.686           133.458
                     192    11 Jun 2027 13:23:45.109    11 Jun 2027 13:24:04.268            19.159
                     193    11 Jun 2027 14:56:05.933    11 Jun 2027 15:02:36.761           390.828
                     194    11 Jun 2027 16:32:47.775    11 Jun 2027 16:39:13.180           385.405
                     195    11 Jun 2027 18:08:21.387    11 Jun 2027 18:15:45.789           444.402
                     196    11 Jun 2027 19:46:44.935    11 Jun 2027 19:47:36.794            51.859
                     197    11 Jun 2027 19:47:42.573    11 Jun 2027 19:52:40.478           297.904
                     198    11 Jun 2027 21:25:04.514    11 Jun 2027 21:29:06.708           242.194
                     199    11 Jun 2027 22:48:09.576    11 Jun 2027 22:50:48.527           158.952
                     200    12 Jun 2027 00:24:36.315    12 Jun 2027 00:28:07.543           211.227
                     201    12 Jun 2027 01:59:43.231    12 Jun 2027 02:06:31.816           408.585
                     202    12 Jun 2027 03:36:04.753    12 Jun 2027 03:42:25.805           381.052
                     203    12 Jun 2027 05:13:36.381    12 Jun 2027 05:18:01.102           264.722
                     204    12 Jun 2027 06:49:40.996    12 Jun 2027 06:53:54.886           253.890
                     205    12 Jun 2027 13:32:14.115    12 Jun 2027 13:34:57.155           163.039
                     206    12 Jun 2027 15:08:09.627    12 Jun 2027 15:14:06.261           356.634
                     207    12 Jun 2027 16:44:51.974    12 Jun 2027 16:51:03.341           371.367
                     208    12 Jun 2027 18:20:22.822    12 Jun 2027 18:27:29.988           427.165
                     209    12 Jun 2027 19:58:30.742    12 Jun 2027 19:59:31.071            60.329
                     210    12 Jun 2027 19:59:38.360    12 Jun 2027 20:04:42.120           303.760
                     211    12 Jun 2027 21:36:47.876    12 Jun 2027 21:37:22.822            34.946
                     212    12 Jun 2027 21:37:36.417    12 Jun 2027 21:40:33.434           177.018
                     213    12 Jun 2027 23:00:06.435    12 Jun 2027 23:03:21.620           195.186
                     214    13 Jun 2027 00:36:44.028    13 Jun 2027 00:40:10.092           206.064
                     215    13 Jun 2027 02:11:53.956    13 Jun 2027 02:18:30.353           396.398
                     216    13 Jun 2027 03:48:11.490    13 Jun 2027 03:53:58.401           346.911
                     217    13 Jun 2027 03:54:06.875    13 Jun 2027 03:54:16.573             9.698
                     218    13 Jun 2027 05:25:42.015    13 Jun 2027 05:30:13.665           271.650
                     219    13 Jun 2027 07:01:43.163    13 Jun 2027 07:05:55.166           252.003
                     220    13 Jun 2027 07:05:59.352    13 Jun 2027 07:06:41.705            42.353
                     221    13 Jun 2027 12:08:45.938    13 Jun 2027 12:09:00.905            14.967
                     222    13 Jun 2027 13:44:22.096    13 Jun 2027 13:47:19.035           176.938
                     223    13 Jun 2027 15:20:13.779    13 Jun 2027 15:25:50.233           336.453
                     224    13 Jun 2027 16:56:49.160    13 Jun 2027 17:03:01.538           372.378
                     225    13 Jun 2027 18:32:20.063    13 Jun 2027 18:39:13.382           413.319
                     226    13 Jun 2027 20:11:37.103    13 Jun 2027 20:16:47.292           310.190
                     227    13 Jun 2027 20:17:58.176    13 Jun 2027 20:19:29.758            91.582
                     228    13 Jun 2027 21:37:56.001    13 Jun 2027 21:38:08.859            12.858
                     229    13 Jun 2027 21:48:44.381    13 Jun 2027 21:49:36.852            52.472
                     230    13 Jun 2027 21:49:37.314    13 Jun 2027 21:52:18.704           161.390
                     231    13 Jun 2027 23:12:42.521    13 Jun 2027 23:15:25.347           162.826

Min Duration          50     3 Jun 2027 19:46:09.124     3 Jun 2027 19:46:10.305             1.181
Max Duration         166    10 Jun 2027 01:34:01.274    10 Jun 2027 01:42:33.330           512.056
Mean Duration                                                                              224.467
Total Duration                                                                           51851.825


Russia-To-KinoSat_110103
------------------------
                  Access        Start Time (UTCG)           Stop Time (UTCG)        Duration (sec)
                  ------    ------------------------    ------------------------    --------------
                       1     1 Jun 2027 01:11:43.074     1 Jun 2027 01:13:51.655           128.581
                       2     1 Jun 2027 01:13:53.667     1 Jun 2027 01:19:16.123           322.456
                       3     1 Jun 2027 01:19:46.333     1 Jun 2027 01:20:16.729            30.397
                       4     1 Jun 2027 02:49:17.806     1 Jun 2027 02:56:40.418           442.612
                       5     1 Jun 2027 04:26:01.110     1 Jun 2027 04:32:40.674           399.564
                       6     1 Jun 2027 06:04:04.638     1 Jun 2027 06:08:14.262           249.624
                       7     1 Jun 2027 07:37:48.352     1 Jun 2027 07:44:41.006           412.654
                       8     1 Jun 2027 12:45:50.858     1 Jun 2027 12:48:45.903           175.045
                       9     1 Jun 2027 14:22:22.259     1 Jun 2027 14:25:57.074           214.815
                      10     1 Jun 2027 14:27:05.282     1 Jun 2027 14:30:07.801           182.519
                      11     1 Jun 2027 15:58:55.170     1 Jun 2027 16:05:14.679           379.508
                      12     1 Jun 2027 17:34:26.870     1 Jun 2027 17:35:03.915            37.045
                      13     1 Jun 2027 17:35:15.001     1 Jun 2027 17:42:03.773           408.771
                      14     1 Jun 2027 19:11:23.532     1 Jun 2027 19:11:48.238            24.706
                      15     1 Jun 2027 19:11:55.225     1 Jun 2027 19:12:25.164            29.939
                      16     1 Jun 2027 19:12:30.234     1 Jun 2027 19:13:24.223            53.989
                      17     1 Jun 2027 19:13:26.355     1 Jun 2027 19:17:25.258           238.903
                      18     1 Jun 2027 20:50:11.506     1 Jun 2027 20:57:05.029           413.522
                      19     1 Jun 2027 22:14:27.757     1 Jun 2027 22:16:22.140           114.383
                      20     1 Jun 2027 22:26:51.243     1 Jun 2027 22:27:09.026            17.783
                      21     1 Jun 2027 23:48:18.504     1 Jun 2027 23:54:16.396           357.892
                      22     2 Jun 2027 01:23:13.064     2 Jun 2027 01:31:24.226           491.161
                      23     2 Jun 2027 01:31:43.616     2 Jun 2027 01:32:43.439            59.824
                      24     2 Jun 2027 03:01:13.261     2 Jun 2027 03:08:41.948           448.687
                      25     2 Jun 2027 04:38:08.120     2 Jun 2027 04:43:26.874           318.754
                      26     2 Jun 2027 04:43:44.731     2 Jun 2027 04:44:37.746            53.015
                      27     2 Jun 2027 06:15:42.138     2 Jun 2027 06:20:12.796           270.659
                      28     2 Jun 2027 07:50:04.953     2 Jun 2027 07:51:17.004            72.051
                      29     2 Jun 2027 07:51:54.368     2 Jun 2027 07:55:23.338           208.970
                      30     2 Jun 2027 12:57:57.323     2 Jun 2027 13:01:12.312           194.988
                      31     2 Jun 2027 13:01:23.707     2 Jun 2027 13:02:44.326            80.619
                      32     2 Jun 2027 14:34:18.233     2 Jun 2027 14:38:52.341           274.108
                      33     2 Jun 2027 14:39:06.592     2 Jun 2027 14:40:57.670           111.079
                      34     2 Jun 2027 14:41:42.975     2 Jun 2027 14:42:19.682            36.707
                      35     2 Jun 2027 16:10:51.735     2 Jun 2027 16:17:27.228           395.493
                      36     2 Jun 2027 17:46:24.391     2 Jun 2027 17:54:09.596           465.205
                      37     2 Jun 2027 19:24:05.041     2 Jun 2027 19:24:18.328            13.287
                      38     2 Jun 2027 19:24:28.246     2 Jun 2027 19:25:29.032            60.786
                      39     2 Jun 2027 19:25:37.358     2 Jun 2027 19:26:05.574            28.216
                      40     2 Jun 2027 19:26:09.925     2 Jun 2027 19:29:42.478           212.552
                      41     2 Jun 2027 21:02:36.682     2 Jun 2027 21:07:35.156           298.474
                      42     2 Jun 2027 22:26:24.420     2 Jun 2027 22:28:41.972           137.552
                      43     3 Jun 2027 00:02:36.378     3 Jun 2027 00:06:05.650           209.272
                      44     3 Jun 2027 01:36:09.333     3 Jun 2027 01:43:39.602           450.269
                      45     3 Jun 2027 01:43:43.024     3 Jun 2027 01:44:43.413            60.390
                      46     3 Jun 2027 03:13:35.307     3 Jun 2027 03:20:26.474           411.167
                      47     3 Jun 2027 04:50:37.422     3 Jun 2027 04:55:06.704           269.283
                      48     3 Jun 2027 04:55:12.939     3 Jun 2027 04:56:28.071            75.132
                      49     3 Jun 2027 06:27:26.042     3 Jun 2027 06:32:10.666           284.625
                      50     3 Jun 2027 08:02:42.210     3 Jun 2027 08:02:43.444             1.234
                      51     3 Jun 2027 08:04:28.392     3 Jun 2027 08:07:09.765           161.373
                      52     3 Jun 2027 13:10:18.421     3 Jun 2027 13:12:46.533           148.112
                      53     3 Jun 2027 13:13:09.324     3 Jun 2027 13:15:07.769           118.444
                      54     3 Jun 2027 14:46:12.505     3 Jun 2027 14:52:58.365           405.860
                      55     3 Jun 2027 16:22:55.744     3 Jun 2027 16:29:20.565           384.820
                      56     3 Jun 2027 17:58:24.821     3 Jun 2027 18:05:55.912           451.090
                      57     3 Jun 2027 19:36:38.906     3 Jun 2027 19:37:05.914            27.008
                      58     3 Jun 2027 19:37:16.466     3 Jun 2027 19:42:47.688           331.222
                      59     3 Jun 2027 21:14:55.020     3 Jun 2027 21:19:28.612           273.593
                      60     3 Jun 2027 22:38:15.343     3 Jun 2027 22:40:53.456           158.113
                      61     4 Jun 2027 00:14:42.735     4 Jun 2027 00:18:15.608           212.873
                      62     4 Jun 2027 01:46:52.540     4 Jun 2027 01:47:00.176             7.635
                      63     4 Jun 2027 01:48:48.047     4 Jun 2027 01:55:36.221           408.174
                      64     4 Jun 2027 01:55:39.720     4 Jun 2027 01:56:39.450            59.730
                      65     4 Jun 2027 03:25:46.191     4 Jun 2027 03:32:30.700           404.509
                      66     4 Jun 2027 05:02:52.863     4 Jun 2027 05:07:10.221           257.357
                      67     4 Jun 2027 05:07:13.945     4 Jun 2027 05:07:47.901            33.955
                      68     4 Jun 2027 06:39:29.219     4 Jun 2027 06:44:38.119           308.900
                      69     4 Jun 2027 08:17:48.332     4 Jun 2027 08:18:38.535            50.204
                      70     4 Jun 2027 13:22:20.101     4 Jun 2027 13:24:36.105           136.004
                      71     4 Jun 2027 14:58:16.853     4 Jun 2027 15:04:49.018           392.165
                      72     4 Jun 2027 16:34:58.350     4 Jun 2027 16:41:27.754           389.404
                      73     4 Jun 2027 18:10:33.597     4 Jun 2027 18:18:06.185           452.589
                      74     4 Jun 2027 19:48:45.786     4 Jun 2027 19:49:46.533            60.747
                      75     4 Jun 2027 19:49:52.239     4 Jun 2027 19:54:58.629           306.390
                      76     4 Jun 2027 21:27:24.737     4 Jun 2027 21:31:22.145           237.409
                      77     4 Jun 2027 22:50:21.785     4 Jun 2027 22:53:24.180           182.395
                      78     5 Jun 2027 00:26:50.313     5 Jun 2027 00:30:29.519           219.206
                      79     5 Jun 2027 02:01:58.291     5 Jun 2027 02:08:41.727           403.436
                      80     5 Jun 2027 03:38:19.943     5 Jun 2027 03:44:37.136           377.193
                      81     5 Jun 2027 05:15:45.019     5 Jun 2027 05:20:14.977           269.958
                      82     5 Jun 2027 06:51:55.982     5 Jun 2027 06:56:07.008           251.026
                      83     5 Jun 2027 13:34:25.831     5 Jun 2027 13:37:28.955           183.124
                      84     5 Jun 2027 15:10:20.887     5 Jun 2027 15:16:08.715           347.828
                      85     5 Jun 2027 16:47:03.422     5 Jun 2027 16:53:14.205           370.784
                      86     5 Jun 2027 18:22:33.203     5 Jun 2027 18:29:35.730           422.527
                      87     5 Jun 2027 20:00:42.595     5 Jun 2027 20:01:31.464            48.870
                      88     5 Jun 2027 20:01:49.312     5 Jun 2027 20:06:50.787           301.475
                      89     5 Jun 2027 21:38:56.636     5 Jun 2027 21:39:34.221            37.586
                      90     5 Jun 2027 21:40:04.091     5 Jun 2027 21:42:31.161           147.070
                      91     5 Jun 2027 23:02:24.295     5 Jun 2027 23:05:32.911           188.617
                      92     6 Jun 2027 00:38:52.969     6 Jun 2027 00:42:17.823           204.853
                      93     6 Jun 2027 02:14:05.157     6 Jun 2027 02:20:43.548           398.391
                      94     6 Jun 2027 03:50:00.393     6 Jun 2027 03:55:47.658           347.264
                      95     6 Jun 2027 03:55:49.841     6 Jun 2027 03:56:16.975            27.134
                      96     6 Jun 2027 05:27:53.057     6 Jun 2027 05:32:22.760           269.703
                      97     6 Jun 2027 07:03:50.401     6 Jun 2027 07:08:04.004           253.603
                      98     6 Jun 2027 07:08:09.056     6 Jun 2027 07:08:57.791            48.735
                      99     6 Jun 2027 12:10:47.652     6 Jun 2027 12:11:51.208            63.556
                     100     6 Jun 2027 13:46:32.803     6 Jun 2027 13:49:32.044           179.241
                     101     6 Jun 2027 15:22:32.531     6 Jun 2027 15:27:59.131           326.600
                     102     6 Jun 2027 16:59:01.041     6 Jun 2027 17:05:17.085           376.044
                     103     6 Jun 2027 18:34:30.096     6 Jun 2027 18:41:29.892           419.797
                     104     6 Jun 2027 20:13:47.958     6 Jun 2027 20:19:04.661           316.703
                     105     6 Jun 2027 20:20:02.690     6 Jun 2027 20:21:37.438            94.748
                     106     6 Jun 2027 21:39:59.546     6 Jun 2027 21:40:24.367            24.821
                     107     6 Jun 2027 21:50:53.886     6 Jun 2027 21:54:29.163           215.278
                     108     6 Jun 2027 23:14:50.916     6 Jun 2027 23:17:44.569           173.652
                     109     7 Jun 2027 00:50:36.688     7 Jun 2027 00:54:52.572           255.884
                     110     7 Jun 2027 02:25:19.971     7 Jun 2027 02:32:51.872           451.901
                     111     7 Jun 2027 04:02:06.522     7 Jun 2027 04:08:28.269           381.748
                     112     7 Jun 2027 05:40:22.047     7 Jun 2027 05:44:17.159           235.112
                     113     7 Jun 2027 07:13:40.627     7 Jun 2027 07:15:11.157            90.530
                     114     7 Jun 2027 07:15:36.826     7 Jun 2027 07:19:55.780           258.954
                     115     7 Jun 2027 07:20:16.960     7 Jun 2027 07:21:21.115            64.155
                     116     7 Jun 2027 12:22:06.558     7 Jun 2027 12:24:18.107           131.549
                     117     7 Jun 2027 13:58:19.733     7 Jun 2027 14:01:43.143           203.410
                     118     7 Jun 2027 15:34:56.375     7 Jun 2027 15:41:06.113           369.738
                     119     7 Jun 2027 17:11:07.579     7 Jun 2027 17:17:53.279           405.700
                     120     7 Jun 2027 18:47:11.013     7 Jun 2027 18:53:37.418           386.404
                     121     7 Jun 2027 20:26:08.288     7 Jun 2027 20:33:33.009           444.720
                     122     7 Jun 2027 21:51:14.805     7 Jun 2027 21:52:39.171            84.366
                     123     7 Jun 2027 22:02:52.080     7 Jun 2027 22:04:20.190            88.110
                     124     7 Jun 2027 23:25:27.774     7 Jun 2027 23:26:27.106            59.332
                     125     7 Jun 2027 23:27:06.853     7 Jun 2027 23:30:11.769           184.916
                     126     8 Jun 2027 01:00:33.024     8 Jun 2027 01:01:52.150            79.126
                     127     8 Jun 2027 01:02:20.442     8 Jun 2027 01:07:12.108           291.666
                     128     8 Jun 2027 02:37:26.245     8 Jun 2027 02:44:51.786           445.541
                     129     8 Jun 2027 04:14:26.881     8 Jun 2027 04:20:17.555           350.674
                     130     8 Jun 2027 04:20:23.356     8 Jun 2027 04:20:34.220            10.863
                     131     8 Jun 2027 05:52:20.499     8 Jun 2027 05:56:19.283           238.783
                     132     8 Jun 2027 07:25:37.629     8 Jun 2027 07:31:55.926           378.297
                     133     8 Jun 2027 07:32:07.960     8 Jun 2027 07:33:27.020            79.061
