DATA_Files/Russia2Constellation/AreaTarget-Russia-To-Satellite-KinoSat_08_plane.txt

                                                                                                                                                                                                                                                                                           10 May 2023 21:14:04
Civil Air Patrol Use Only
AreaTarget-Russia-To-Satellite-KinoSat_110801, Satellite-KinoSat_110802, Satellite-KinoSat_110803, Satellite-KinoSat_110804, Satellite-KinoSat_110805, Satellite-KinoSat_110806, Satellite-KinoSat_110807, Satellite-KinoSat_110808, Satellite-KinoSat_110809, Satellite-KinoSat_110810:  Access Summary Report


Russia-To-KinoSat_110801
------------------------
                  Access        Start Time (UTCG)           Stop Time (UTCG)        Duration (sec)
                  ------    ------------------------    ------------------------    --------------
                       1     1 Jun 2027 01:13:40.633     1 Jun 2027 01:18:55.570           314.937
                       2     1 Jun 2027 02:37:42.712     1 Jun 2027 02:39:59.097           136.386
                       3     1 Jun 2027 04:13:39.434     1 Jun 2027 04:17:35.922           236.488
                       4     1 Jun 2027 05:47:30.399     1 Jun 2027 05:54:49.260           438.861
                       5     1 Jun 2027 05:55:00.341     1 Jun 2027 05:56:00.498            60.157
                       6     1 Jun 2027 07:24:37.175     1 Jun 2027 07:31:56.462           439.286
                       7     1 Jun 2027 09:01:39.739     1 Jun 2027 09:07:47.107           367.368
                       8     1 Jun 2027 10:38:37.100     1 Jun 2027 10:43:28.975           291.875
                       9     1 Jun 2027 12:13:40.630     1 Jun 2027 12:14:08.083            27.453
                      10     1 Jun 2027 12:15:19.749     1 Jun 2027 12:18:33.470           193.721
                      11     1 Jun 2027 17:21:15.779     1 Jun 2027 17:23:45.670           149.890
                      12     1 Jun 2027 17:23:58.770     1 Jun 2027 17:26:34.969           156.199
                      13     1 Jun 2027 18:57:28.799     1 Jun 2027 19:04:24.831           416.033
                      14     1 Jun 2027 20:34:12.323     1 Jun 2027 20:40:44.100           391.778
                      15     1 Jun 2027 22:09:40.694     1 Jun 2027 22:17:19.989           459.295
                      16     1 Jun 2027 23:47:50.146     1 Jun 2027 23:48:41.313            51.167
                      17     1 Jun 2027 23:48:51.340     1 Jun 2027 23:53:06.447           255.108
                      18     2 Jun 2027 01:26:14.331     2 Jun 2027 01:30:53.705           279.373
                      19     2 Jun 2027 02:49:36.918     2 Jun 2027 02:52:03.818           146.900
                      20     2 Jun 2027 04:26:01.194     2 Jun 2027 04:29:27.108           205.914
                      21     2 Jun 2027 05:59:41.369     2 Jun 2027 06:06:57.310           435.941
                      22     2 Jun 2027 06:06:58.502     2 Jun 2027 06:07:59.531            61.028
                      23     2 Jun 2027 07:37:03.171     2 Jun 2027 07:43:45.183           402.012
                      24     2 Jun 2027 09:14:00.251     2 Jun 2027 09:18:21.318           261.067
                      25     2 Jun 2027 09:18:23.730     2 Jun 2027 09:19:31.761            68.031
                      26     2 Jun 2027 10:50:50.653     2 Jun 2027 10:55:18.862           268.209
                      27     2 Jun 2027 12:28:30.581     2 Jun 2027 12:30:07.346            96.765
                      28     2 Jun 2027 17:33:29.040     2 Jun 2027 17:35:49.640           140.600
                      29     2 Jun 2027 17:36:50.156     2 Jun 2027 17:37:56.669            66.513
                      30     2 Jun 2027 19:09:32.010     2 Jun 2027 19:16:05.298           393.289
                      31     2 Jun 2027 20:46:12.956     2 Jun 2027 20:52:35.709           382.753
                      32     2 Jun 2027 22:21:45.571     2 Jun 2027 22:29:19.301           453.729
                      33     2 Jun 2027 23:59:49.446     2 Jun 2027 23:59:57.344             7.899
                      34     3 Jun 2027 00:00:04.562     3 Jun 2027 00:06:05.663           361.101
                      35     3 Jun 2027 01:37:52.751     3 Jun 2027 01:42:30.388           277.637
                      36     3 Jun 2027 03:01:24.128     3 Jun 2027 03:04:10.918           166.790
                      37     3 Jun 2027 04:38:03.166     3 Jun 2027 04:41:34.536           211.369
                      38     3 Jun 2027 06:12:58.122     3 Jun 2027 06:18:53.548           355.425
                      39     3 Jun 2027 06:18:57.139     3 Jun 2027 06:19:55.870            58.731
                      40     3 Jun 2027 07:49:10.600     3 Jun 2027 07:55:50.761           400.162
                      41     3 Jun 2027 09:26:54.234     3 Jun 2027 09:31:18.640           264.406
                      42     3 Jun 2027 11:03:00.502     3 Jun 2027 11:07:21.775           261.273
                      43     3 Jun 2027 17:45:39.772     3 Jun 2027 17:48:06.993           147.222
                      44     3 Jun 2027 19:21:35.189     3 Jun 2027 19:27:47.084           371.894
                      45     3 Jun 2027 20:58:16.950     3 Jun 2027 21:04:44.114           387.164
                      46     3 Jun 2027 22:33:47.983     3 Jun 2027 22:41:07.701           439.718
                      47     4 Jun 2027 00:11:57.464     4 Jun 2027 00:12:57.347            59.882
                      48     4 Jun 2027 00:13:06.663     4 Jun 2027 00:18:17.591           310.929
                      49     4 Jun 2027 01:50:16.601     4 Jun 2027 01:50:45.427            28.826
                      50     4 Jun 2027 01:51:05.029     4 Jun 2027 01:54:08.377           183.348
                      51     4 Jun 2027 03:13:38.520     4 Jun 2027 03:16:46.398           187.878
                      52     4 Jun 2027 04:50:10.297     4 Jun 2027 04:53:41.988           211.692
                      53     4 Jun 2027 06:25:20.421     4 Jun 2027 06:31:56.953           396.532
                      54     4 Jun 2027 08:01:45.137     4 Jun 2027 08:07:53.133           367.996
                      55     4 Jun 2027 09:39:00.603     4 Jun 2027 09:43:37.203           276.600
                      56     4 Jun 2027 11:15:14.898     4 Jun 2027 11:19:56.666           281.768
                      57     4 Jun 2027 17:57:52.095     4 Jun 2027 18:00:53.726           181.631
                      58     4 Jun 2027 19:33:40.763     4 Jun 2027 19:39:17.836           337.074
                      59     4 Jun 2027 21:10:15.715     4 Jun 2027 21:16:30.116           374.401
                      60     4 Jun 2027 22:45:45.296     4 Jun 2027 22:52:44.389           419.093
                      61     5 Jun 2027 00:24:01.907     5 Jun 2027 00:24:16.222            14.314
                      62     5 Jun 2027 00:24:31.704     5 Jun 2027 00:24:39.558             7.854
                      63     5 Jun 2027 00:25:04.271     5 Jun 2027 00:30:11.688           307.417
                      64     5 Jun 2027 00:31:37.957     5 Jun 2027 00:33:00.141            82.184
                      65     5 Jun 2027 02:02:12.940     5 Jun 2027 02:02:51.243            38.303
                      66     5 Jun 2027 02:03:19.560     5 Jun 2027 02:05:49.647           150.087
                      67     5 Jun 2027 03:25:40.893     5 Jun 2027 03:28:51.096           190.203
                      68     5 Jun 2027 05:02:03.121     5 Jun 2027 05:06:05.813           242.692
                      69     5 Jun 2027 06:36:59.179     5 Jun 2027 06:44:05.502           426.323
                      70     5 Jun 2027 08:13:18.374     5 Jun 2027 08:19:42.944           384.570
                      71     5 Jun 2027 09:51:33.507     5 Jun 2027 09:55:26.549           233.043
                      72     5 Jun 2027 11:26:53.837     5 Jun 2027 11:31:05.199           251.362
                      73     5 Jun 2027 11:31:26.161     5 Jun 2027 11:32:24.796            58.635
                      74     5 Jun 2027 16:33:43.398     5 Jun 2027 16:35:20.208            96.810
                      75     5 Jun 2027 18:09:37.451     5 Jun 2027 18:12:47.176           189.725
                      76     5 Jun 2027 19:46:10.709     5 Jun 2027 19:51:21.721           311.012
                      77     5 Jun 2027 21:22:19.929     5 Jun 2027 21:29:08.467           408.538
                      78     5 Jun 2027 22:57:49.094     5 Jun 2027 23:04:55.374           426.280
                      79     6 Jun 2027 00:37:07.128     6 Jun 2027 00:42:42.776           335.648
                      80     6 Jun 2027 00:43:15.181     6 Jun 2027 00:44:46.677            91.496
                      81     6 Jun 2027 02:02:55.827     6 Jun 2027 02:03:49.158            53.331
                      82     6 Jun 2027 02:14:08.967     6 Jun 2027 02:15:50.608           101.641
                      83     6 Jun 2027 02:16:10.562     6 Jun 2027 02:17:27.104            76.541
                      84     6 Jun 2027 03:36:45.731     6 Jun 2027 03:41:23.576           277.844
                      85     6 Jun 2027 05:12:21.751     6 Jun 2027 05:13:00.607            38.856
                      86     6 Jun 2027 05:13:47.194     6 Jun 2027 05:18:20.836           273.642
                      87     6 Jun 2027 06:48:32.558     6 Jun 2027 06:56:07.254           454.696
                      88     6 Jun 2027 08:25:37.815     6 Jun 2027 08:32:00.126           382.312
                      89     6 Jun 2027 10:03:36.651     6 Jun 2027 10:07:31.554           234.903
                      90     6 Jun 2027 11:36:45.250     6 Jun 2027 11:42:59.689           374.439
                      91     6 Jun 2027 11:43:05.055     6 Jun 2027 11:44:41.323            96.268
                      92     6 Jun 2027 16:45:20.551     6 Jun 2027 16:47:52.857           152.306
                      93     6 Jun 2027 18:21:37.815     6 Jun 2027 18:25:05.008           207.193
                      94     6 Jun 2027 19:58:20.013     6 Jun 2027 20:04:32.324           372.312
                      95     6 Jun 2027 21:34:27.562     6 Jun 2027 21:41:04.965           397.403
                      96     6 Jun 2027 23:10:28.958     6 Jun 2027 23:16:53.533           384.575
                      97     7 Jun 2027 00:49:33.166     7 Jun 2027 00:56:43.978           430.811
                      98     7 Jun 2027 02:14:28.230     7 Jun 2027 02:16:01.434            93.204
                      99     7 Jun 2027 02:26:11.348     7 Jun 2027 02:27:28.550            77.202
                     100     7 Jun 2027 03:48:24.456     7 Jun 2027 03:49:34.811            70.355
                     101     7 Jun 2027 03:50:24.998     7 Jun 2027 03:53:36.872           191.874
                     102     7 Jun 2027 05:23:28.149     7 Jun 2027 05:25:11.605           103.456
                     103     7 Jun 2027 05:25:31.527     7 Jun 2027 05:30:33.178           301.651
                     104     7 Jun 2027 05:31:23.120     7 Jun 2027 05:31:44.818            21.698
                     105     7 Jun 2027 07:00:51.017     7 Jun 2027 07:08:10.419           439.402
                     106     7 Jun 2027 08:37:39.205     7 Jun 2027 08:44:07.361           388.156
                     107     7 Jun 2027 10:15:36.341     7 Jun 2027 10:19:35.176           238.835
                     108     7 Jun 2027 11:49:12.472     7 Jun 2027 11:56:40.410           447.938
                     109     7 Jun 2027 16:57:21.317     7 Jun 2027 17:00:00.708           159.391
                     110     7 Jun 2027 18:33:47.711     7 Jun 2027 18:37:09.876           202.165
                     111     7 Jun 2027 18:38:40.170     7 Jun 2027 18:41:03.689           143.519
                     112     7 Jun 2027 20:10:34.308     7 Jun 2027 20:16:29.831           355.523
                     113     7 Jun 2027 21:46:07.937     7 Jun 2027 21:46:10.070             2.133
                     114     7 Jun 2027 21:46:28.641     7 Jun 2027 21:53:19.712           411.071
                     115     7 Jun 2027 23:22:46.644     7 Jun 2027 23:28:48.015           361.371
                     116     8 Jun 2027 01:01:46.441     8 Jun 2027 01:08:44.649           418.208
                     117     8 Jun 2027 02:25:59.203     8 Jun 2027 02:28:11.658           132.455
                     118     8 Jun 2027 02:38:08.179     8 Jun 2027 02:38:45.114            36.935
                     119     8 Jun 2027 04:00:08.122     8 Jun 2027 04:01:22.090            73.968
                     120     8 Jun 2027 04:02:10.794     8 Jun 2027 04:05:47.922           217.129
                     121     8 Jun 2027 05:34:56.367     8 Jun 2027 05:42:53.970           477.603
                     122     8 Jun 2027 05:43:15.815     8 Jun 2027 05:43:58.676            42.861
                     123     8 Jun 2027 07:12:45.576     8 Jun 2027 07:20:11.164           445.588
                     124     8 Jun 2027 08:49:29.976     8 Jun 2027 08:55:25.191           355.215
                     125     8 Jun 2027 08:55:30.260     8 Jun 2027 08:56:15.625            45.365
                     126     8 Jun 2027 10:27:38.393     8 Jun 2027 10:31:44.671           246.279
                     127     8 Jun 2027 12:01:28.924     8 Jun 2027 12:07:46.211           377.286
                     128     8 Jun 2027 17:09:26.505     8 Jun 2027 17:12:22.054           175.549
                     129     8 Jun 2027 17:13:10.101     8 Jun 2027 17:13:48.790            38.689
                     130     8 Jun 2027 18:45:49.686     8 Jun 2027 18:49:56.824           247.138
                     131     8 Jun 2027 18:50:39.029     8 Jun 2027 18:53:53.937           194.908
                     132     8 Jun 2027 20:22:25.694     8 Jun 2027 20:28:53.391           387.697
                     133     8 Jun 2027 21:57:56.022     8 Jun 2027 22:05:42.575           466.553
                     134     8 Jun 2027 23:35:32.462     8 Jun 2027 23:37:17.328           104.866
                     135     8 Jun 2027 23:37:20.864     8 Jun 2027 23:41:07.096           226.232
                     136     9 Jun 2027 01:13:55.765     9 Jun 2027 01:19:10.150           314.385
                     137     9 Jun 2027 02:37:57.532     9 Jun 2027 02:40:13.966           136.434
                     138     9 Jun 2027 04:13:54.234     9 Jun 2027 04:17:50.727           236.492
                     139     9 Jun 2027 05:47:45.014     9 Jun 2027 05:55:03.259           438.245
                     140     9 Jun 2027 05:55:15.119     9 Jun 2027 05:56:15.358            60.239
                     141     9 Jun 2027 07:24:52.016     9 Jun 2027 07:32:11.478           439.461
                     142     9 Jun 2027 09:01:54.945     9 Jun 2027 09:06:44.205           289.260
                     143     9 Jun 2027 09:06:51.229     9 Jun 2027 09:08:01.777            70.548
                     144     9 Jun 2027 10:38:52.781     9 Jun 2027 10:43:44.388           291.606
                     145     9 Jun 2027 12:13:55.761     9 Jun 2027 12:14:21.453            25.692
                     146     9 Jun 2027 12:15:35.773     9 Jun 2027 12:18:47.978           192.206
                     147     9 Jun 2027 17:21:30.688     9 Jun 2027 17:24:00.341           149.653
                     148     9 Jun 2027 17:24:14.199     9 Jun 2027 17:26:51.342           157.143
                     149     9 Jun 2027 18:57:43.528     9 Jun 2027 19:04:39.833           416.305
                     150     9 Jun 2027 20:34:27.545     9 Jun 2027 20:40:58.658           391.113
                     151     9 Jun 2027 22:09:55.573     9 Jun 2027 22:17:34.961           459.388
                     152     9 Jun 2027 23:48:05.565     9 Jun 2027 23:48:55.978            50.414
                     153     9 Jun 2027 23:49:05.922     9 Jun 2027 23:49:48.383            42.461
                     154     9 Jun 2027 23:49:49.147     9 Jun 2027 23:53:37.497           228.351
                     155    10 Jun 2027 01:26:29.419    10 Jun 2027 01:31:08.344           278.925
                     156    10 Jun 2027 02:49:51.799    10 Jun 2027 02:52:18.852           147.053
                     157    10 Jun 2027 04:26:15.924    10 Jun 2027 04:29:41.823           205.899
                     158    10 Jun 2027 05:59:57.611    10 Jun 2027 06:07:12.220           434.609
                     159    10 Jun 2027 06:07:13.407    10 Jun 2027 06:08:14.306            60.899
                     160    10 Jun 2027 07:37:18.244    10 Jun 2027 07:44:00.005           401.761
                     161    10 Jun 2027 09:14:15.094    10 Jun 2027 09:18:36.456           261.362
                     162    10 Jun 2027 09:18:38.678    10 Jun 2027 09:19:46.279            67.601
                     163    10 Jun 2027 10:51:05.584    10 Jun 2027 10:55:33.709           268.125
                     164    10 Jun 2027 12:28:46.117    10 Jun 2027 12:30:35.299           109.182
                     165    10 Jun 2027 17:33:44.042    10 Jun 2027 17:36:05.208           141.165
                     166    10 Jun 2027 17:37:05.046    10 Jun 2027 17:38:10.821            65.775
                     167    10 Jun 2027 19:09:46.977    10 Jun 2027 19:16:19.442           392.465
                     168    10 Jun 2027 20:46:27.832    10 Jun 2027 20:52:50.593           382.760
                     169    10 Jun 2027 22:22:00.527    10 Jun 2027 22:29:34.240           453.713
                     170    11 Jun 2027 00:00:04.255    11 Jun 2027 00:00:11.878             7.623
                     171    11 Jun 2027 00:00:19.746    11 Jun 2027 00:06:20.480           360.735
                     172    11 Jun 2027 01:38:07.696    11 Jun 2027 01:42:44.895           277.199
                     173    11 Jun 2027 03:01:38.874    11 Jun 2027 03:04:25.816           166.943
                     174    11 Jun 2027 04:38:18.951    11 Jun 2027 04:41:49.331           210.380
                     175    11 Jun 2027 06:13:18.052    11 Jun 2027 06:19:08.320           350.268
                     176    11 Jun 2027 06:19:11.865    11 Jun 2027 06:20:10.809            58.944
                     177    11 Jun 2027 07:49:25.668    11 Jun 2027 07:56:05.752           400.085
                     178    11 Jun 2027 09:27:09.817    11 Jun 2027 09:31:33.868           264.051
                     179    11 Jun 2027 11:03:15.650    11 Jun 2027 11:07:36.093           260.442
                     180    11 Jun 2027 17:45:54.536    11 Jun 2027 17:48:22.034           147.498
                     181    11 Jun 2027 19:21:50.120    11 Jun 2027 19:28:01.486           371.366
                     182    11 Jun 2027 20:58:32.019    11 Jun 2027 21:04:58.971           386.952
                     183    11 Jun 2027 22:34:02.919    11 Jun 2027 22:41:21.999           439.080
                     184    12 Jun 2027 00:12:12.334    12 Jun 2027 00:13:12.011            59.677
                     185    12 Jun 2027 00:13:21.634    12 Jun 2027 00:18:31.800           310.166
                     186    12 Jun 2027 01:50:31.228    12 Jun 2027 01:51:00.737            29.509
                     187    12 Jun 2027 01:51:19.825    12 Jun 2027 01:54:23.157           183.332
                     188    12 Jun 2027 03:13:53.323    12 Jun 2027 03:17:01.349           188.026
                     189    12 Jun 2027 04:50:25.145    12 Jun 2027 04:53:56.568           211.424
                     190    12 Jun 2027 06:25:35.389    12 Jun 2027 06:32:11.760           396.371
                     191    12 Jun 2027 08:01:59.288    12 Jun 2027 08:08:07.939           368.651
                     192    12 Jun 2027 09:39:15.703    12 Jun 2027 09:43:52.203           276.500
                     193    12 Jun 2027 11:15:29.419    12 Jun 2027 11:20:12.012           282.593
                     194    12 Jun 2027 17:58:05.618    12 Jun 2027 18:01:08.827           183.208
                     195    12 Jun 2027 19:33:55.673    12 Jun 2027 19:39:33.175           337.501
                     196    12 Jun 2027 21:10:30.481    12 Jun 2027 21:16:45.053           374.571
                     197    12 Jun 2027 22:46:00.134    12 Jun 2027 22:52:59.065           418.931
                     198    13 Jun 2027 00:24:16.814    13 Jun 2027 00:24:30.385            13.571
                     199    13 Jun 2027 00:25:19.086    13 Jun 2027 00:30:26.361           307.275
                     200    13 Jun 2027 00:31:52.573    13 Jun 2027 00:33:15.386            82.813
                     201    13 Jun 2027 02:02:27.734    13 Jun 2027 02:03:06.206            38.472
                     202    13 Jun 2027 02:03:34.142    13 Jun 2027 02:06:04.213           150.071
                     203    13 Jun 2027 03:26:22.949    13 Jun 2027 03:29:05.939           162.991
                     204    13 Jun 2027 05:02:17.753    13 Jun 2027 05:06:21.086           243.333
                     205    13 Jun 2027 06:37:13.865    13 Jun 2027 06:44:20.481           426.616
                     206    13 Jun 2027 08:13:33.114    13 Jun 2027 08:19:57.932           384.819
                     207    13 Jun 2027 09:51:48.462    13 Jun 2027 09:55:41.607           233.144
                     208    13 Jun 2027 11:27:09.023    13 Jun 2027 11:31:20.143           251.119
                     209    13 Jun 2027 11:31:41.042    13 Jun 2027 11:32:39.673            58.631
                     210    13 Jun 2027 16:33:57.525    13 Jun 2027 16:35:35.541            98.016
                     211    13 Jun 2027 18:09:52.190    13 Jun 2027 18:13:02.096           189.906
                     212    13 Jun 2027 19:46:25.548    13 Jun 2027 19:51:36.659           311.112
                     213    13 Jun 2027 21:22:34.852    13 Jun 2027 21:29:23.253           408.401
                     214    13 Jun 2027 22:58:04.185    13 Jun 2027 23:05:11.873           427.689

Min Duration         113     7 Jun 2027 21:46:07.937     7 Jun 2027 21:46:10.070             2.133
Max Duration         121     8 Jun 2027 05:34:56.367     8 Jun 2027 05:42:53.970           477.603
Mean Duration                                                                              242.160
Total Duration                                                                           51822.297


Russia-To-KinoSat_110802
------------------------
                  Access        Start Time (UTCG)           Stop Time (UTCG)        Duration (sec)
                  ------    ------------------------    ------------------------    --------------
                       1     1 Jun 2027 01:03:48.562     1 Jun 2027 01:10:50.990           422.427
                       2     1 Jun 2027 02:28:11.188     1 Jun 2027 02:30:17.241           126.053
                       3     1 Jun 2027 02:40:23.427     1 Jun 2027 02:40:54.897            31.470
                       4     1 Jun 2027 04:02:09.879     1 Jun 2027 04:03:29.335            79.456
                       5     1 Jun 2027 04:04:17.954     1 Jun 2027 04:08:02.408           224.454
                       6     1 Jun 2027 05:37:02.910     1 Jun 2027 05:45:06.031           483.121
                       7     1 Jun 2027 05:45:26.280     1 Jun 2027 05:46:24.538            58.258
                       8     1 Jun 2027 07:14:56.535     1 Jun 2027 07:22:21.492           444.957
                       9     1 Jun 2027 08:51:40.471     1 Jun 2027 08:57:31.535           351.064
                      10     1 Jun 2027 08:57:37.341     1 Jun 2027 08:58:24.525            47.183
                      11     1 Jun 2027 10:29:46.729     1 Jun 2027 10:33:56.430           249.701
                      12     1 Jun 2027 12:05:31.147     1 Jun 2027 12:09:54.159           263.012
                      13     1 Jun 2027 17:11:37.139     1 Jun 2027 17:14:32.676           175.537
                      14     1 Jun 2027 17:15:03.882     1 Jun 2027 17:16:02.676            58.794
                      15     1 Jun 2027 18:48:00.607     1 Jun 2027 18:52:20.383           259.776
                      16     1 Jun 2027 18:52:59.017     1 Jun 2027 18:56:03.410           184.393
                      17     1 Jun 2027 20:24:35.285     1 Jun 2027 20:31:08.117           392.832
                      18     1 Jun 2027 22:00:06.427     1 Jun 2027 22:07:49.654           463.227
                      19     1 Jun 2027 23:37:44.391     1 Jun 2027 23:39:23.417            99.027
                      20     1 Jun 2027 23:39:47.506     1 Jun 2027 23:43:19.274           211.768
                      21     2 Jun 2027 01:16:10.352     2 Jun 2027 01:21:19.851           309.499
                      22     2 Jun 2027 02:40:06.971     2 Jun 2027 02:42:23.569           136.598
                      23     2 Jun 2027 04:16:07.965     2 Jun 2027 04:20:00.305           232.340
                      24     2 Jun 2027 05:49:55.353     2 Jun 2027 05:57:14.266           438.912
                      25     2 Jun 2027 05:57:17.388     2 Jun 2027 05:58:25.779            68.391
                      26     2 Jun 2027 07:27:04.158     2 Jun 2027 07:34:22.040           437.882
                      27     2 Jun 2027 09:04:18.740     2 Jun 2027 09:08:50.304           271.564
                      28     2 Jun 2027 09:09:00.064     2 Jun 2027 09:10:11.121            71.058
                      29     2 Jun 2027 10:41:00.653     2 Jun 2027 10:45:52.445           291.792
                      30     2 Jun 2027 12:16:12.458     2 Jun 2027 12:16:26.449            13.991
                      31     2 Jun 2027 12:17:47.267     2 Jun 2027 12:20:55.723           188.456
                      32     2 Jun 2027 17:23:42.072     2 Jun 2027 17:26:13.005           150.934
                      33     2 Jun 2027 17:26:34.679     2 Jun 2027 17:29:10.472           155.793
                      34     2 Jun 2027 18:59:54.061     2 Jun 2027 19:06:51.399           417.338
                      35     2 Jun 2027 20:36:38.703     2 Jun 2027 20:43:06.008           387.306
                      36     2 Jun 2027 22:12:05.962     2 Jun 2027 22:19:39.394           453.431
                      37     2 Jun 2027 23:50:21.863     2 Jun 2027 23:51:02.942            41.080
                      38     2 Jun 2027 23:51:09.014     2 Jun 2027 23:51:57.033            48.019
                      39     2 Jun 2027 23:51:59.530     2 Jun 2027 23:56:30.333           270.803
                      40     3 Jun 2027 01:28:39.923     3 Jun 2027 01:33:20.700           280.776
                      41     3 Jun 2027 02:51:59.900     3 Jun 2027 02:54:34.127           154.227
                      42     3 Jun 2027 04:28:20.742     3 Jun 2027 04:31:50.575           209.833
                      43     3 Jun 2027 06:02:19.208     3 Jun 2027 06:09:21.535           422.327
                      44     3 Jun 2027 06:09:23.521     3 Jun 2027 06:10:24.459            60.938
                      45     3 Jun 2027 07:39:29.518     3 Jun 2027 07:46:11.603           402.085
                      46     3 Jun 2027 09:16:28.850     3 Jun 2027 09:21:53.047           324.196
                      47     3 Jun 2027 10:53:15.433     3 Jun 2027 10:57:45.905           270.472
                      48     3 Jun 2027 12:31:25.748     3 Jun 2027 12:32:28.957            63.209
                      49     3 Jun 2027 17:36:00.883     3 Jun 2027 17:38:17.853           136.970
                      50     3 Jun 2027 17:39:29.075     3 Jun 2027 17:40:11.048            41.972
                      51     3 Jun 2027 19:11:58.515     3 Jun 2027 19:18:30.243           391.728
                      52     3 Jun 2027 20:48:40.096     3 Jun 2027 20:55:03.518           383.423
                      53     3 Jun 2027 22:24:13.137     3 Jun 2027 22:31:42.818           449.681
                      54     4 Jun 2027 00:02:14.772     4 Jun 2027 00:02:19.813             5.041
                      55     4 Jun 2027 00:02:44.491     4 Jun 2027 00:08:29.520           345.029
                      56     4 Jun 2027 01:40:55.747     4 Jun 2027 01:44:56.339           240.591
                      57     4 Jun 2027 03:03:54.058     4 Jun 2027 03:06:35.635           161.577
                      58     4 Jun 2027 04:40:26.457     4 Jun 2027 04:43:59.288           212.831
                      59     4 Jun 2027 06:15:35.287     4 Jun 2027 06:21:20.287           345.000
                      60     4 Jun 2027 06:21:21.082     4 Jun 2027 06:22:23.889            62.808
                      61     4 Jun 2027 07:51:55.480     4 Jun 2027 07:58:17.664           382.184
                      62     4 Jun 2027 09:29:29.715     4 Jun 2027 09:33:51.043           261.328
                      63     4 Jun 2027 11:05:32.733     4 Jun 2027 11:09:43.109           250.376
                      64     4 Jun 2027 17:48:04.273     4 Jun 2027 17:50:44.176           159.902
                      65     4 Jun 2027 19:24:01.329     4 Jun 2027 19:30:04.853           363.523
                      66     4 Jun 2027 21:00:43.808     4 Jun 2027 21:07:04.578           380.770
                      67     4 Jun 2027 22:36:14.353     4 Jun 2027 22:43:26.882           432.529
                      68     5 Jun 2027 00:14:23.257     5 Jun 2027 00:15:25.451            62.194
                      69     5 Jun 2027 00:15:31.906     5 Jun 2027 00:20:35.437           303.531
                      70     5 Jun 2027 01:52:41.774     5 Jun 2027 01:53:14.081            32.307
                      71     5 Jun 2027 01:53:30.773     5 Jun 2027 01:56:30.572           179.799
                      72     5 Jun 2027 03:16:01.281     5 Jun 2027 03:19:13.517           192.237
                      73     5 Jun 2027 04:52:36.784     5 Jun 2027 04:56:04.267           207.483
                      74     5 Jun 2027 06:27:46.990     5 Jun 2027 06:34:22.501           395.511
                      75     5 Jun 2027 08:04:07.768     5 Jun 2027 08:09:50.755           342.987
                      76     5 Jun 2027 08:09:53.114     5 Jun 2027 08:10:11.094            17.980
                      77     5 Jun 2027 09:41:24.457     5 Jun 2027 09:46:05.778           281.322
                      78     5 Jun 2027 11:17:36.990     5 Jun 2027 11:22:28.486           291.496
                      79     5 Jun 2027 16:24:46.110     5 Jun 2027 16:24:47.754             1.645
                      80     5 Jun 2027 18:00:14.350     5 Jun 2027 18:03:21.553           187.202
                      81     5 Jun 2027 19:36:06.035     5 Jun 2027 19:41:44.241           338.206
                      82     5 Jun 2027 21:12:41.010     5 Jun 2027 21:18:54.530           373.520
                      83     5 Jun 2027 22:48:11.672     5 Jun 2027 22:55:07.021           415.349
                      84     6 Jun 2027 00:26:29.293     6 Jun 2027 00:26:31.379             2.085
                      85     6 Jun 2027 00:27:29.682     6 Jun 2027 00:32:35.169           305.487
                      86     6 Jun 2027 00:33:59.204     6 Jun 2027 00:35:26.495            87.291
                      87     6 Jun 2027 01:53:53.235     6 Jun 2027 01:53:55.651             2.416
                      88     6 Jun 2027 02:04:38.121     6 Jun 2027 02:05:17.508            39.387
                      89     6 Jun 2027 02:05:37.795     6 Jun 2027 02:08:12.706           154.911
                      90     6 Jun 2027 03:28:34.609     6 Jun 2027 03:31:17.559           162.950
                      91     6 Jun 2027 05:04:24.016     6 Jun 2027 05:08:33.330           249.314
                      92     6 Jun 2027 06:39:17.082     6 Jun 2027 06:46:31.695           434.613
                      93     6 Jun 2027 08:15:46.558     6 Jun 2027 08:22:10.337           383.779
                      94     6 Jun 2027 09:54:04.236     6 Jun 2027 09:57:58.578           234.343
                      95     6 Jun 2027 11:29:30.839     6 Jun 2027 11:33:32.462           241.623
                      96     6 Jun 2027 11:33:53.296     6 Jun 2027 11:34:52.544            59.248
                      97     6 Jun 2027 16:36:00.638     6 Jun 2027 16:37:51.234           110.596
                      98     6 Jun 2027 18:12:02.000     6 Jun 2027 18:15:22.680           200.680
                      99     6 Jun 2027 19:48:36.518     6 Jun 2027 19:53:50.410           313.892
                     100     6 Jun 2027 21:24:46.668     6 Jun 2027 21:31:34.514           407.846
                     101     6 Jun 2027 23:00:40.962     6 Jun 2027 23:07:22.470           401.508
                     102     7 Jun 2027 00:39:33.170     7 Jun 2027 00:45:09.919           336.749
                     103     7 Jun 2027 00:45:35.182     7 Jun 2027 00:47:11.507            96.325
                     104     7 Jun 2027 02:05:12.101     7 Jun 2027 02:06:19.711            67.610
                     105     7 Jun 2027 02:16:34.041     7 Jun 2027 02:18:14.690           100.650
                     106     7 Jun 2027 02:19:13.528     7 Jun 2027 02:19:35.764            22.236
                     107     7 Jun 2027 03:39:09.048     7 Jun 2027 03:40:12.890            63.843
                     108     7 Jun 2027 03:40:43.941     7 Jun 2027 03:43:51.566           187.625
                     109     7 Jun 2027 05:14:40.495     7 Jun 2027 05:15:31.263            50.769
                     110     7 Jun 2027 05:16:09.399     7 Jun 2027 05:20:48.378           278.979
                     111     7 Jun 2027 06:51:00.068     7 Jun 2027 06:58:32.550           452.482
                     112     7 Jun 2027 08:28:06.605     7 Jun 2027 08:34:25.676           379.071
                     113     7 Jun 2027 10:06:01.939     7 Jun 2027 10:10:00.005           238.066
                     114     7 Jun 2027 11:39:07.085     7 Jun 2027 11:45:27.708           380.623
                     115     7 Jun 2027 11:46:09.490     7 Jun 2027 11:47:08.956            59.465
                     116     7 Jun 2027 16:47:45.556     7 Jun 2027 16:50:31.251           165.695
                     117     7 Jun 2027 18:24:04.563     7 Jun 2027 18:27:30.431           205.868
                     118     7 Jun 2027 20:00:44.941     7 Jun 2027 20:06:57.421           372.480
                     119     7 Jun 2027 21:36:51.501     7 Jun 2027 21:43:31.648           400.147
                     120     7 Jun 2027 23:12:56.164     7 Jun 2027 23:19:04.734           368.570
                     121     8 Jun 2027 00:52:02.274     8 Jun 2027 00:59:10.790           428.516
                     122     8 Jun 2027 02:16:52.737     8 Jun 2027 02:18:28.515            95.778
                     123     8 Jun 2027 02:28:36.539     8 Jun 2027 02:29:37.585            61.046
                     124     8 Jun 2027 03:50:51.672     8 Jun 2027 03:51:57.607            65.934
                     125     8 Jun 2027 03:52:46.013     8 Jun 2027 03:56:05.037           199.024
                     126     8 Jun 2027 05:25:49.016     8 Jun 2027 05:27:44.796           115.780
                     127     8 Jun 2027 05:27:53.501     8 Jun 2027 05:33:10.954           317.453
                     128     8 Jun 2027 05:33:46.858     8 Jun 2027 05:34:11.703            24.846
                     129     8 Jun 2027 07:03:18.054     8 Jun 2027 07:10:36.487           438.434
                     130     8 Jun 2027 08:40:02.648     8 Jun 2027 08:46:35.599           392.951
                     131     8 Jun 2027 10:18:01.193     8 Jun 2027 10:22:12.134           250.941
                     132     8 Jun 2027 11:51:38.948     8 Jun 2027 11:59:03.417           444.468
                     133     8 Jun 2027 16:59:45.794     8 Jun 2027 17:02:30.359           164.565
                     134     8 Jun 2027 18:36:16.322     8 Jun 2027 18:39:39.078           202.756
                     135     8 Jun 2027 18:41:01.076     8 Jun 2027 18:43:44.048           162.972
                     136     8 Jun 2027 20:12:58.499     8 Jun 2027 20:18:59.348           360.849
                     137     8 Jun 2027 21:48:29.542     8 Jun 2027 21:48:47.557            18.016
                     138     8 Jun 2027 21:48:56.771     8 Jun 2027 21:55:55.026           418.255
                     139     8 Jun 2027 23:25:14.816     8 Jun 2027 23:26:25.126            70.310
                     140     8 Jun 2027 23:26:26.950     8 Jun 2027 23:27:26.304            59.354
                     141     8 Jun 2027 23:27:28.692     8 Jun 2027 23:31:17.624           228.932
                     142     9 Jun 2027 01:04:03.578     9 Jun 2027 01:11:05.562           421.985
                     143     9 Jun 2027 02:28:26.112     9 Jun 2027 02:30:31.993           125.880
                     144     9 Jun 2027 02:40:38.309     9 Jun 2027 02:41:09.747            31.438
                     145     9 Jun 2027 04:02:23.784     9 Jun 2027 04:03:43.398            79.614
                     146     9 Jun 2027 04:04:32.131     9 Jun 2027 04:08:17.465           225.334
                     147     9 Jun 2027 05:37:17.384     9 Jun 2027 05:45:20.972           483.587
                     148     9 Jun 2027 05:45:41.142     9 Jun 2027 05:46:39.416            58.274
                     149     9 Jun 2027 07:15:11.410     9 Jun 2027 07:22:36.591           445.182
                     150     9 Jun 2027 08:51:55.459     9 Jun 2027 08:58:39.245           403.786
                     151     9 Jun 2027 10:29:48.904     9 Jun 2027 10:34:11.352           262.449
                     152     9 Jun 2027 12:05:46.539     9 Jun 2027 12:10:08.192           261.653
                     153     9 Jun 2027 17:11:52.155     9 Jun 2027 17:14:47.837           175.682
                     154     9 Jun 2027 17:15:18.903     9 Jun 2027 17:16:17.571            58.667
                     155     9 Jun 2027 18:48:15.443     9 Jun 2027 18:52:36.671           261.227
                     156     9 Jun 2027 18:53:14.205     9 Jun 2027 18:56:18.205           184.000
                     157     9 Jun 2027 20:24:50.071     9 Jun 2027 20:31:22.894           392.822
                     158     9 Jun 2027 22:00:21.324     9 Jun 2027 22:08:04.168           462.844
                     159     9 Jun 2027 23:37:59.336     9 Jun 2027 23:39:38.108            98.773
                     160     9 Jun 2027 23:40:02.804     9 Jun 2027 23:43:34.302           211.498
                     161    10 Jun 2027 01:16:25.680    10 Jun 2027 01:21:34.512           308.831
                     162    10 Jun 2027 02:40:21.773    10 Jun 2027 02:42:38.318           136.545
                     163    10 Jun 2027 04:16:22.221    10 Jun 2027 04:20:14.993           232.772
                     164    10 Jun 2027 05:50:10.277    10 Jun 2027 05:57:29.313           439.036
                     165    10 Jun 2027 05:57:32.119    10 Jun 2027 05:58:40.701            68.581
                     166    10 Jun 2027 07:27:19.412    10 Jun 2027 07:34:36.602           437.190
                     167    10 Jun 2027 09:04:33.975    10 Jun 2027 09:09:05.042           271.066
                     168    10 Jun 2027 09:09:14.953    10 Jun 2027 09:10:25.893            70.940
                     169    10 Jun 2027 10:41:15.241    10 Jun 2027 10:46:07.436           292.195
                     170    10 Jun 2027 12:16:27.550    10 Jun 2027 12:16:41.461            13.911
                     171    10 Jun 2027 12:18:03.325    10 Jun 2027 12:21:10.317           186.993
                     172    10 Jun 2027 17:23:56.939    10 Jun 2027 17:26:28.911           151.972
                     173    10 Jun 2027 17:26:50.078    10 Jun 2027 17:29:25.407           155.328
                     174    10 Jun 2027 19:00:08.916    10 Jun 2027 19:07:06.654           417.737
                     175    10 Jun 2027 20:36:53.465    10 Jun 2027 20:43:17.911           384.446
                     176    10 Jun 2027 22:12:20.857    10 Jun 2027 22:19:54.033           453.176
                     177    10 Jun 2027 23:50:36.934    10 Jun 2027 23:51:15.929            38.995
                     178    10 Jun 2027 23:51:23.418    10 Jun 2027 23:52:12.127            48.709
                     179    10 Jun 2027 23:52:14.443    10 Jun 2027 23:56:45.560           271.117
                     180    11 Jun 2027 01:28:54.470    11 Jun 2027 01:33:35.152           280.682
                     181    11 Jun 2027 02:52:14.421    11 Jun 2027 02:54:49.040           154.619
                     182    11 Jun 2027 04:28:35.290    11 Jun 2027 04:32:05.995           210.705
                     183    11 Jun 2027 06:02:35.826    11 Jun 2027 06:09:35.392           419.566
                     184    11 Jun 2027 06:09:38.250    11 Jun 2027 06:10:39.243            60.993
                     185    11 Jun 2027 07:39:44.545    11 Jun 2027 07:46:26.618           402.073
                     186    11 Jun 2027 09:16:43.067    11 Jun 2027 09:21:54.251           311.184
                     187    11 Jun 2027 10:53:30.055    11 Jun 2027 10:58:00.759           270.703
                     188    11 Jun 2027 12:31:40.566    11 Jun 2027 12:32:43.303            62.736
                     189    11 Jun 2027 17:36:15.702    11 Jun 2027 17:38:32.461           136.759
                     190    11 Jun 2027 17:39:46.565    11 Jun 2027 17:40:24.826            38.261
                     191    11 Jun 2027 19:12:13.403    11 Jun 2027 19:18:44.968           391.566
                     192    11 Jun 2027 20:48:54.908    11 Jun 2027 20:55:18.383           383.475
                     193    11 Jun 2027 22:24:28.130    11 Jun 2027 22:31:57.655           449.526
                     194    12 Jun 2027 00:02:29.675    12 Jun 2027 00:02:34.539             4.864
                     195    12 Jun 2027 00:02:59.277    12 Jun 2027 00:08:45.223           345.947
                     196    12 Jun 2027 01:41:10.600    12 Jun 2027 01:45:11.528           240.928
                     197    12 Jun 2027 03:04:14.490    12 Jun 2027 03:06:54.336           159.845
                     198    12 Jun 2027 04:40:41.263    12 Jun 2027 04:44:14.121           212.858
                     199    12 Jun 2027 06:15:50.107    12 Jun 2027 06:21:35.320           345.213
                     200    12 Jun 2027 06:21:35.790    12 Jun 2027 06:22:38.895            63.105
                     201    12 Jun 2027 07:52:10.466    12 Jun 2027 07:58:32.635           382.169
                     202    12 Jun 2027 09:29:44.483    12 Jun 2027 09:34:06.364           261.881
                     203    12 Jun 2027 11:05:47.788    12 Jun 2027 11:09:58.506           250.717
                     204    12 Jun 2027 17:48:19.200    12 Jun 2027 17:50:59.774           160.574
                     205    12 Jun 2027 19:24:16.236    12 Jun 2027 19:30:18.714           362.477
                     206    12 Jun 2027 21:00:58.710    12 Jun 2027 21:07:18.996           380.286
                     207    12 Jun 2027 22:36:29.298    12 Jun 2027 22:43:41.216           431.919
                     208    13 Jun 2027 00:14:38.147    13 Jun 2027 00:15:40.243            62.096
                     209    13 Jun 2027 00:15:46.681    13 Jun 2027 00:20:50.264           303.583
                     210    13 Jun 2027 01:52:56.741    13 Jun 2027 01:53:29.151            32.410
                     211    13 Jun 2027 01:53:45.099    13 Jun 2027 01:56:44.765           179.666
                     212    13 Jun 2027 03:16:15.798    13 Jun 2027 03:19:28.510           192.712
                     213    13 Jun 2027 04:52:51.606    13 Jun 2027 04:56:18.661           207.055
                     214    13 Jun 2027 06:28:01.884    13 Jun 2027 06:34:37.443           395.559
                     215    13 Jun 2027 08:04:22.031    13 Jun 2027 08:10:05.641           343.611
                     216    13 Jun 2027 08:10:08.669    13 Jun 2027 08:10:25.352            16.683
                     217    13 Jun 2027 09:41:48.082    13 Jun 2027 09:46:20.802           272.720
                     218    13 Jun 2027 11:17:51.858    13 Jun 2027 11:22:02.369           250.512
                     219    13 Jun 2027 11:22:07.465    13 Jun 2027 11:22:43.583            36.119
                     220    13 Jun 2027 16:25:00.101    13 Jun 2027 16:25:02.958             2.856
                     221    13 Jun 2027 18:00:29.239    13 Jun 2027 18:03:36.516           187.277
                     222    13 Jun 2027 19:36:20.841    13 Jun 2027 19:41:59.015           338.174
                     223    13 Jun 2027 21:12:55.881    13 Jun 2027 21:19:09.423           373.542
                     224    13 Jun 2027 22:48:26.649    13 Jun 2027 22:55:21.167           414.518

Min Duration          79     5 Jun 2027 16:24:46.110     5 Jun 2027 16:24:47.754             1.645
Max Duration         147     9 Jun 2027 05:37:17.384     9 Jun 2027 05:45:20.972           483.587
Mean Duration                                                                              232.943
Total Duration                                                                           52179.153


Russia-To-KinoSat_110803
------------------------
                  Access        Start Time (UTCG)           Stop Time (UTCG)        Duration (sec)
                  ------    ------------------------    ------------------------    --------------
                       1     1 Jun 2027 00:54:14.313     1 Jun 2027 01:01:21.081           426.768
                       2     1 Jun 2027 02:18:31.196     1 Jun 2027 02:20:41.352           130.156
                       3     1 Jun 2027 02:30:44.156     1 Jun 2027 02:31:44.992            60.836
                       4     1 Jun 2027 03:52:59.609     1 Jun 2027 03:54:06.109            66.500
                       5     1 Jun 2027 03:54:54.983     1 Jun 2027 03:58:17.547           202.564
                       6     1 Jun 2027 05:27:53.293     1 Jun 2027 05:29:56.372           123.079
                       7     1 Jun 2027 05:30:02.854     1 Jun 2027 05:35:23.141           320.287
                       8     1 Jun 2027 05:35:54.995     1 Jun 2027 05:36:23.075            28.080
                       9     1 Jun 2027 07:05:27.075     1 Jun 2027 07:12:47.839           440.764
                      10     1 Jun 2027 08:42:09.638     1 Jun 2027 08:48:22.984           373.346
                      11     1 Jun 2027 08:48:27.172     1 Jun 2027 08:48:47.550            20.378
                      12     1 Jun 2027 10:20:12.738     1 Jun 2027 10:24:22.254           249.516
                      13     1 Jun 2027 11:53:50.200     1 Jun 2027 12:01:13.484           443.283
                      14     1 Jun 2027 17:01:57.156     1 Jun 2027 17:04:47.467           170.310
                      15     1 Jun 2027 18:38:29.010     1 Jun 2027 18:42:00.701           211.692
                      16     1 Jun 2027 18:43:11.829     1 Jun 2027 18:46:11.181           179.353
                      17     1 Jun 2027 20:15:07.333     1 Jun 2027 20:21:16.397           369.064
                      18     1 Jun 2027 21:50:36.112     1 Jun 2027 21:51:15.792            39.680
                      19     1 Jun 2027 21:51:17.295     1 Jun 2027 21:58:10.838           413.543
                      20     1 Jun 2027 23:27:29.015     1 Jun 2027 23:27:55.721            26.706
                      21     1 Jun 2027 23:28:00.897     1 Jun 2027 23:28:34.974            34.077
                      22     1 Jun 2027 23:28:38.901     1 Jun 2027 23:29:32.529            53.628
                      23     1 Jun 2027 23:29:34.663     1 Jun 2027 23:33:31.191           236.528
                      24     2 Jun 2027 01:06:16.633     2 Jun 2027 01:13:12.836           416.203
                      25     2 Jun 2027 02:30:36.752     2 Jun 2027 02:32:30.159           113.407
                      26     2 Jun 2027 02:42:52.591     2 Jun 2027 02:43:19.328            26.737
                      27     2 Jun 2027 04:04:28.695     2 Jun 2027 04:05:51.791            83.096
                      28     2 Jun 2027 04:06:29.071     2 Jun 2027 04:10:29.478           240.407
                      29     2 Jun 2027 05:39:24.005     2 Jun 2027 05:47:31.778           487.772
                      30     2 Jun 2027 05:47:52.012     2 Jun 2027 05:48:50.145            58.134
                      31     2 Jun 2027 07:17:20.998     2 Jun 2027 07:24:49.269           448.271
                      32     2 Jun 2027 08:54:15.390     2 Jun 2027 08:59:37.501           322.111
                      33     2 Jun 2027 08:59:56.490     2 Jun 2027 09:00:47.156            50.665
                      34     2 Jun 2027 10:31:59.046     2 Jun 2027 10:36:20.787           261.741
                      35     2 Jun 2027 12:06:13.333     2 Jun 2027 12:07:13.607            60.274
                      36     2 Jun 2027 12:07:58.579     2 Jun 2027 12:11:33.688           215.109
                      37     2 Jun 2027 17:14:04.407     2 Jun 2027 17:17:14.981           190.575
                      38     2 Jun 2027 17:17:29.064     2 Jun 2027 17:18:29.818            60.754
                      39     2 Jun 2027 18:50:25.620     2 Jun 2027 18:54:55.594           269.974
                      40     2 Jun 2027 18:55:13.508     2 Jun 2027 18:57:01.408           107.900
                      41     2 Jun 2027 20:26:59.588     2 Jun 2027 20:33:34.496           394.908
                      42     2 Jun 2027 22:02:32.183     2 Jun 2027 22:10:17.421           465.238
                      43     2 Jun 2027 23:40:11.586     2 Jun 2027 23:40:26.652            15.066
                      44     2 Jun 2027 23:40:35.514     2 Jun 2027 23:41:36.754            61.240
                      45     2 Jun 2027 23:41:55.954     2 Jun 2027 23:41:58.133             2.180
                      46     2 Jun 2027 23:42:22.282     2 Jun 2027 23:45:48.107           205.825
                      47     3 Jun 2027 01:18:42.303     3 Jun 2027 01:23:45.603           303.299
                      48     3 Jun 2027 02:42:32.489     3 Jun 2027 02:44:48.909           136.420
                      49     3 Jun 2027 04:18:32.540     3 Jun 2027 04:22:16.191           223.651
                      50     3 Jun 2027 05:52:17.428     3 Jun 2027 06:00:51.405           513.977
                      51     3 Jun 2027 07:29:41.881     3 Jun 2027 07:36:42.757           420.877
                      52     3 Jun 2027 09:06:45.663     3 Jun 2027 09:11:14.936           269.272
                      53     3 Jun 2027 09:11:22.452     3 Jun 2027 09:12:35.961            73.510
                      54     3 Jun 2027 10:43:30.468     3 Jun 2027 10:48:18.852           288.385
                      55     3 Jun 2027 12:18:46.716     3 Jun 2027 12:18:54.948             8.232
                      56     3 Jun 2027 12:20:27.790     3 Jun 2027 12:23:18.542           170.753
                      57     3 Jun 2027 17:26:25.392     3 Jun 2027 17:28:47.900           142.508
                      58     3 Jun 2027 17:29:10.125     3 Jun 2027 17:31:26.497           136.372
                      59     3 Jun 2027 19:02:19.859     3 Jun 2027 19:09:13.913           414.054
                      60     3 Jun 2027 20:39:03.426     3 Jun 2027 20:45:29.194           385.768
                      61     3 Jun 2027 22:14:31.694     3 Jun 2027 22:22:01.616           449.922
                      62     3 Jun 2027 23:52:55.380     3 Jun 2027 23:53:14.452            19.072
                      63     3 Jun 2027 23:53:27.928     3 Jun 2027 23:58:55.164           327.237
                      64     4 Jun 2027 01:31:02.854     4 Jun 2027 01:35:37.217           274.363
                      65     4 Jun 2027 02:54:24.018     4 Jun 2027 02:57:00.066           156.048
                      66     4 Jun 2027 04:30:46.831     4 Jun 2027 04:34:21.675           214.844
                      67     4 Jun 2027 06:04:50.834     4 Jun 2027 06:11:45.557           414.723
                      68     4 Jun 2027 06:11:47.618     4 Jun 2027 06:12:48.743            61.125
                      69     4 Jun 2027 07:41:55.404     4 Jun 2027 07:48:37.952           402.549
                      70     4 Jun 2027 09:18:51.220     4 Jun 2027 09:23:51.613           300.392
                      71     4 Jun 2027 10:55:37.726     4 Jun 2027 11:00:20.054           282.328
                      72     4 Jun 2027 12:33:50.100     4 Jun 2027 12:34:47.640            57.540
                      73     4 Jun 2027 17:38:27.872     4 Jun 2027 17:40:42.380           134.509
                      74     4 Jun 2027 19:14:24.119     4 Jun 2027 19:20:55.976           391.858
                      75     4 Jun 2027 20:51:06.126     4 Jun 2027 20:57:33.547           387.421
                      76     4 Jun 2027 22:26:39.854     4 Jun 2027 22:34:10.202           450.348
                      77     5 Jun 2027 00:04:59.379     5 Jun 2027 00:05:54.964            55.585
                      78     5 Jun 2027 00:06:00.711     5 Jun 2027 00:11:02.015           301.304
                      79     5 Jun 2027 01:43:28.574     5 Jun 2027 01:47:24.890           236.316
                      80     5 Jun 2027 03:06:28.315     5 Jun 2027 03:09:07.862           159.547
                      81     5 Jun 2027 04:42:57.288     5 Jun 2027 04:46:27.204           209.916
                      82     5 Jun 2027 06:18:02.423     5 Jun 2027 06:24:49.942           407.519
                      83     5 Jun 2027 07:54:24.504     5 Jun 2027 08:00:44.451           379.947
                      84     5 Jun 2027 09:31:54.467     5 Jun 2027 09:36:20.728           266.261
                      85     5 Jun 2027 11:07:59.213     5 Jun 2027 11:12:13.655           254.443
                      86     5 Jun 2027 17:50:32.353     5 Jun 2027 17:53:22.654           170.302
                      87     5 Jun 2027 19:26:27.882     5 Jun 2027 19:32:22.219           354.336
                      88     5 Jun 2027 21:03:10.410     5 Jun 2027 21:09:21.491           371.081
                      89     5 Jun 2027 22:38:41.032     5 Jun 2027 22:45:46.581           425.549
                      90     6 Jun 2027 00:16:49.118     6 Jun 2027 00:17:47.740            58.622
                      91     6 Jun 2027 00:17:56.579     6 Jun 2027 00:22:57.908           301.329
                      92     6 Jun 2027 01:55:05.968     6 Jun 2027 01:55:41.287            35.319
                      93     6 Jun 2027 01:55:54.405     6 Jun 2027 01:58:51.084           176.679
                      94     6 Jun 2027 03:18:24.061     6 Jun 2027 03:21:39.990           195.928
                      95     6 Jun 2027 04:55:01.737     6 Jun 2027 04:58:26.875           205.137
                      96     6 Jun 2027 06:30:12.194     6 Jun 2027 06:36:48.519           396.325
                      97     6 Jun 2027 08:06:26.183     6 Jun 2027 08:12:17.038           350.855
                      98     6 Jun 2027 08:12:25.788     6 Jun 2027 08:12:33.877             8.089
                      99     6 Jun 2027 09:44:00.104     6 Jun 2027 09:48:31.363           271.259
                     100     6 Jun 2027 11:20:01.410     6 Jun 2027 11:24:13.149           251.740
                     101     6 Jun 2027 11:24:17.212     6 Jun 2027 11:25:01.685            44.473
                     102     6 Jun 2027 16:27:01.397     6 Jun 2027 16:27:19.720            18.323
                     103     6 Jun 2027 18:02:40.412     6 Jun 2027 18:05:36.728           176.316
                     104     6 Jun 2027 19:38:32.196     6 Jun 2027 19:44:07.360           335.164
                     105     6 Jun 2027 21:15:07.658     6 Jun 2027 21:21:51.010           403.352
                     106     6 Jun 2027 22:50:38.248     6 Jun 2027 22:57:33.098           414.850
                     107     7 Jun 2027 00:29:55.318     7 Jun 2027 00:35:08.759           313.441
                     108     7 Jun 2027 00:36:14.015     7 Jun 2027 00:37:46.574            92.559
                     109     7 Jun 2027 01:56:11.267     7 Jun 2027 01:56:29.605            18.339
                     110     7 Jun 2027 02:07:02.056     7 Jun 2027 02:10:38.183           216.127
                     111     7 Jun 2027 03:30:59.599     7 Jun 2027 03:33:44.084           164.485
                     112     7 Jun 2027 05:06:45.655     7 Jun 2027 05:10:59.481           253.827
                     113     7 Jun 2027 06:41:36.353     7 Jun 2027 06:48:58.912           442.559
                     114     7 Jun 2027 08:18:12.295     7 Jun 2027 08:24:36.179           383.884
                     115     7 Jun 2027 09:56:30.053     7 Jun 2027 10:00:24.859           234.805
                     116     7 Jun 2027 11:29:50.391     7 Jun 2027 11:30:01.155            10.764
                     117     7 Jun 2027 11:31:49.858     7 Jun 2027 11:36:02.556           252.699
                     118     7 Jun 2027 11:36:21.959     7 Jun 2027 11:37:20.032            58.073
                     119     7 Jun 2027 16:38:18.353     7 Jun 2027 16:40:20.661           122.308
                     120     7 Jun 2027 18:14:27.343     7 Jun 2027 18:17:47.242           199.899
                     121     7 Jun 2027 19:51:02.478     7 Jun 2027 19:56:54.898           352.420
                     122     7 Jun 2027 21:27:13.365     7 Jun 2027 21:34:01.619           408.254
                     123     7 Jun 2027 23:03:18.586     7 Jun 2027 23:09:43.879           385.293
                     124     8 Jun 2027 00:41:59.815     8 Jun 2027 00:49:39.498           459.682
                     125     8 Jun 2027 02:07:27.858     8 Jun 2027 02:08:46.061            78.202
                     126     8 Jun 2027 02:18:59.461     8 Jun 2027 02:20:38.689            99.228
                     127     8 Jun 2027 03:41:38.664     8 Jun 2027 03:42:37.281            58.617
                     128     8 Jun 2027 03:43:14.092     8 Jun 2027 03:46:18.694           184.602
                     129     8 Jun 2027 05:16:56.166     8 Jun 2027 05:17:58.036            61.870
                     130     8 Jun 2027 05:18:29.915     8 Jun 2027 05:23:18.508           288.593
                     131     8 Jun 2027 06:53:29.620     8 Jun 2027 07:00:59.291           449.671
                     132     8 Jun 2027 08:30:33.424     8 Jun 2027 08:36:24.159           350.735
                     133     8 Jun 2027 08:36:27.110     8 Jun 2027 08:36:44.112            17.001
                     134     8 Jun 2027 10:08:27.700     8 Jun 2027 10:12:27.369           239.669
                     135     8 Jun 2027 11:41:40.304     8 Jun 2027 11:48:01.793           381.489
                     136     8 Jun 2027 11:48:20.234     8 Jun 2027 11:49:33.142            72.908
                     137     8 Jun 2027 16:50:11.731     8 Jun 2027 16:52:54.995           163.263
                     138     8 Jun 2027 18:26:31.634     8 Jun 2027 18:29:55.574           203.940
                     139     8 Jun 2027 18:32:26.647     8 Jun 2027 18:33:01.933            35.286
                     140     8 Jun 2027 20:03:08.842     8 Jun 2027 20:09:20.549           371.707
                     141     8 Jun 2027 21:39:16.487     8 Jun 2027 21:45:56.171           399.684
                     142     8 Jun 2027 23:15:24.034     8 Jun 2027 23:21:32.195           368.161
                     143     9 Jun 2027 00:54:29.095     9 Jun 2027 01:01:35.774           426.679
                     144     9 Jun 2027 02:18:45.581     9 Jun 2027 02:20:56.380           130.798
                     145     9 Jun 2027 02:30:58.852     9 Jun 2027 02:31:59.555            60.704
                     146     9 Jun 2027 03:53:14.368     9 Jun 2027 03:54:20.689            66.321
