DATA_Files/Russia2Constellation/AreaTarget-Russia-To-Satellite-KinoSat_06_plane.txt

                                                                                                                                                                                                                                                                                           10 May 2023 21:08:31
Civil Air Patrol Use Only
AreaTarget-Russia-To-Satellite-KinoSat_110601, Satellite-KinoSat_110602, Satellite-KinoSat_110603, Satellite-KinoSat_110604, Satellite-KinoSat_110605, Satellite-KinoSat_110606, Satellite-KinoSat_110607, Satellite-KinoSat_110608, Satellite-KinoSat_110609, Satellite-KinoSat_110610:  Access Summary Report


Russia-To-KinoSat_110601
------------------------
                  Access        Start Time (UTCG)           Stop Time (UTCG)        Duration (sec)
                  ------    ------------------------    ------------------------    --------------
                       1     1 Jun 2027 01:10:48.286     1 Jun 2027 01:12:22.387            94.101
                       2     1 Jun 2027 01:22:32.506     1 Jun 2027 01:23:45.485            72.979
                       3     1 Jun 2027 02:44:47.345     1 Jun 2027 02:45:53.857            66.512
                       4     1 Jun 2027 02:46:44.371     1 Jun 2027 02:49:58.605           194.233
                       5     1 Jun 2027 04:19:46.789     1 Jun 2027 04:21:39.745           112.956
                       6     1 Jun 2027 04:21:50.308     1 Jun 2027 04:27:04.884           314.576
                       7     1 Jun 2027 04:27:43.114     1 Jun 2027 04:28:06.330            23.216
                       8     1 Jun 2027 05:57:12.496     1 Jun 2027 06:04:31.462           438.966
                       9     1 Jun 2027 07:33:59.559     1 Jun 2027 07:40:29.910           390.351
                      10     1 Jun 2027 09:11:57.449     1 Jun 2027 09:16:07.361           249.912
                      11     1 Jun 2027 10:45:34.728     1 Jun 2027 10:52:58.571           443.843
                      12     1 Jun 2027 15:53:41.917     1 Jun 2027 15:56:22.838           160.922
                      13     1 Jun 2027 17:30:09.658     1 Jun 2027 17:33:31.840           202.182
                      14     1 Jun 2027 17:34:57.148     1 Jun 2027 17:37:30.839           153.692
                      15     1 Jun 2027 19:06:55.190     1 Jun 2027 19:12:51.241           356.050
                      16     1 Jun 2027 20:42:26.719     1 Jun 2027 20:42:36.516             9.797
                      17     1 Jun 2027 20:42:50.127     1 Jun 2027 20:49:43.856           413.728
                      18     1 Jun 2027 22:19:07.722     1 Jun 2027 22:19:40.850            33.128
                      19     1 Jun 2027 22:19:41.317     1 Jun 2027 22:25:10.369           329.052
                      20     1 Jun 2027 23:58:06.155     2 Jun 2027 00:05:03.731           417.576
                      21     2 Jun 2027 01:22:20.587     2 Jun 2027 01:24:27.873           127.286
                      22     2 Jun 2027 01:34:33.066     2 Jun 2027 01:35:04.875            31.809
                      23     2 Jun 2027 02:56:27.257     2 Jun 2027 02:57:40.381            73.125
                      24     2 Jun 2027 02:58:29.989     2 Jun 2027 03:02:11.329           221.340
                      25     2 Jun 2027 04:31:15.548     2 Jun 2027 04:39:15.478           479.930
                      26     2 Jun 2027 04:39:36.242     2 Jun 2027 04:40:34.224            57.982
                      27     2 Jun 2027 06:09:06.448     2 Jun 2027 06:16:31.290           444.842
                      28     2 Jun 2027 07:45:51.093     2 Jun 2027 07:51:42.939           351.846
                      29     2 Jun 2027 07:51:50.165     2 Jun 2027 07:52:34.820            44.655
                      30     2 Jun 2027 09:23:59.979     2 Jun 2027 09:28:05.389           245.409
                      31     2 Jun 2027 10:57:51.470     2 Jun 2027 11:04:06.645           375.175
                      32     2 Jun 2027 16:05:47.102     2 Jun 2027 16:08:41.012           173.910
                      33     2 Jun 2027 16:09:27.537     2 Jun 2027 16:09:43.199            15.662
                      34     2 Jun 2027 17:42:10.229     2 Jun 2027 17:46:20.601           250.372
                      35     2 Jun 2027 17:47:00.428     2 Jun 2027 17:50:14.256           193.828
                      36     2 Jun 2027 19:18:45.801     2 Jun 2027 19:25:16.826           391.025
                      37     2 Jun 2027 20:54:16.398     2 Jun 2027 21:02:01.947           465.549
                      38     2 Jun 2027 22:31:53.619     2 Jun 2027 22:32:17.866            24.247
                      39     2 Jun 2027 22:32:20.857     2 Jun 2027 22:33:35.559            74.701
                      40     2 Jun 2027 22:33:44.457     2 Jun 2027 22:37:28.409           223.951
                      41     3 Jun 2027 00:10:16.662     3 Jun 2027 00:15:29.846           313.184
                      42     3 Jun 2027 01:34:17.932     3 Jun 2027 01:36:34.269           136.338
                      43     3 Jun 2027 03:10:15.764     3 Jun 2027 03:14:10.886           235.122
                      44     3 Jun 2027 04:44:03.953     3 Jun 2027 04:51:23.546           439.593
                      45     3 Jun 2027 04:51:35.789     3 Jun 2027 04:52:35.811            60.022
                      46     3 Jun 2027 06:21:13.502     3 Jun 2027 06:28:32.380           438.877
                      47     3 Jun 2027 07:58:16.875     3 Jun 2027 08:03:01.167           284.292
                      48     3 Jun 2027 08:03:10.783     3 Jun 2027 08:04:21.662            70.879
                      49     3 Jun 2027 09:35:11.000     3 Jun 2027 09:40:05.819           294.819
                      50     3 Jun 2027 11:10:20.472     3 Jun 2027 11:10:40.818            20.347
                      51     3 Jun 2027 11:11:56.241     3 Jun 2027 11:15:07.101           190.860
                      52     3 Jun 2027 16:17:51.670     3 Jun 2027 16:20:20.672           149.001
                      53     3 Jun 2027 16:20:36.800     3 Jun 2027 16:23:15.557           158.757
                      54     3 Jun 2027 17:54:04.025     3 Jun 2027 18:01:00.948           416.923
                      55     3 Jun 2027 19:30:48.750     3 Jun 2027 19:37:18.274           389.524
                      56     3 Jun 2027 21:06:15.929     3 Jun 2027 21:13:54.669           458.740
                      57     3 Jun 2027 22:44:27.970     3 Jun 2027 22:45:15.955            47.985
                      58     3 Jun 2027 22:45:24.931     3 Jun 2027 22:46:07.721            42.790
                      59     3 Jun 2027 22:46:09.547     3 Jun 2027 22:50:00.614           231.067
                      60     4 Jun 2027 00:22:51.246     4 Jun 2027 00:27:30.713           279.467
                      61     4 Jun 2027 01:46:10.470     4 Jun 2027 01:48:41.359           150.889
                      62     4 Jun 2027 03:22:32.834     4 Jun 2027 03:26:00.925           208.091
                      63     4 Jun 2027 04:56:24.998     4 Jun 2027 05:03:32.742           427.744
                      64     4 Jun 2027 05:03:33.781     4 Jun 2027 05:04:34.369            60.588
                      65     4 Jun 2027 06:33:40.097     4 Jun 2027 06:40:19.991           399.894
                      66     4 Jun 2027 08:10:41.541     4 Jun 2027 08:14:58.202           256.661
                      67     4 Jun 2027 08:14:59.295     4 Jun 2027 08:16:05.226            65.931
                      68     4 Jun 2027 09:47:25.530     4 Jun 2027 09:51:55.530           270.000
                      69     4 Jun 2027 11:25:34.546     4 Jun 2027 11:26:43.509            68.963
                      70     4 Jun 2027 16:30:06.207     4 Jun 2027 16:32:26.904           140.697
                      71     4 Jun 2027 16:33:29.543     4 Jun 2027 16:34:27.593            58.050
                      72     4 Jun 2027 18:06:08.240     4 Jun 2027 18:12:41.302           393.061
                      73     4 Jun 2027 19:42:48.870     4 Jun 2027 19:49:11.286           382.416
                      74     4 Jun 2027 21:18:21.711     4 Jun 2027 21:25:54.400           452.689
                      75     4 Jun 2027 22:56:24.822     4 Jun 2027 22:56:31.127             6.305
                      76     4 Jun 2027 22:56:41.576     4 Jun 2027 23:02:39.878           358.302
                      77     5 Jun 2027 00:34:28.807     5 Jun 2027 00:39:06.135           277.327
                      78     5 Jun 2027 01:57:59.511     5 Jun 2027 02:00:46.334           166.824
                      79     5 Jun 2027 03:34:36.124     5 Jun 2027 03:38:09.754           213.630
                      80     5 Jun 2027 05:09:42.673     5 Jun 2027 05:15:29.305           346.632
                      81     5 Jun 2027 05:15:31.966     5 Jun 2027 05:16:32.378            60.412
                      82     5 Jun 2027 06:46:03.328     5 Jun 2027 06:52:26.942           383.615
                      83     5 Jun 2027 08:23:33.366     5 Jun 2027 08:27:57.785           264.419
                      84     5 Jun 2027 09:59:37.779     5 Jun 2027 10:03:55.069           257.290
                      85     5 Jun 2027 16:42:14.633     5 Jun 2027 16:44:45.874           151.241
                      86     5 Jun 2027 18:18:10.881     5 Jun 2027 18:24:20.465           369.584
                      87     5 Jun 2027 19:54:53.580     5 Jun 2027 20:01:18.071           384.492
                      88     5 Jun 2027 21:30:23.804     5 Jun 2027 21:37:40.174           436.370
                      89     5 Jun 2027 23:08:33.070     5 Jun 2027 23:09:32.880            59.810
                      90     5 Jun 2027 23:09:42.281     5 Jun 2027 23:14:48.226           305.946
                      91     6 Jun 2027 00:46:51.520     6 Jun 2027 00:47:22.463            30.943
                      92     6 Jun 2027 00:47:58.459     6 Jun 2027 00:50:43.214           164.755
                      93     6 Jun 2027 02:10:12.779     6 Jun 2027 02:13:22.579           189.800
                      94     6 Jun 2027 03:46:46.736     6 Jun 2027 03:50:15.696           208.960
                      95     6 Jun 2027 05:21:56.463     6 Jun 2027 05:28:32.387           395.925
                      96     6 Jun 2027 06:58:17.894     6 Jun 2027 07:04:27.946           370.052
                      97     6 Jun 2027 08:35:36.151     6 Jun 2027 08:40:14.303           278.152
                      98     6 Jun 2027 10:11:48.043     6 Jun 2027 10:16:36.311           288.268
                      99     6 Jun 2027 16:54:24.625     6 Jun 2027 16:57:30.380           185.755
                     100     6 Jun 2027 18:30:16.382     6 Jun 2027 18:35:54.146           337.764
                     101     6 Jun 2027 20:06:50.833     6 Jun 2027 20:13:05.778           374.946
                     102     6 Jun 2027 21:42:20.804     6 Jun 2027 21:49:18.855           418.051
                     103     6 Jun 2027 23:20:37.801     6 Jun 2027 23:20:48.417            10.616
                     104     6 Jun 2027 23:21:39.546     6 Jun 2027 23:26:47.583           308.037
                     105     6 Jun 2027 23:28:12.061     6 Jun 2027 23:29:36.351            84.291
                     106     7 Jun 2027 00:58:48.137     7 Jun 2027 00:59:27.136            38.999
                     107     7 Jun 2027 00:59:50.316     7 Jun 2027 01:02:21.162           150.846
                     108     7 Jun 2027 02:22:42.472     7 Jun 2027 02:25:26.699           164.227
                     109     7 Jun 2027 03:58:37.073     7 Jun 2027 04:02:42.668           245.596
                     110     7 Jun 2027 05:33:30.901     7 Jun 2027 05:40:41.360           430.459
                     111     7 Jun 2027 07:09:54.211     7 Jun 2027 07:16:19.715           385.504
                     112     7 Jun 2027 08:48:10.732     7 Jun 2027 08:52:02.184           231.452
                     113     7 Jun 2027 10:23:33.653     7 Jun 2027 10:27:39.952           246.299
                     114     7 Jun 2027 10:28:02.129     7 Jun 2027 10:29:00.314            58.185
                     115     7 Jun 2027 15:30:15.179     7 Jun 2027 15:31:57.535           102.356
                     116     7 Jun 2027 17:06:12.371     7 Jun 2027 17:09:31.515           199.144
                     117     7 Jun 2027 18:42:46.263     7 Jun 2027 18:47:58.149           311.885
                     118     7 Jun 2027 20:18:55.936     7 Jun 2027 20:25:42.967           407.032
                     119     7 Jun 2027 21:54:26.689     7 Jun 2027 22:01:34.397           427.708
                     120     7 Jun 2027 23:33:42.971     7 Jun 2027 23:39:15.142           332.171
                     121     7 Jun 2027 23:39:45.375     7 Jun 2027 23:41:20.085            94.710
                     122     8 Jun 2027 00:59:26.451     8 Jun 2027 01:00:28.528            62.078
                     123     8 Jun 2027 01:10:44.369     8 Jun 2027 01:12:25.230           100.861
                     124     8 Jun 2027 01:12:52.886     8 Jun 2027 01:13:52.413            59.527
                     125     8 Jun 2027 02:33:19.858     8 Jun 2027 02:38:00.521           280.662
                     126     8 Jun 2027 04:08:54.609     8 Jun 2027 04:09:40.633            46.024
                     127     8 Jun 2027 04:10:21.004     8 Jun 2027 04:14:56.535           275.532
                     128     8 Jun 2027 05:45:07.369     8 Jun 2027 05:52:42.074           454.705
                     129     8 Jun 2027 07:22:13.744     8 Jun 2027 07:28:35.772           382.028
                     130     8 Jun 2027 09:00:11.658     8 Jun 2027 09:04:09.082           237.424
                     131     8 Jun 2027 10:33:19.071     8 Jun 2027 10:39:36.149           377.078
                     132     8 Jun 2027 10:40:18.035     8 Jun 2027 10:41:17.696            59.661
                     133     8 Jun 2027 15:41:55.617     8 Jun 2027 15:44:29.951           154.334
                     134     8 Jun 2027 17:18:13.681     8 Jun 2027 17:21:41.493           207.812
                     135     8 Jun 2027 18:54:55.287     8 Jun 2027 19:01:07.982           372.694
                     136     8 Jun 2027 20:31:02.251     8 Jun 2027 20:37:40.755           398.504
                     137     8 Jun 2027 22:07:05.040     8 Jun 2027 22:13:20.221           375.181
                     138     8 Jun 2027 23:46:12.505     8 Jun 2027 23:53:19.114           426.608
                     139     9 Jun 2027 01:11:02.861     9 Jun 2027 01:12:37.044            94.183
                     140     9 Jun 2027 01:22:47.254     9 Jun 2027 01:23:59.865            72.611
                     141     9 Jun 2027 02:45:01.989     9 Jun 2027 02:46:08.372            66.383
                     142     9 Jun 2027 02:46:58.920     9 Jun 2027 02:50:13.400           194.480
                     143     9 Jun 2027 04:20:01.257     9 Jun 2027 04:21:54.305           113.048
                     144     9 Jun 2027 04:22:04.682     9 Jun 2027 04:27:19.760           315.077
                     145     9 Jun 2027 04:27:57.633     9 Jun 2027 04:28:21.083            23.449
                     146     9 Jun 2027 05:57:27.215     9 Jun 2027 06:04:46.148           438.934
                     147     9 Jun 2027 07:34:14.065     9 Jun 2027 07:40:44.743           390.679
                     148     9 Jun 2027 09:12:12.119     9 Jun 2027 09:16:22.013           249.894
                     149     9 Jun 2027 10:45:49.616     9 Jun 2027 10:53:12.982           443.366
                     150     9 Jun 2027 15:53:56.556     9 Jun 2027 15:56:37.756           161.199
                     151     9 Jun 2027 17:30:24.592     9 Jun 2027 17:33:46.695           202.103
                     152     9 Jun 2027 17:35:11.688     9 Jun 2027 17:37:46.569           154.881
                     153     9 Jun 2027 19:07:09.762     9 Jun 2027 19:13:05.824           356.062
                     154     9 Jun 2027 20:42:40.859     9 Jun 2027 20:42:51.406            10.547
                     155     9 Jun 2027 20:43:04.957     9 Jun 2027 20:49:58.924           413.967
                     156     9 Jun 2027 22:19:22.476     9 Jun 2027 22:19:55.482            33.006
                     157     9 Jun 2027 22:19:56.119     9 Jun 2027 22:25:25.128           329.009
                     158     9 Jun 2027 23:58:12.403    10 Jun 2027 00:05:18.121           425.718
                     159    10 Jun 2027 01:22:35.341    10 Jun 2027 01:24:42.034           126.693
                     160    10 Jun 2027 01:34:47.736    10 Jun 2027 01:35:19.523            31.787
                     161    10 Jun 2027 02:56:41.710    10 Jun 2027 02:57:54.921            73.211
                     162    10 Jun 2027 02:58:44.397    10 Jun 2027 03:02:26.144           221.747
                     163    10 Jun 2027 04:31:29.798    10 Jun 2027 04:39:30.231           480.433
                     164    10 Jun 2027 04:39:50.878    10 Jun 2027 04:40:48.934            58.056
                     165    10 Jun 2027 06:09:21.223    10 Jun 2027 06:16:45.792           444.568
                     166    10 Jun 2027 07:46:05.689    10 Jun 2027 07:51:57.344           351.655
                     167    10 Jun 2027 07:52:04.808    10 Jun 2027 07:52:49.416            44.608
                     168    10 Jun 2027 09:24:14.903    10 Jun 2027 09:28:20.066           245.163
                     169    10 Jun 2027 10:58:06.582    10 Jun 2027 11:04:21.092           374.511
                     170    10 Jun 2027 16:06:01.697    10 Jun 2027 16:08:55.113           173.416
                     171    10 Jun 2027 16:09:41.505    10 Jun 2027 16:09:58.101            16.596
                     172    10 Jun 2027 17:42:24.902    10 Jun 2027 17:46:36.174           251.272
                     173    10 Jun 2027 17:47:15.221    10 Jun 2027 17:50:28.984           193.763
                     174    10 Jun 2027 19:19:00.340    10 Jun 2027 19:25:31.731           391.391
                     175    10 Jun 2027 20:54:31.008    10 Jun 2027 21:02:16.204           465.197
                     176    10 Jun 2027 22:32:08.355    10 Jun 2027 22:32:32.429            24.075
                     177    10 Jun 2027 22:32:35.511    10 Jun 2027 22:33:49.901            74.391
                     178    10 Jun 2027 22:33:59.686    10 Jun 2027 22:37:43.162           223.475
                     179    11 Jun 2027 00:10:31.369    11 Jun 2027 00:15:44.366           312.997
                     180    11 Jun 2027 01:34:32.351    11 Jun 2027 01:36:48.811           136.460
                     181    11 Jun 2027 03:10:30.654    11 Jun 2027 03:14:25.453           234.799
                     182    11 Jun 2027 04:44:18.646    11 Jun 2027 04:51:44.159           445.513
                     183    11 Jun 2027 04:51:50.471    11 Jun 2027 04:52:50.414            59.943
                     184    11 Jun 2027 06:21:28.198    11 Jun 2027 06:28:47.001           438.803
                     185    11 Jun 2027 07:58:32.060    11 Jun 2027 08:03:15.514           283.454
                     186    11 Jun 2027 08:03:25.187    11 Jun 2027 08:04:36.203            71.016
                     187    11 Jun 2027 09:35:25.408    11 Jun 2027 09:40:20.458           295.049
                     188    11 Jun 2027 11:10:35.935    11 Jun 2027 11:10:55.203            19.269
                     189    11 Jun 2027 11:12:10.652    11 Jun 2027 11:15:21.542           190.890
                     190    11 Jun 2027 16:18:06.393    11 Jun 2027 16:20:35.324           148.931
                     191    11 Jun 2027 16:20:51.772    11 Jun 2027 16:23:30.841           159.068
                     192    11 Jun 2027 17:54:18.655    11 Jun 2027 18:01:15.440           416.785
                     193    11 Jun 2027 19:31:03.437    11 Jun 2027 19:37:32.773           389.335
                     194    11 Jun 2027 21:06:30.544    11 Jun 2027 21:14:08.895           458.351
                     195    11 Jun 2027 22:44:42.877    11 Jun 2027 22:45:30.449            47.572
                     196    11 Jun 2027 22:45:39.311    11 Jun 2027 22:46:22.307            42.996
                     197    11 Jun 2027 22:46:24.136    11 Jun 2027 22:50:15.721           231.585
                     198    12 Jun 2027 00:23:06.008    12 Jun 2027 00:27:45.706           279.698
                     199    12 Jun 2027 01:46:25.033    12 Jun 2027 01:48:57.531           152.498
                     200    12 Jun 2027 03:22:47.461    12 Jun 2027 03:26:15.431           207.970
                     201    12 Jun 2027 04:56:40.012    12 Jun 2027 05:03:47.310           427.298
                     202    12 Jun 2027 05:03:48.385    12 Jun 2027 05:04:49.027            60.642
                     203    12 Jun 2027 06:33:54.544    12 Jun 2027 06:40:34.642           400.098
                     204    12 Jun 2027 08:10:56.655    12 Jun 2027 08:15:12.962           256.306
                     205    12 Jun 2027 08:15:13.814    12 Jun 2027 08:16:19.620            65.806
                     206    12 Jun 2027 09:47:40.300    12 Jun 2027 09:52:10.334           270.034
                     207    12 Jun 2027 11:25:49.460    12 Jun 2027 11:26:58.043            68.583
                     208    12 Jun 2027 16:30:21.607    12 Jun 2027 16:32:41.954           140.347
                     209    12 Jun 2027 16:33:44.673    12 Jun 2027 16:34:41.536            56.863
                     210    12 Jun 2027 18:06:23.073    12 Jun 2027 18:12:56.107           393.034
                     211    12 Jun 2027 19:43:03.613    12 Jun 2027 19:49:25.924           382.311
                     212    12 Jun 2027 21:18:36.487    12 Jun 2027 21:26:08.628           452.141
                     213    12 Jun 2027 22:56:39.433    12 Jun 2027 22:56:45.585             6.153
                     214    12 Jun 2027 22:56:56.466    12 Jun 2027 23:02:54.114           357.648
                     215    13 Jun 2027 00:34:43.538    13 Jun 2027 00:39:20.909           277.371
                     216    13 Jun 2027 01:58:14.432    13 Jun 2027 02:01:00.891           166.459
                     217    13 Jun 2027 03:34:50.678    13 Jun 2027 03:38:24.343           213.666
                     218    13 Jun 2027 05:09:57.713    13 Jun 2027 05:15:44.044           346.331
                     219    13 Jun 2027 05:15:46.536    13 Jun 2027 05:16:47.234            60.698
                     220    13 Jun 2027 06:46:18.200    13 Jun 2027 06:52:41.666           383.465
                     221    13 Jun 2027 08:23:48.547    13 Jun 2027 08:28:12.819           264.273
                     222    13 Jun 2027 09:59:53.415    13 Jun 2027 10:04:09.394           255.979
                     223    13 Jun 2027 16:42:29.128    13 Jun 2027 16:45:01.283           152.155
                     224    13 Jun 2027 18:18:25.534    13 Jun 2027 18:24:34.719           369.185
                     225    13 Jun 2027 19:55:08.246    13 Jun 2027 20:01:32.758           384.511
                     226    13 Jun 2027 21:30:38.467    13 Jun 2027 21:37:54.427           435.960
                     227    13 Jun 2027 23:08:47.752    13 Jun 2027 23:09:48.942            61.191
                     228    13 Jun 2027 23:09:56.919    13 Jun 2027 23:15:02.677           305.757

Min Duration         213    12 Jun 2027 22:56:39.433    12 Jun 2027 22:56:45.585             6.153
Max Duration         163    10 Jun 2027 04:31:29.798    10 Jun 2027 04:39:30.231           480.433
Mean Duration                                                                              233.844
Total Duration                                                                           53316.329


Russia-To-KinoSat_110602
------------------------
                  Access        Start Time (UTCG)           Stop Time (UTCG)        Duration (sec)
                  ------    ------------------------    ------------------------    --------------
                       1     1 Jun 2027 01:01:28.510     1 Jun 2027 01:02:41.066            72.556
                       2     1 Jun 2027 01:12:54.512     1 Jun 2027 01:14:35.169           100.657
                       3     1 Jun 2027 02:35:31.769     1 Jun 2027 02:36:32.889            61.119
                       4     1 Jun 2027 02:36:46.941     1 Jun 2027 02:40:13.037           206.097
                       5     1 Jun 2027 04:10:56.361     1 Jun 2027 04:11:51.458            55.097
                       6     1 Jun 2027 04:12:26.956     1 Jun 2027 04:17:11.045           284.089
                       7     1 Jun 2027 05:47:21.691     1 Jun 2027 05:54:53.523           451.832
                       8     1 Jun 2027 07:24:27.800     1 Jun 2027 07:30:44.787           376.987
                       9     1 Jun 2027 09:02:23.002     1 Jun 2027 09:06:21.629           238.627
                      10     1 Jun 2027 10:35:28.805     1 Jun 2027 10:41:52.679           383.874
                      11     1 Jun 2027 10:42:30.694     1 Jun 2027 10:43:29.300            58.606
                      12     1 Jun 2027 15:44:06.226     1 Jun 2027 15:46:51.764           165.538
                      13     1 Jun 2027 17:20:25.819     1 Jun 2027 17:23:49.451           203.632
                      14     1 Jun 2027 18:57:05.027     1 Jun 2027 19:03:17.234           372.207
                      15     1 Jun 2027 20:33:11.871     1 Jun 2027 20:39:51.351           399.480
                      16     1 Jun 2027 22:09:17.239     1 Jun 2027 22:15:23.910           366.671
                      17     1 Jun 2027 23:48:23.212     1 Jun 2027 23:55:31.784           428.572
                      18     2 Jun 2027 01:13:06.773     2 Jun 2027 01:14:50.084           103.311
                      19     2 Jun 2027 01:24:57.544     2 Jun 2027 01:25:56.741            59.197
                      20     2 Jun 2027 02:47:11.157     2 Jun 2027 02:48:17.358            66.201
                      21     2 Jun 2027 02:49:05.273     2 Jun 2027 02:52:26.828           201.555
                      22     2 Jun 2027 04:22:05.932     2 Jun 2027 04:24:06.290           120.358
                      23     2 Jun 2027 04:24:13.167     2 Jun 2027 04:29:23.640           310.473
                      24     2 Jun 2027 04:30:05.952     2 Jun 2027 04:30:32.673            26.721
                      25     2 Jun 2027 05:59:37.426     2 Jun 2027 06:06:56.940           439.514
                      26     2 Jun 2027 07:36:23.218     2 Jun 2027 07:41:35.509           312.291
                      27     2 Jun 2027 07:41:35.937     2 Jun 2027 07:42:34.500            58.564
                      28     2 Jun 2027 07:42:38.460     2 Jun 2027 07:42:57.036            18.576
                      29     2 Jun 2027 09:14:22.734     2 Jun 2027 09:18:32.439           249.705
                      30     2 Jun 2027 10:47:59.391     2 Jun 2027 10:55:23.750           444.359
                      31     2 Jun 2027 15:56:06.469     2 Jun 2027 15:58:52.893           166.423
                      32     2 Jun 2027 17:32:37.615     2 Jun 2027 17:36:02.312           204.697
                      33     2 Jun 2027 17:37:19.905     2 Jun 2027 17:40:11.658           171.753
                      34     2 Jun 2027 19:09:18.982     2 Jun 2027 19:15:21.655           362.673
                      35     2 Jun 2027 20:44:48.922     2 Jun 2027 20:45:08.450            19.528
                      36     2 Jun 2027 20:45:17.666     2 Jun 2027 20:52:18.447           420.781
                      37     2 Jun 2027 22:21:36.314     2 Jun 2027 22:22:04.866            28.552
                      38     2 Jun 2027 22:22:09.026     2 Jun 2027 22:22:45.280            36.254
                      39     2 Jun 2027 22:22:48.423     2 Jun 2027 22:27:39.067           290.644
                      40     3 Jun 2027 00:00:25.033     3 Jun 2027 00:07:24.703           419.670
                      41     3 Jun 2027 01:24:46.978     3 Jun 2027 01:26:51.772           124.795
                      42     3 Jun 2027 01:36:59.440     3 Jun 2027 01:37:30.423            30.982
                      43     3 Jun 2027 02:58:42.900     3 Jun 2027 03:00:02.969            80.068
                      44     3 Jun 2027 03:00:51.207     3 Jun 2027 03:04:39.121           227.914
                      45     3 Jun 2027 04:33:36.579     3 Jun 2027 04:41:41.748           485.169
                      46     3 Jun 2027 04:42:01.955     3 Jun 2027 04:43:00.114            58.159
                      47     3 Jun 2027 06:11:32.215     3 Jun 2027 06:18:58.447           446.232
                      48     3 Jun 2027 07:48:19.635     3 Jun 2027 07:53:59.245           339.610
                      49     3 Jun 2027 07:54:08.277     3 Jun 2027 07:54:58.612            50.335
                      50     3 Jun 2027 09:26:10.050     3 Jun 2027 09:30:31.399           261.349
                      51     3 Jun 2027 11:02:08.619     3 Jun 2027 11:06:26.619           258.000
                      52     3 Jun 2027 16:08:13.811     3 Jun 2027 16:11:08.773           174.962
                      53     3 Jun 2027 16:11:38.879     3 Jun 2027 16:12:37.278            58.398
                      54     3 Jun 2027 17:44:36.250     3 Jun 2027 17:49:00.604           264.354
                      55     3 Jun 2027 17:49:22.811     3 Jun 2027 17:51:09.178           106.367
                      56     3 Jun 2027 19:21:10.435     3 Jun 2027 19:27:43.771           393.336
                      57     3 Jun 2027 20:56:42.421     3 Jun 2027 21:04:27.336           464.915
                      58     3 Jun 2027 22:34:20.469     3 Jun 2027 22:34:40.843            20.373
                      59     3 Jun 2027 22:34:45.924     3 Jun 2027 22:35:58.239            72.315
                      60     3 Jun 2027 22:36:25.428     3 Jun 2027 22:39:56.911           211.483
                      61     4 Jun 2027 00:12:48.740     4 Jun 2027 00:17:57.515           308.776
                      62     4 Jun 2027 01:36:42.707     4 Jun 2027 01:38:58.506           135.798
                      63     4 Jun 2027 03:12:42.173     4 Jun 2027 03:16:34.607           232.434
                      64     4 Jun 2027 04:46:29.931     4 Jun 2027 04:55:01.454           511.523
                      65     4 Jun 2027 06:23:43.862     4 Jun 2027 06:30:56.803           432.941
                      66     4 Jun 2027 08:00:56.348     4 Jun 2027 08:05:24.920           268.572
                      67     4 Jun 2027 08:05:34.643     4 Jun 2027 08:06:46.213            71.570
                      68     4 Jun 2027 09:37:39.073     4 Jun 2027 09:42:28.470           289.397
                      69     4 Jun 2027 11:12:50.844     4 Jun 2027 11:13:03.859            13.015
                      70     4 Jun 2027 11:14:36.467     4 Jun 2027 11:17:29.879           173.412
                      71     4 Jun 2027 16:20:18.075     4 Jun 2027 16:22:52.036           153.961
                      72     4 Jun 2027 16:23:16.651     4 Jun 2027 16:25:40.371           143.721
                      73     4 Jun 2027 17:56:29.476     4 Jun 2027 18:03:27.757           418.281
                      74     4 Jun 2027 19:33:14.043     4 Jun 2027 19:39:38.551           384.508
                      75     4 Jun 2027 21:08:41.676     4 Jun 2027 21:16:12.246           450.570
                      76     4 Jun 2027 22:46:58.656     4 Jun 2027 22:47:34.094            35.437
                      77     4 Jun 2027 22:47:42.622     4 Jun 2027 22:48:33.402            50.780
                      78     4 Jun 2027 22:48:35.098     4 Jun 2027 22:53:06.870           271.772
                      79     5 Jun 2027 00:25:13.426     5 Jun 2027 00:29:53.110           279.684
                      80     5 Jun 2027 01:48:34.355     5 Jun 2027 01:51:09.424           155.069
                      81     5 Jun 2027 03:24:56.030     5 Jun 2027 03:28:29.549           213.520
                      82     5 Jun 2027 04:59:01.132     5 Jun 2027 05:05:55.392           414.261
                      83     5 Jun 2027 05:05:58.119     5 Jun 2027 05:06:59.169            61.050
                      84     5 Jun 2027 06:36:05.349     5 Jun 2027 06:42:47.709           402.360
                      85     5 Jun 2027 08:13:03.020     5 Jun 2027 08:18:00.993           297.973
                      86     5 Jun 2027 09:49:48.982     5 Jun 2027 09:54:27.924           278.941
                      87     5 Jun 2027 11:28:00.523     5 Jun 2027 11:29:00.677            60.154
                      88     5 Jun 2027 16:32:36.688     5 Jun 2027 16:34:50.885           134.197
                      89     5 Jun 2027 16:36:11.629     5 Jun 2027 16:36:40.136            28.507
                      90     5 Jun 2027 18:08:34.109     5 Jun 2027 18:15:04.372           390.263
                      91     5 Jun 2027 19:45:15.596     5 Jun 2027 19:51:40.415           384.819
                      92     5 Jun 2027 21:20:49.272     5 Jun 2027 21:28:14.491           445.219
                      93     5 Jun 2027 22:58:50.852     5 Jun 2027 22:58:54.558             3.706
                      94     5 Jun 2027 22:59:19.406     5 Jun 2027 23:00:04.621            45.215
                      95     5 Jun 2027 23:00:10.951     5 Jun 2027 23:05:06.842           295.891
                      96     6 Jun 2027 00:37:31.398     6 Jun 2027 00:41:34.554           243.156
                      97     6 Jun 2027 02:00:37.466     6 Jun 2027 02:03:16.377           158.912
                      98     6 Jun 2027 03:37:02.796     6 Jun 2027 03:40:35.420           212.624
                      99     6 Jun 2027 05:12:10.497     6 Jun 2027 05:18:59.856           409.359
                     100     6 Jun 2027 06:48:31.496     6 Jun 2027 06:54:53.784           382.288
                     101     6 Jun 2027 08:26:04.644     6 Jun 2027 08:30:28.826           264.183
                     102     6 Jun 2027 10:02:08.447     6 Jun 2027 10:06:22.599           254.152
                     103     6 Jun 2027 16:44:40.782     6 Jun 2027 16:47:22.887           162.105
                     104     6 Jun 2027 18:20:37.161     6 Jun 2027 18:26:35.673           358.512
                     105     6 Jun 2027 19:57:19.738     6 Jun 2027 20:03:34.864           375.125
                     106     6 Jun 2027 21:32:50.610     6 Jun 2027 21:39:59.556           428.945
                     107     6 Jun 2027 23:10:58.847     6 Jun 2027 23:12:00.320            61.473
                     108     6 Jun 2027 23:12:07.108     6 Jun 2027 23:17:10.841           303.733
                     109     7 Jun 2027 00:49:16.256     7 Jun 2027 00:49:50.560            34.303
                     110     7 Jun 2027 00:50:04.787     7 Jun 2027 00:53:04.315           179.528
                     111     7 Jun 2027 02:12:34.916     7 Jun 2027 02:15:49.599           194.683
                     112     7 Jun 2027 03:49:12.081     7 Jun 2027 03:52:38.316           206.234
                     113     7 Jun 2027 05:24:22.074     7 Jun 2027 05:30:58.346           396.271
                     114     7 Jun 2027 07:00:39.339     7 Jun 2027 07:06:26.381           347.042
                     115     7 Jun 2027 07:06:34.758     7 Jun 2027 07:06:44.671             9.913
                     116     7 Jun 2027 08:38:11.049     7 Jun 2027 08:42:41.679           270.630
                     117     7 Jun 2027 10:14:11.843     7 Jun 2027 10:18:23.129           251.286
                     118     7 Jun 2027 10:18:27.396     7 Jun 2027 10:19:08.984            41.588
                     119     7 Jun 2027 15:21:16.994     7 Jun 2027 15:21:27.371            10.377
                     120     7 Jun 2027 16:56:49.984     7 Jun 2027 16:59:48.352           178.368
                     121     7 Jun 2027 18:32:41.514     7 Jun 2027 18:38:18.191           336.676
                     122     7 Jun 2027 20:09:16.741     7 Jun 2027 20:15:29.915           373.175
                     123     7 Jun 2027 21:44:47.882     7 Jun 2027 21:51:40.201           412.319
                     124     7 Jun 2027 23:24:05.105     7 Jun 2027 23:29:12.974           307.869
                     125     7 Jun 2027 23:30:27.728     7 Jun 2027 23:31:58.944            91.217
                     126     8 Jun 2027 00:50:24.761     8 Jun 2027 00:50:36.485            11.723
                     127     8 Jun 2027 01:01:13.041     8 Jun 2027 01:01:53.141            40.100
                     128     8 Jun 2027 01:02:10.858     8 Jun 2027 01:04:48.331           157.473
                     129     8 Jun 2027 02:25:10.936     8 Jun 2027 02:27:53.191           162.254
                     130     8 Jun 2027 04:00:55.893     8 Jun 2027 04:05:08.769           252.876
                     131     8 Jun 2027 05:35:49.925     8 Jun 2027 05:43:08.184           438.259
                     132     8 Jun 2027 07:12:22.698     8 Jun 2027 07:18:45.901           383.203
                     133     8 Jun 2027 08:50:39.938     8 Jun 2027 08:54:23.661           223.723
                     134     8 Jun 2027 10:26:01.101     8 Jun 2027 10:30:10.003           248.902
                     135     8 Jun 2027 10:30:29.947     8 Jun 2027 10:31:28.963            59.016
                     136     8 Jun 2027 15:32:32.655     8 Jun 2027 15:34:27.192           114.537
                     137     8 Jun 2027 17:08:37.158     8 Jun 2027 17:11:58.915           201.757
                     138     8 Jun 2027 18:45:12.010     8 Jun 2027 18:50:51.032           339.022
                     139     8 Jun 2027 20:21:22.404     8 Jun 2027 20:28:11.492           409.088
                     140     8 Jun 2027 21:57:26.262     8 Jun 2027 22:03:52.313           386.052
                     141     8 Jun 2027 23:36:08.805     8 Jun 2027 23:41:48.439           339.634
                     142     8 Jun 2027 23:41:49.617     8 Jun 2027 23:43:46.363           116.746
                     143     9 Jun 2027 01:01:42.482     9 Jun 2027 01:02:55.766            73.284
                     144     9 Jun 2027 01:13:09.160     9 Jun 2027 01:14:49.702           100.542
                     145     9 Jun 2027 02:35:46.975     9 Jun 2027 02:36:47.539            60.564
                     146     9 Jun 2027 02:37:01.821     9 Jun 2027 02:40:27.786           205.964
                     147     9 Jun 2027 04:11:10.343     9 Jun 2027 04:12:06.106            55.763
                     148     9 Jun 2027 04:12:41.357     9 Jun 2027 04:17:25.972           284.615
                     149     9 Jun 2027 05:47:36.608     9 Jun 2027 05:55:08.422           451.814
                     150     9 Jun 2027 07:24:43.022     9 Jun 2027 07:30:32.750           349.728
                     151     9 Jun 2027 07:30:34.111     9 Jun 2027 07:30:56.774            22.663
                     152     9 Jun 2027 09:02:37.720     9 Jun 2027 09:06:36.532           238.813
                     153     9 Jun 2027 10:35:43.754     9 Jun 2027 10:42:08.044           384.290
                     154     9 Jun 2027 10:42:45.648     9 Jun 2027 10:43:43.668            58.020
                     155     9 Jun 2027 15:44:20.883     9 Jun 2027 15:47:06.264           165.381
                     156     9 Jun 2027 17:20:40.579     9 Jun 2027 17:24:04.282           203.703
                     157     9 Jun 2027 18:57:19.563     9 Jun 2027 19:03:31.700           372.138
                     158     9 Jun 2027 20:33:26.468     9 Jun 2027 20:40:06.365           399.897
                     159     9 Jun 2027 22:09:31.979     9 Jun 2027 22:15:38.797           366.817
                     160     9 Jun 2027 23:48:37.977     9 Jun 2027 23:55:46.467           428.490
                     161    10 Jun 2027 01:13:02.902    10 Jun 2027 01:15:04.895           121.993
                     162    10 Jun 2027 01:25:12.261    10 Jun 2027 01:26:11.234            58.973
                     163    10 Jun 2027 02:47:25.470    10 Jun 2027 02:48:31.845            66.376
                     164    10 Jun 2027 02:49:20.043    10 Jun 2027 02:52:41.608           201.566
                     165    10 Jun 2027 04:22:19.767    10 Jun 2027 04:24:20.980           121.214
                     166    10 Jun 2027 04:24:27.668    10 Jun 2027 04:29:38.622           310.955
                     167    10 Jun 2027 04:30:20.354    10 Jun 2027 04:30:47.330            26.976
                     168    10 Jun 2027 05:59:51.911    10 Jun 2027 06:07:11.617           439.707
                     169    10 Jun 2027 07:36:37.970    10 Jun 2027 07:41:48.570           310.600
                     170    10 Jun 2027 07:41:50.911    10 Jun 2027 07:42:48.313            57.402
                     171    10 Jun 2027 07:42:52.838    10 Jun 2027 07:43:11.790            18.953
                     172    10 Jun 2027 09:14:37.735    10 Jun 2027 09:18:47.031           249.296
                     173    10 Jun 2027 10:48:14.042    10 Jun 2027 10:55:38.354           444.312
                     174    10 Jun 2027 15:56:21.182    10 Jun 2027 15:59:07.721           166.539
                     175    10 Jun 2027 17:32:52.407    10 Jun 2027 17:36:17.519           205.112
                     176    10 Jun 2027 17:37:34.481    10 Jun 2027 17:40:26.913           172.432
                     177    10 Jun 2027 19:09:33.590    10 Jun 2027 19:15:36.662           363.072
                     178    10 Jun 2027 20:45:03.397    10 Jun 2027 20:45:23.723            20.327
                     179    10 Jun 2027 20:45:32.357    10 Jun 2027 20:52:33.604           421.248
                     180    10 Jun 2027 22:21:51.114    10 Jun 2027 22:22:19.589            28.475
                     181    10 Jun 2027 22:22:23.874    10 Jun 2027 22:22:59.884            36.010
                     182    10 Jun 2027 22:23:03.154    10 Jun 2027 22:27:53.819           290.665
                     183    11 Jun 2027 00:00:39.828    11 Jun 2027 00:07:39.067           419.239
                     184    11 Jun 2027 01:25:01.609    11 Jun 2027 01:27:06.227           124.617
                     185    11 Jun 2027 01:37:14.283    11 Jun 2027 01:37:45.068            30.786
                     186    11 Jun 2027 02:58:57.015    11 Jun 2027 03:00:17.528            80.513
                     187    11 Jun 2027 03:01:05.828    11 Jun 2027 03:04:53.862           228.035
                     188    11 Jun 2027 04:33:50.811    11 Jun 2027 04:41:56.400           485.589
                     189    11 Jun 2027 04:42:16.637    11 Jun 2027 04:43:14.766            58.130
                     190    11 Jun 2027 06:11:46.796    11 Jun 2027 06:19:13.236           446.440
                     191    11 Jun 2027 07:48:34.562    11 Jun 2027 07:54:13.670           339.108
                     192    11 Jun 2027 07:54:22.545    11 Jun 2027 07:55:13.025            50.480
                     193    11 Jun 2027 09:26:24.838    11 Jun 2027 09:30:45.887           261.049
                     194    11 Jun 2027 11:02:23.558    11 Jun 2027 11:06:40.844           257.287
                     195    11 Jun 2027 16:08:28.676    11 Jun 2027 16:11:23.325           174.650
                     196    11 Jun 2027 16:11:53.447    11 Jun 2027 16:12:52.083            58.636
                     197    11 Jun 2027 17:44:50.985    11 Jun 2027 17:49:15.896           264.911
                     198    11 Jun 2027 17:49:37.155    11 Jun 2027 17:51:23.974           106.819
                     199    11 Jun 2027 19:21:24.983    11 Jun 2027 19:27:58.686           393.703
                     200    11 Jun 2027 20:56:57.192    11 Jun 2027 21:04:42.231           465.039
                     201    11 Jun 2027 22:34:35.214    11 Jun 2027 22:34:55.328            20.114
                     202    11 Jun 2027 22:35:00.514    11 Jun 2027 22:36:00.217            59.704
                     203    11 Jun 2027 22:36:40.249    11 Jun 2027 22:40:12.128           211.878
                     204    12 Jun 2027 00:13:03.619    12 Jun 2027 00:18:12.171           308.551
                     205    12 Jun 2027 01:36:57.603    12 Jun 2027 01:39:13.099           135.495
                     206    12 Jun 2027 03:12:56.852    12 Jun 2027 03:16:49.046           232.194
                     207    12 Jun 2027 04:46:44.360    12 Jun 2027 04:55:16.101           511.741
                     208    12 Jun 2027 06:23:58.881    12 Jun 2027 06:31:11.376           432.495
                     209    12 Jun 2027 08:01:11.137    12 Jun 2027 08:05:39.563           268.426
                     210    12 Jun 2027 08:05:49.179    12 Jun 2027 08:07:00.819            71.640
                     211    12 Jun 2027 09:37:54.014    12 Jun 2027 09:42:43.099           289.084
                     212    12 Jun 2027 11:13:07.446    12 Jun 2027 11:13:18.924            11.478
                     213    12 Jun 2027 11:14:51.109    12 Jun 2027 11:17:44.361           173.252
                     214    12 Jun 2027 16:20:32.896    12 Jun 2027 16:23:07.420           154.524
                     215    12 Jun 2027 16:23:31.953    12 Jun 2027 16:25:54.941           142.989
                     216    12 Jun 2027 17:56:44.125    12 Jun 2027 18:03:42.271           418.145
                     217    12 Jun 2027 19:33:28.721    12 Jun 2027 19:39:53.278           384.557
                     218    12 Jun 2027 21:08:56.280    12 Jun 2027 21:16:26.754           450.474
                     219    12 Jun 2027 22:47:13.451    12 Jun 2027 22:47:40.265            26.814
                     220    12 Jun 2027 22:47:55.498    12 Jun 2027 22:48:48.064            52.567
                     221    12 Jun 2027 22:48:49.676    12 Jun 2027 22:53:21.238           271.562
                     222    13 Jun 2027 00:25:27.897    13 Jun 2027 00:30:07.002           279.105
                     223    13 Jun 2027 01:48:49.069    13 Jun 2027 01:51:24.039           154.971
                     224    13 Jun 2027 03:25:11.135    13 Jun 2027 03:28:44.581           213.446
                     225    13 Jun 2027 04:57:30.185    13 Jun 2027 04:58:03.557            33.372
                     226    13 Jun 2027 04:59:15.759    13 Jun 2027 05:06:10.089           414.329
                     227    13 Jun 2027 05:06:12.649    13 Jun 2027 05:07:13.736            61.086
                     228    13 Jun 2027 06:36:19.838    13 Jun 2027 06:43:02.401           402.562
                     229    13 Jun 2027 08:13:17.727    13 Jun 2027 08:18:15.509           297.782
                     230    13 Jun 2027 09:50:03.413    13 Jun 2027 09:54:42.852           279.439
                     231    13 Jun 2027 11:28:14.988    13 Jun 2027 11:29:14.934            59.946
                     232    13 Jun 2027 16:32:51.467    13 Jun 2027 16:35:05.163           133.695
                     233    13 Jun 2027 16:36:26.695    13 Jun 2027 16:36:53.621            26.926
                     234    13 Jun 2027 18:08:48.750    13 Jun 2027 18:15:19.139           390.389
                     235    13 Jun 2027 19:45:30.278    13 Jun 2027 19:51:55.433           385.155
                     236    13 Jun 2027 21:21:04.000    13 Jun 2027 21:28:29.028           445.028
                     237    13 Jun 2027 22:59:05.691    13 Jun 2027 22:59:08.987             3.297
                     238    13 Jun 2027 22:59:33.946    13 Jun 2027 23:00:19.341            45.394
                     239    13 Jun 2027 23:00:25.496    13 Jun 2027 23:05:21.467           295.971

Min Duration         237    13 Jun 2027 22:59:05.691    13 Jun 2027 22:59:08.987             3.297
Max Duration         207    12 Jun 2027 04:46:44.360    12 Jun 2027 04:55:16.101           511.741
Mean Duration                                                                              223.488
Total Duration                                                                           53413.563


Russia-To-KinoSat_110603
------------------------
                  Access        Start Time (UTCG)           Stop Time (UTCG)        Duration (sec)
                  ------    ------------------------    ------------------------    --------------
                       1     1 Jun 2027 00:52:28.417     1 Jun 2027 00:52:52.420            24.003
                       2     1 Jun 2027 01:03:22.358     1 Jun 2027 01:06:58.337           215.980
                       3     1 Jun 2027 02:27:19.333     1 Jun 2027 02:30:05.586           166.253
                       4     1 Jun 2027 04:03:05.662     1 Jun 2027 04:07:20.737           255.074
                       5     1 Jun 2027 05:37:48.812     1 Jun 2027 05:45:20.135           451.324
                       6     1 Jun 2027 07:14:34.634     1 Jun 2027 07:20:56.607           381.973
                       7     1 Jun 2027 08:52:50.559     1 Jun 2027 08:56:45.459           234.900
                       8     1 Jun 2027 10:26:09.451     1 Jun 2027 10:27:38.714            89.263
                       9     1 Jun 2027 10:28:06.911     1 Jun 2027 10:32:23.862           256.950
                      10     1 Jun 2027 10:32:44.948     1 Jun 2027 10:33:49.201            64.253
                      11     1 Jun 2027 15:34:36.431     1 Jun 2027 15:36:43.943           127.513
                      12     1 Jun 2027 17:10:48.038     1 Jun 2027 17:14:10.783           202.744
                      13     1 Jun 2027 18:47:23.733     1 Jun 2027 18:53:33.788           370.055
                      14     1 Jun 2027 20:23:34.753     1 Jun 2027 20:30:21.961           407.208
                      15     1 Jun 2027 21:59:39.391     1 Jun 2027 22:06:05.917           386.526
                      16     1 Jun 2027 23:38:24.219     1 Jun 2027 23:46:01.263           457.044
                      17     2 Jun 2027 01:03:44.006     2 Jun 2027 01:05:07.304            83.297
                      18     2 Jun 2027 01:15:20.191     2 Jun 2027 01:16:48.863            88.672
                      19     2 Jun 2027 02:37:56.845     2 Jun 2027 02:38:55.520            58.676
                      20     2 Jun 2027 02:39:34.954     2 Jun 2027 02:42:39.981           185.028
                      21     2 Jun 2027 04:13:06.437     2 Jun 2027 04:14:20.500            74.063
                      22     2 Jun 2027 04:14:48.938     2 Jun 2027 04:19:40.263           291.325
                      23     2 Jun 2027 05:49:53.942     2 Jun 2027 05:57:20.003           446.061
                      24     2 Jun 2027 07:26:54.985     2 Jun 2027 07:32:45.613           350.627
                      25     2 Jun 2027 07:32:54.947     2 Jun 2027 07:33:02.607             7.660
                      26     2 Jun 2027 09:04:48.425     2 Jun 2027 09:08:47.531           239.106
                      27     2 Jun 2027 10:38:05.131     2 Jun 2027 10:44:24.148           379.016
                      28     2 Jun 2027 10:44:39.253     2 Jun 2027 10:45:55.187            75.935
                      29     2 Jun 2027 15:46:32.739     2 Jun 2027 15:49:13.750           161.010
                      30     2 Jun 2027 17:22:52.818     2 Jun 2027 17:26:17.108           204.291
                      31     2 Jun 2027 17:28:12.332     2 Jun 2027 17:29:26.989            74.658
                      32     2 Jun 2027 18:59:27.697     2 Jun 2027 19:05:41.501           373.804
                      33     2 Jun 2027 20:35:42.396     2 Jun 2027 20:42:18.635           396.239
                      34     2 Jun 2027 22:11:45.066     2 Jun 2027 22:17:52.404           367.338
                      35     2 Jun 2027 23:50:49.885     2 Jun 2027 23:57:56.185           426.301
                      36     3 Jun 2027 01:15:05.560     3 Jun 2027 01:17:18.102           132.542
                      37     3 Jun 2027 01:27:19.317     3 Jun 2027 01:28:18.324            59.007
                      38     3 Jun 2027 02:49:32.794     3 Jun 2027 02:50:41.060            68.267
                      39     3 Jun 2027 02:51:29.082     3 Jun 2027 02:54:54.588           205.507
                      40     3 Jun 2027 04:24:26.449     3 Jun 2027 04:26:34.767           128.318
                      41     3 Jun 2027 04:26:36.958     3 Jun 2027 04:31:59.411           322.453
                      42     3 Jun 2027 04:32:29.353     3 Jun 2027 04:33:00.073            30.721
                      43     3 Jun 2027 06:02:01.094     3 Jun 2027 06:09:23.573           442.479
                      44     3 Jun 2027 07:38:44.216     3 Jun 2027 07:45:23.943           399.727
                      45     3 Jun 2027 09:16:47.897     3 Jun 2027 09:20:57.419           249.521
                      46     3 Jun 2027 10:50:31.350     3 Jun 2027 10:57:24.162           412.812
                      47     3 Jun 2027 15:58:33.516     3 Jun 2027 16:01:28.550           175.034
                      48     3 Jun 2027 17:35:05.323     3 Jun 2027 17:38:39.601           214.278
                      49     3 Jun 2027 17:39:48.464     3 Jun 2027 17:42:49.907           181.443
                      50     3 Jun 2027 19:11:38.577     3 Jun 2027 19:17:57.310           378.733
                      51     3 Jun 2027 20:47:10.549     3 Jun 2027 20:47:50.184            39.635
                      52     3 Jun 2027 20:47:57.790     3 Jun 2027 20:54:46.950           409.160
                      53     3 Jun 2027 22:24:04.962     3 Jun 2027 22:24:31.494            26.531
                      54     3 Jun 2027 22:24:38.377     3 Jun 2027 22:25:08.243            29.866
                      55     3 Jun 2027 22:25:13.681     3 Jun 2027 22:26:07.501            53.820
                      56     3 Jun 2027 22:26:09.722     3 Jun 2027 22:30:08.196           238.473
                      57     4 Jun 2027 00:02:53.792     4 Jun 2027 00:09:48.117           414.325
                      58     4 Jun 2027 01:27:10.936     4 Jun 2027 01:29:05.265           114.330
                      59     4 Jun 2027 01:39:33.428     4 Jun 2027 01:39:52.982            19.554
                      60     4 Jun 2027 03:01:01.831     4 Jun 2027 03:06:59.514           357.683
                      61     4 Jun 2027 04:35:56.279     4 Jun 2027 04:44:07.412           491.132
                      62     4 Jun 2027 04:44:26.673     4 Jun 2027 04:45:26.669            59.996
                      63     4 Jun 2027 06:13:56.345     4 Jun 2027 06:21:25.073           448.728
                      64     4 Jun 2027 07:50:51.489     4 Jun 2027 07:56:09.929           318.440
                      65     4 Jun 2027 07:56:27.760     4 Jun 2027 07:57:20.736            52.976
                      66     4 Jun 2027 09:28:25.371     4 Jun 2027 09:32:55.916           270.546
                      67     4 Jun 2027 11:02:48.880     4 Jun 2027 11:03:48.497            59.617
                      68     4 Jun 2027 11:04:37.325     4 Jun 2027 11:08:06.506           209.181
                      69     4 Jun 2027 16:10:40.152     4 Jun 2027 16:13:54.232           194.080
                      70     4 Jun 2027 16:14:07.420     4 Jun 2027 16:15:27.747            80.327
                      71     4 Jun 2027 17:47:01.140     4 Jun 2027 17:51:34.866           273.726
                      72     4 Jun 2027 17:51:49.684     4 Jun 2027 17:53:40.728           111.044
                      73     4 Jun 2027 17:54:26.170     4 Jun 2027 17:55:02.379            36.209
                      74     4 Jun 2027 19:23:34.786     4 Jun 2027 19:30:10.241           395.455
                      75     4 Jun 2027 20:59:07.595     4 Jun 2027 21:06:52.695           465.100
                      76     4 Jun 2027 22:36:47.776     4 Jun 2027 22:37:01.506            13.730
                      77     4 Jun 2027 22:37:11.188     4 Jun 2027 22:38:12.171            60.983
                      78     4 Jun 2027 22:38:21.132     4 Jun 2027 22:38:46.275            25.143
                      79     4 Jun 2027 22:38:57.619     4 Jun 2027 22:42:25.243           207.624
                      80     5 Jun 2027 00:15:19.707     5 Jun 2027 00:20:19.236           299.529
                      81     5 Jun 2027 01:39:07.490     5 Jun 2027 01:41:25.086           137.596
                      82     5 Jun 2027 03:15:19.573     5 Jun 2027 03:18:48.775           209.202
                      83     5 Jun 2027 04:48:52.268     5 Jun 2027 04:56:22.852           450.584
                      84     5 Jun 2027 04:56:25.946     5 Jun 2027 04:57:26.408            60.462
                      85     5 Jun 2027 06:26:18.290     5 Jun 2027 06:33:09.589           411.299
                      86     5 Jun 2027 08:03:20.671     5 Jun 2027 08:07:49.800           269.129
                      87     5 Jun 2027 08:07:56.030     5 Jun 2027 08:09:11.154            75.124
                      88     5 Jun 2027 09:40:08.805     5 Jun 2027 09:44:53.750           284.945
                      89     5 Jun 2027 11:15:24.090     5 Jun 2027 11:15:27.041             2.952
                      90     5 Jun 2027 11:17:07.782     5 Jun 2027 11:19:52.884           165.103
                      91     5 Jun 2027 16:23:01.323     5 Jun 2027 16:25:29.261           147.937
                      92     5 Jun 2027 16:25:51.152     5 Jun 2027 16:27:52.668           121.516
                      93     5 Jun 2027 17:58:55.628     5 Jun 2027 18:05:42.000           406.373
                      94     5 Jun 2027 19:35:38.925     5 Jun 2027 19:42:04.113           385.188
                      95     5 Jun 2027 21:11:07.528     5 Jun 2027 21:18:37.695           450.167
                      96     5 Jun 2027 22:49:26.287     5 Jun 2027 22:49:49.416            23.129
                      97     5 Jun 2027 22:50:00.555     5 Jun 2027 22:55:30.982           330.427
                      98     6 Jun 2027 00:27:38.205     6 Jun 2027 00:32:11.243           273.038
                      99     6 Jun 2027 01:50:58.505     6 Jun 2027 01:53:36.523           158.017
                     100     6 Jun 2027 03:27:25.778     6 Jun 2027 03:30:58.749           212.971
                     101     6 Jun 2027 04:59:35.306     6 Jun 2027 04:59:44.950             9.644
                     102     6 Jun 2027 05:01:30.947     6 Jun 2027 05:08:19.112           408.165
                     103     6 Jun 2027 05:08:22.713     6 Jun 2027 05:09:21.120            58.407
                     104     6 Jun 2027 06:38:29.293     6 Jun 2027 06:45:13.803           404.509
                     105     6 Jun 2027 08:15:34.506     6 Jun 2027 08:19:53.230           258.723
                     106     6 Jun 2027 08:19:56.991     6 Jun 2027 08:20:30.982            33.991
                     107     6 Jun 2027 09:52:12.171     6 Jun 2027 09:57:21.169           308.997
                     108     6 Jun 2027 11:30:31.534     6 Jun 2027 11:31:21.718            50.184
                     109     6 Jun 2027 16:35:03.165     6 Jun 2027 16:37:18.868           135.703
                     110     6 Jun 2027 18:10:59.731     6 Jun 2027 18:17:32.105           392.375
                     111     6 Jun 2027 19:47:41.403     6 Jun 2027 19:54:10.781           389.377
                     112     6 Jun 2027 21:23:19.963     6 Jun 2027 21:30:49.221           449.258
                     113     6 Jun 2027 23:01:29.487     6 Jun 2027 23:02:30.044            60.557
                     114     6 Jun 2027 23:02:35.627     6 Jun 2027 23:07:40.720           305.093
                     115     7 Jun 2027 00:40:07.000     7 Jun 2027 00:44:04.490           237.490
                     116     7 Jun 2027 02:03:04.726     7 Jun 2027 02:06:07.255           182.529
                     117     7 Jun 2027 03:39:33.301     7 Jun 2027 03:43:12.538           219.237
