DATA_Files/Russia2Constellation/AreaTarget-Russia-To-Satellite-KinoSat_02_plane.txt

                                                                                                                                                                                                                                                                                           10 May 2023 20:57:51
Civil Air Patrol Use Only
AreaTarget-Russia-To-Satellite-KinoSat_110201, Satellite-KinoSat_110202, Satellite-KinoSat_110203, Satellite-KinoSat_110204, Satellite-KinoSat_110205, Satellite-KinoSat_110206, Satellite-KinoSat_110207, Satellite-KinoSat_110208, Satellite-KinoSat_110209, Satellite-KinoSat_110210:  Access Summary Report


Russia-To-KinoSat_110201
------------------------
                  Access        Start Time (UTCG)           Stop Time (UTCG)        Duration (sec)
                  ------    ------------------------    ------------------------    --------------
                       1     1 Jun 2027 01:28:50.115     1 Jun 2027 01:32:59.157           249.041
                       2     1 Jun 2027 03:03:43.318     1 Jun 2027 03:10:57.518           434.199
                       3     1 Jun 2027 04:40:12.244     1 Jun 2027 04:46:36.159           383.915
                       4     1 Jun 2027 06:18:30.020     1 Jun 2027 06:22:24.368           234.348
                       5     1 Jun 2027 07:53:56.948     1 Jun 2027 07:57:58.118           241.171
                       6     1 Jun 2027 07:58:19.070     1 Jun 2027 07:59:18.244            59.174
                       7     1 Jun 2027 13:00:26.716     1 Jun 2027 13:02:16.984           110.267
                       8     1 Jun 2027 14:36:27.864     1 Jun 2027 14:39:48.421           200.557
                       9     1 Jun 2027 16:13:02.322     1 Jun 2027 16:18:16.223           313.902
                      10     1 Jun 2027 17:49:12.494     1 Jun 2027 17:56:00.241           407.747
                      11     1 Jun 2027 19:25:06.789     1 Jun 2027 19:31:48.439           401.650
                      12     1 Jun 2027 21:03:59.002     1 Jun 2027 21:09:29.941           330.939
                      13     1 Jun 2027 21:10:01.050     1 Jun 2027 21:11:37.345            96.295
                      14     1 Jun 2027 22:29:38.308     1 Jun 2027 22:30:45.490            67.182
                      15     1 Jun 2027 22:40:59.914     1 Jun 2027 22:42:40.556           100.642
                      16     1 Jun 2027 22:43:39.357     1 Jun 2027 22:44:01.850            22.493
                      17     2 Jun 2027 00:03:34.813     2 Jun 2027 00:04:38.843            64.030
                      18     2 Jun 2027 00:04:52.190     2 Jun 2027 00:08:17.346           205.155
                      19     2 Jun 2027 01:39:06.449     2 Jun 2027 01:39:57.203            50.755
                      20     2 Jun 2027 01:40:35.360     2 Jun 2027 01:45:14.150           278.789
                      21     2 Jun 2027 03:15:25.712     2 Jun 2027 03:22:58.355           452.644
                      22     2 Jun 2027 04:52:32.563     2 Jun 2027 04:58:51.568           379.005
                      23     2 Jun 2027 06:30:27.847     2 Jun 2027 06:34:25.837           237.990
                      24     2 Jun 2027 08:03:32.905     2 Jun 2027 08:09:53.423           380.519
                      25     2 Jun 2027 08:10:35.359     2 Jun 2027 08:11:34.760            59.401
                      26     2 Jun 2027 13:12:11.406     2 Jun 2027 13:14:57.022           165.616
                      27     2 Jun 2027 14:48:30.376     2 Jun 2027 14:51:56.369           205.993
                      28     2 Jun 2027 16:25:10.829     2 Jun 2027 16:31:23.337           372.508
                      29     2 Jun 2027 18:01:17.373     2 Jun 2027 18:07:57.502           400.129
                      30     2 Jun 2027 19:37:21.992     2 Jun 2027 19:43:30.775           368.782
                      31     2 Jun 2027 21:16:28.131     2 Jun 2027 21:23:36.615           428.484
                      32     2 Jun 2027 22:41:18.565     2 Jun 2027 22:42:54.164            95.598
                      33     2 Jun 2027 22:53:02.387     2 Jun 2027 22:54:03.568            61.180
                      34     3 Jun 2027 00:15:17.607     3 Jun 2027 00:16:23.498            65.890
                      35     3 Jun 2027 00:17:12.403     3 Jun 2027 00:20:30.768           198.365
                      36     3 Jun 2027 01:50:15.231     3 Jun 2027 01:52:10.560           115.329
                      37     3 Jun 2027 01:52:19.360     3 Jun 2027 01:57:36.728           317.368
                      38     3 Jun 2027 01:58:12.765     3 Jun 2027 01:58:37.526            24.761
                      39     3 Jun 2027 03:27:43.988     3 Jun 2027 03:35:02.344           438.355
                      40     3 Jun 2027 05:04:28.591     3 Jun 2027 05:11:01.410           392.819
                      41     3 Jun 2027 06:42:27.090     3 Jun 2027 06:46:37.999           250.909
                      42     3 Jun 2027 08:16:04.955     3 Jun 2027 08:23:29.271           444.316
                      43     3 Jun 2027 13:24:11.670     3 Jun 2027 13:26:56.117           164.447
                      44     3 Jun 2027 15:00:42.134     3 Jun 2027 15:04:04.765           202.630
                      45     3 Jun 2027 15:05:26.999     3 Jun 2027 15:08:09.742           162.743
                      46     3 Jun 2027 16:37:24.367     3 Jun 2027 16:43:24.950           360.584
                      47     3 Jun 2027 18:12:55.425     3 Jun 2027 18:13:13.377            17.952
                      48     3 Jun 2027 18:13:22.602     3 Jun 2027 18:20:20.762           418.160
                      49     3 Jun 2027 19:49:40.626     3 Jun 2027 19:50:51.017            70.391
                      50     3 Jun 2027 19:50:52.721     3 Jun 2027 19:51:52.160            59.438
                      51     3 Jun 2027 19:51:54.564     3 Jun 2027 19:55:43.364           228.800
                      52     3 Jun 2027 21:28:29.372     3 Jun 2027 21:35:31.525           422.153
                      53     3 Jun 2027 22:52:51.924     3 Jun 2027 22:54:57.891           125.967
                      54     3 Jun 2027 23:05:04.141     3 Jun 2027 23:05:35.591            31.450
                      55     4 Jun 2027 00:26:49.922     4 Jun 2027 00:28:09.534            79.613
                      56     4 Jun 2027 00:28:58.265     4 Jun 2027 00:32:43.217           224.951
                      57     4 Jun 2027 02:01:43.379     4 Jun 2027 02:09:46.773           483.394
                      58     4 Jun 2027 02:10:06.984     4 Jun 2027 02:11:05.250            58.266
                      59     4 Jun 2027 03:39:37.220     4 Jun 2027 03:47:02.312           445.092
                      60     4 Jun 2027 05:16:21.238     4 Jun 2027 05:22:12.051           350.814
                      61     4 Jun 2027 05:22:17.845     4 Jun 2027 05:23:05.158            47.313
                      62     4 Jun 2027 06:54:27.153     4 Jun 2027 06:58:37.174           250.022
                      63     4 Jun 2027 08:30:12.154     4 Jun 2027 08:34:34.456           262.302
                      64     4 Jun 2027 13:36:17.941     4 Jun 2027 13:39:13.603           175.663
                      65     4 Jun 2027 13:39:44.739     4 Jun 2027 13:40:43.418            58.679
                      66     4 Jun 2027 15:12:41.291     4 Jun 2027 15:17:02.197           260.906
                      67     4 Jun 2027 15:17:39.934     4 Jun 2027 15:20:44.098           184.164
                      68     4 Jun 2027 16:49:15.928     4 Jun 2027 16:55:48.780           392.851
                      69     4 Jun 2027 18:24:47.154     4 Jun 2027 18:32:30.148           462.994
                      70     4 Jun 2027 20:02:25.153     4 Jun 2027 20:04:03.997            98.844
                      71     4 Jun 2027 20:04:28.509     4 Jun 2027 20:08:00.098           211.589
                      72     4 Jun 2027 21:40:51.396     4 Jun 2027 21:46:00.449           309.053
                      73     4 Jun 2027 23:04:47.628     4 Jun 2027 23:07:04.197           136.569
                      74     5 Jun 2027 00:40:48.335     5 Jun 2027 00:44:40.920           232.585
                      75     5 Jun 2027 02:14:36.100     5 Jun 2027 02:21:55.053           438.952
                      76     5 Jun 2027 02:21:58.017     5 Jun 2027 02:23:06.506            68.490
                      77     5 Jun 2027 03:51:45.069     5 Jun 2027 03:59:02.616           437.547
                      78     5 Jun 2027 05:28:59.627     5 Jun 2027 05:33:30.937           271.311
                      79     5 Jun 2027 05:33:40.767     5 Jun 2027 05:34:51.776            71.008
                      80     5 Jun 2027 07:05:41.177     5 Jun 2027 07:10:33.148           291.972
                      81     5 Jun 2027 08:40:53.291     5 Jun 2027 08:41:07.240            13.949
                      82     5 Jun 2027 08:42:28.641     5 Jun 2027 08:45:36.263           187.622
                      83     5 Jun 2027 13:48:22.773     5 Jun 2027 13:50:54.430           151.658
                      84     5 Jun 2027 13:51:15.682     5 Jun 2027 13:53:51.242           155.560
                      85     5 Jun 2027 15:24:34.754     5 Jun 2027 15:31:32.360           417.607
                      86     5 Jun 2027 17:01:19.324     5 Jun 2027 17:07:44.198           384.874
                      87     5 Jun 2027 18:36:46.688     5 Jun 2027 18:44:19.956           453.268
                      88     5 Jun 2027 20:15:02.719     5 Jun 2027 20:15:41.952            39.233
                      89     5 Jun 2027 20:15:49.375     5 Jun 2027 20:16:37.897            48.522
                      90     5 Jun 2027 20:16:40.263     5 Jun 2027 20:21:11.149           270.886
                      91     5 Jun 2027 21:53:20.382     5 Jun 2027 21:58:01.128           280.746
                      92     5 Jun 2027 23:16:40.474     5 Jun 2027 23:19:14.862           154.388
                      93     6 Jun 2027 00:53:01.239     6 Jun 2027 00:56:31.552           210.313
                      94     6 Jun 2027 02:27:01.236     6 Jun 2027 02:34:01.932           420.696
                      95     6 Jun 2027 02:34:04.156     6 Jun 2027 02:35:05.127            60.971
                      96     6 Jun 2027 04:04:10.287     6 Jun 2027 04:10:52.383           402.096
                      97     6 Jun 2027 05:41:09.128     6 Jun 2027 05:46:33.712           324.585
                      98     6 Jun 2027 07:17:55.983     6 Jun 2027 07:22:26.597           270.615
                      99     6 Jun 2027 08:56:06.436     6 Jun 2027 08:57:09.340            62.903
                     100     6 Jun 2027 14:00:41.546     6 Jun 2027 14:02:58.389           136.843
                     101     6 Jun 2027 14:04:11.548     6 Jun 2027 14:04:51.020            39.472
                     102     6 Jun 2027 15:36:39.230     6 Jun 2027 15:43:10.852           391.622
                     103     6 Jun 2027 17:13:20.753     6 Jun 2027 17:19:44.221           383.469
                     104     6 Jun 2027 18:48:53.945     6 Jun 2027 18:56:23.520           449.575
                     105     6 Jun 2027 20:26:55.498     6 Jun 2027 20:27:00.407             4.908
                     106     6 Jun 2027 20:27:25.132     6 Jun 2027 20:33:10.336           345.204
                     107     6 Jun 2027 22:05:36.436     6 Jun 2027 22:09:37.178           240.743
                     108     6 Jun 2027 23:28:36.729     6 Jun 2027 23:31:16.229           159.500
                     109     7 Jun 2027 01:05:07.125     7 Jun 2027 01:08:39.971           212.846
                     110     7 Jun 2027 02:40:15.991     7 Jun 2027 02:46:01.059           345.068
                     111     7 Jun 2027 02:46:01.700     7 Jun 2027 02:47:04.653            62.953
                     112     7 Jun 2027 04:16:36.330     7 Jun 2027 04:22:58.414           382.083
                     113     7 Jun 2027 05:54:10.360     7 Jun 2027 05:58:31.965           261.604
                     114     7 Jun 2027 07:30:13.565     7 Jun 2027 07:34:23.512           249.947
                     115     7 Jun 2027 14:12:45.018     7 Jun 2027 14:15:25.386           160.368
                     116     7 Jun 2027 15:48:42.066     7 Jun 2027 15:54:44.841           362.774
                     117     7 Jun 2027 17:25:24.535     7 Jun 2027 17:31:44.984           380.448
                     118     7 Jun 2027 19:00:55.125     7 Jun 2027 19:08:07.227           432.101
                     119     7 Jun 2027 20:39:03.973     7 Jun 2027 20:40:06.099            62.125
                     120     7 Jun 2027 20:40:12.535     7 Jun 2027 20:45:16.058           303.522
                     121     7 Jun 2027 22:17:22.541     7 Jun 2027 22:17:54.934            32.393
                     122     7 Jun 2027 22:18:11.077     7 Jun 2027 22:21:10.788           179.710
                     123     7 Jun 2027 23:40:41.795     7 Jun 2027 23:43:54.277           192.482
                     124     8 Jun 2027 01:17:17.464     8 Jun 2027 01:20:44.763           207.299
                     125     8 Jun 2027 02:52:27.722     8 Jun 2027 02:59:03.208           395.487
                     126     8 Jun 2027 04:28:48.240     8 Jun 2027 04:34:31.459           343.219
                     127     8 Jun 2027 04:34:34.157     8 Jun 2027 04:34:51.528            17.371
                     128     8 Jun 2027 06:06:13.792     8 Jun 2027 06:10:46.558           272.766
                     129     8 Jun 2027 07:42:17.678     8 Jun 2027 07:46:28.227           250.549
                     130     8 Jun 2027 07:46:33.409     8 Jun 2027 07:47:09.230            35.821
                     131     8 Jun 2027 12:49:26.167     8 Jun 2027 12:49:28.713             2.546
                     132     8 Jun 2027 14:24:55.067     8 Jun 2027 14:28:02.203           187.136
                     133     8 Jun 2027 16:00:46.685     8 Jun 2027 16:06:24.875           338.190
                     134     8 Jun 2027 17:37:21.710     8 Jun 2027 17:43:35.244           373.534
                     135     8 Jun 2027 19:12:52.481     8 Jun 2027 19:19:47.185           414.704
                     136     8 Jun 2027 20:51:10.417     8 Jun 2027 20:51:11.717             1.301
                     137     8 Jun 2027 20:52:10.367     8 Jun 2027 20:57:15.904           305.538
                     138     8 Jun 2027 20:58:39.750     8 Jun 2027 21:00:07.107            87.356
                     139     8 Jun 2027 22:18:33.727     8 Jun 2027 22:18:36.644             2.917
                     140     8 Jun 2027 22:29:18.736     8 Jun 2027 22:29:58.221            39.485
                     141     8 Jun 2027 22:30:18.270     8 Jun 2027 22:32:53.549           155.279
                     142     8 Jun 2027 23:53:15.399     8 Jun 2027 23:55:58.292           162.893
                     143     9 Jun 2027 01:29:04.364     9 Jun 2027 01:33:14.046           249.682
                     144     9 Jun 2027 03:03:57.450     9 Jun 2027 03:11:12.424           434.973
                     145     9 Jun 2027 04:40:27.472     9 Jun 2027 04:46:51.048           383.577
                     146     9 Jun 2027 06:18:45.019     9 Jun 2027 06:22:39.334           234.315
                     147     9 Jun 2027 07:54:11.168     9 Jun 2027 07:58:13.383           242.216
                     148     9 Jun 2027 07:58:34.074     9 Jun 2027 07:59:33.363            59.289
                     149     9 Jun 2027 13:00:40.829     9 Jun 2027 13:02:32.112           111.284
                     150     9 Jun 2027 14:36:42.630     9 Jun 2027 14:40:03.572           200.942
                     151     9 Jun 2027 16:13:17.290     9 Jun 2027 16:18:31.287           313.997
                     152     9 Jun 2027 17:49:27.389     9 Jun 2027 17:56:15.492           408.103
                     153     9 Jun 2027 19:25:29.277     9 Jun 2027 19:31:57.612           388.334
                     154     9 Jun 2027 21:04:13.906     9 Jun 2027 21:09:51.373           337.467
                     155     9 Jun 2027 21:10:15.825     9 Jun 2027 21:11:52.189            96.364
                     156     9 Jun 2027 22:29:52.369     9 Jun 2027 22:31:00.471            68.103
                     157     9 Jun 2027 22:41:14.670     9 Jun 2027 22:42:55.332           100.662
                     158     9 Jun 2027 22:43:54.268     9 Jun 2027 22:43:59.526             5.259
                     159    10 Jun 2027 00:03:49.858    10 Jun 2027 00:04:53.441            63.584
                     160    10 Jun 2027 00:05:24.606    10 Jun 2027 00:08:32.315           187.709
                     161    10 Jun 2027 01:39:21.044    10 Jun 2027 01:40:11.770            50.726
                     162    10 Jun 2027 01:40:49.718    10 Jun 2027 01:45:29.147           279.429
                     163    10 Jun 2027 03:15:40.853    10 Jun 2027 03:23:13.270           452.417
                     164    10 Jun 2027 04:52:47.196    10 Jun 2027 04:58:50.964           363.769
                     165    10 Jun 2027 04:58:53.205    10 Jun 2027 04:59:06.304            13.099
                     166    10 Jun 2027 06:30:42.577    10 Jun 2027 06:34:40.709           238.132
                     167    10 Jun 2027 08:03:47.812    10 Jun 2027 08:10:08.550           380.739
                     168    10 Jun 2027 08:10:50.161    10 Jun 2027 08:11:49.673            59.512
                     169    10 Jun 2027 13:12:26.225    10 Jun 2027 13:15:12.036           165.811
                     170    10 Jun 2027 14:48:45.317    10 Jun 2027 14:52:10.868           205.551
                     171    10 Jun 2027 16:25:25.509    10 Jun 2027 16:31:37.953           372.444
                     172    10 Jun 2027 18:01:32.111    10 Jun 2027 18:08:12.298           400.187
                     173    10 Jun 2027 19:37:36.909    10 Jun 2027 19:43:45.166           368.257
                     174    10 Jun 2027 21:16:42.931    10 Jun 2027 21:23:51.510           428.579
                     175    10 Jun 2027 22:41:33.450    10 Jun 2027 22:43:09.376            95.926
                     176    10 Jun 2027 22:53:17.221    10 Jun 2027 22:54:17.954            60.733
                     177    11 Jun 2027 00:15:32.237    11 Jun 2027 00:16:38.242            66.004
                     178    11 Jun 2027 00:17:26.147    11 Jun 2027 00:20:45.828           199.681
                     179    11 Jun 2027 01:50:29.323    11 Jun 2027 01:52:25.608           116.285
                     180    11 Jun 2027 01:52:34.069    11 Jun 2027 01:57:51.698           317.629
                     181    11 Jun 2027 01:58:27.505    11 Jun 2027 01:58:52.408            24.903
                     182    11 Jun 2027 03:27:58.626    11 Jun 2027 03:35:17.161           438.535
                     183    11 Jun 2027 05:04:43.234    11 Jun 2027 05:10:55.834           372.600
                     184    11 Jun 2027 05:10:59.723    11 Jun 2027 05:11:16.316            16.592
                     185    11 Jun 2027 06:42:41.859    11 Jun 2027 06:46:52.787           250.929
                     186    11 Jun 2027 08:16:19.507    11 Jun 2027 08:23:44.079           444.572
                     187    11 Jun 2027 13:24:26.410    11 Jun 2027 13:27:11.233           164.823
                     188    11 Jun 2027 15:00:57.086    11 Jun 2027 15:04:20.125           203.039
                     189    11 Jun 2027 15:05:41.612    11 Jun 2027 15:08:24.991           163.379
                     190    11 Jun 2027 16:37:39.136    11 Jun 2027 16:43:40.391           361.255
                     191    11 Jun 2027 18:13:10.102    11 Jun 2027 18:13:28.305            18.203
                     192    11 Jun 2027 18:13:37.485    11 Jun 2027 18:20:36.050           418.565
                     193    11 Jun 2027 19:49:55.638    11 Jun 2027 19:51:05.659            70.021
                     194    11 Jun 2027 19:51:07.836    11 Jun 2027 19:52:06.933            59.097
                     195    11 Jun 2027 19:52:08.090    11 Jun 2027 19:55:58.511           230.421
                     196    11 Jun 2027 21:28:44.389    11 Jun 2027 21:35:46.025           421.636
                     197    11 Jun 2027 22:53:06.826    11 Jun 2027 22:55:12.613           125.787
                     198    11 Jun 2027 23:05:19.035    11 Jun 2027 23:05:50.427            31.392
                     199    12 Jun 2027 00:27:04.217    12 Jun 2027 00:28:23.799            79.582
                     200    12 Jun 2027 00:29:12.456    12 Jun 2027 00:32:58.232           225.776
                     201    12 Jun 2027 02:01:57.933    12 Jun 2027 02:10:01.685           483.752
                     202    12 Jun 2027 02:10:21.829    12 Jun 2027 02:11:20.106            58.277
                     203    12 Jun 2027 03:39:52.157    12 Jun 2027 03:47:17.353           445.196
                     204    12 Jun 2027 05:16:36.248    12 Jun 2027 05:23:19.859           403.611
                     205    12 Jun 2027 06:54:29.748    12 Jun 2027 06:58:52.039           262.291
                     206    12 Jun 2027 08:30:27.504    12 Jun 2027 08:34:48.379           260.875
                     207    12 Jun 2027 13:36:33.002    12 Jun 2027 13:39:28.630           175.628
                     208    12 Jun 2027 13:39:59.436    12 Jun 2027 13:40:58.236            58.800
                     209    12 Jun 2027 15:12:56.115    12 Jun 2027 15:17:18.016           261.901
                     210    12 Jun 2027 15:17:50.041    12 Jun 2027 15:20:58.690           188.649
                     211    12 Jun 2027 16:49:30.697    12 Jun 2027 16:56:03.491           392.794
                     212    12 Jun 2027 18:25:02.065    12 Jun 2027 18:32:44.561           462.496
                     213    12 Jun 2027 20:02:40.101    12 Jun 2027 20:04:18.687            98.586
                     214    12 Jun 2027 20:04:44.865    12 Jun 2027 20:08:15.041           210.177
                     215    12 Jun 2027 21:41:06.640    12 Jun 2027 21:46:14.969           308.329
                     216    12 Jun 2027 23:05:02.443    12 Jun 2027 23:07:18.955           136.513
                     217    13 Jun 2027 00:41:02.708    13 Jun 2027 00:44:55.620           232.912
                     218    13 Jun 2027 02:14:50.980    13 Jun 2027 02:22:10.108           439.129
                     219    13 Jun 2027 02:22:12.775    13 Jun 2027 02:23:21.396            68.622
                     220    13 Jun 2027 03:52:00.398    13 Jun 2027 03:59:17.142           436.744
                     221    13 Jun 2027 05:29:14.880    13 Jun 2027 05:33:45.664           270.784
                     222    13 Jun 2027 05:33:55.656    13 Jun 2027 05:35:06.545            70.888
                     223    13 Jun 2027 07:05:55.867    13 Jun 2027 07:10:48.221           292.353
                     224    13 Jun 2027 08:41:08.355    13 Jun 2027 08:41:22.220            13.864
                     225    13 Jun 2027 08:42:53.811    13 Jun 2027 08:45:50.894           177.082
                     226    13 Jun 2027 13:48:37.661    13 Jun 2027 13:51:10.236           152.575
                     227    13 Jun 2027 13:51:31.562    13 Jun 2027 13:54:06.034           154.472
                     228    13 Jun 2027 15:24:49.577    13 Jun 2027 15:31:47.594           418.017
                     229    13 Jun 2027 17:01:34.094    13 Jun 2027 17:07:58.652           384.557
                     230    13 Jun 2027 18:37:01.596    13 Jun 2027 18:44:34.540           452.944
                     231    13 Jun 2027 20:15:17.816    13 Jun 2027 20:15:55.766            37.950
                     232    13 Jun 2027 20:16:03.759    13 Jun 2027 20:16:52.991            49.232
                     233    13 Jun 2027 20:16:55.204    13 Jun 2027 20:21:26.732           271.528
                     234    13 Jun 2027 21:53:34.948    13 Jun 2027 21:58:15.558           280.610
                     235    13 Jun 2027 23:16:54.954    13 Jun 2027 23:19:29.732           154.778

Min Duration         136     8 Jun 2027 20:51:10.417     8 Jun 2027 20:51:11.717             1.301
Max Duration         201    12 Jun 2027 02:01:57.933    12 Jun 2027 02:10:01.685           483.752
Mean Duration                                                                              227.925
Total Duration                                                                           53562.306


Russia-To-KinoSat_110202
------------------------
                  Access        Start Time (UTCG)           Stop Time (UTCG)        Duration (sec)
                  ------    ------------------------    ------------------------    --------------
                       1     1 Jun 2027 01:19:27.643     1 Jun 2027 01:22:52.841           205.198
                       2     1 Jun 2027 02:54:38.128     1 Jun 2027 03:01:14.385           396.257
                       3     1 Jun 2027 04:30:52.365     1 Jun 2027 04:36:42.829           350.464
                       4     1 Jun 2027 04:36:51.529     1 Jun 2027 04:36:59.874             8.345
                       5     1 Jun 2027 06:08:25.908     1 Jun 2027 06:12:57.305           271.397
                       6     1 Jun 2027 07:44:27.213     1 Jun 2027 07:48:39.057           251.844
                       7     1 Jun 2027 07:48:43.178     1 Jun 2027 07:49:27.275            44.097
                       8     1 Jun 2027 12:51:27.531     1 Jun 2027 12:51:45.451            17.920
                       9     1 Jun 2027 14:27:06.243     1 Jun 2027 14:30:02.544           176.300
                      10     1 Jun 2027 16:02:58.015     1 Jun 2027 16:08:33.418           335.403
                      11     1 Jun 2027 17:39:33.471     1 Jun 2027 17:46:16.004           402.532
                      12     1 Jun 2027 19:15:04.133     1 Jun 2027 19:21:58.778           414.645
                      13     1 Jun 2027 20:54:21.156     1 Jun 2027 20:59:34.421           313.266
                      14     1 Jun 2027 21:00:40.148     1 Jun 2027 21:02:12.574            92.426
                      15     1 Jun 2027 22:20:37.407     1 Jun 2027 22:20:55.255            17.848
                      16     1 Jun 2027 22:31:27.966     1 Jun 2027 22:35:03.956           215.990
                      17     1 Jun 2027 23:55:25.560     1 Jun 2027 23:58:09.884           164.324
                      18     2 Jun 2027 01:31:11.436     2 Jun 2027 01:35:25.323           253.887
                      19     2 Jun 2027 03:06:02.329     2 Jun 2027 03:13:24.731           442.402
                      20     2 Jun 2027 04:42:38.183     2 Jun 2027 04:49:02.047           383.864
                      21     2 Jun 2027 06:20:55.869     2 Jun 2027 06:24:50.705           234.836
                      22     2 Jun 2027 07:54:16.424     2 Jun 2027 07:54:26.447            10.024
                      23     2 Jun 2027 07:56:15.721     2 Jun 2027 08:00:28.219           252.498
                      24     2 Jun 2027 08:00:47.622     2 Jun 2027 08:01:45.825            58.203
                      25     2 Jun 2027 13:02:44.406     2 Jun 2027 13:04:46.479           122.073
                      26     2 Jun 2027 14:38:53.188     2 Jun 2027 14:42:13.013           199.825
                      27     2 Jun 2027 16:15:28.300     2 Jun 2027 16:21:20.245           351.945
                      28     2 Jun 2027 17:51:39.174     2 Jun 2027 17:58:27.416           408.243
                      29     2 Jun 2027 19:27:44.435     2 Jun 2027 19:34:09.680           385.245
                      30     2 Jun 2027 21:06:25.571     2 Jun 2027 21:14:05.250           459.679
                      31     2 Jun 2027 22:31:54.091     2 Jun 2027 22:33:11.955            77.864
                      32     2 Jun 2027 22:43:25.299     2 Jun 2027 22:45:04.597            99.298
                      33     3 Jun 2027 00:06:04.509     3 Jun 2027 00:07:03.259            58.749
                      34     3 Jun 2027 00:07:39.953     3 Jun 2027 00:10:44.483           184.530
                      35     3 Jun 2027 01:41:23.692     3 Jun 2027 01:42:23.711            60.018
                      36     3 Jun 2027 01:42:55.996     3 Jun 2027 01:47:44.134           288.138
                      37     3 Jun 2027 03:17:55.228     3 Jun 2027 03:25:25.109           449.881
                      38     3 Jun 2027 04:54:59.271     3 Jun 2027 05:00:49.945           350.674
                      39     3 Jun 2027 05:00:52.234     3 Jun 2027 05:01:10.211            17.977
                      40     3 Jun 2027 06:32:53.551     3 Jun 2027 06:36:53.226           239.676
                      41     3 Jun 2027 08:06:06.052     3 Jun 2027 08:12:27.418           381.366
                      42     3 Jun 2027 08:12:46.273     3 Jun 2027 08:13:58.687            72.414
                      43     3 Jun 2027 13:14:37.522     3 Jun 2027 13:17:20.937           163.415
                      44     3 Jun 2027 14:50:57.452     3 Jun 2027 14:54:21.311           203.859
                      45     3 Jun 2027 14:56:53.206     3 Jun 2027 14:57:27.429            34.222
                      46     3 Jun 2027 16:27:34.688     3 Jun 2027 16:33:46.439           371.751
                      47     3 Jun 2027 18:03:42.311     3 Jun 2027 18:10:22.111           399.801
                      48     3 Jun 2027 19:39:49.853     3 Jun 2027 19:45:58.014           368.161
                      49     3 Jun 2027 21:18:54.957     3 Jun 2027 21:26:01.651           426.693
                      50     3 Jun 2027 22:43:11.600     3 Jun 2027 22:45:22.150           130.550
                      51     3 Jun 2027 22:55:24.740     3 Jun 2027 22:56:25.502            60.763
                      52     4 Jun 2027 00:17:40.228     4 Jun 2027 00:18:46.644            66.416
                      53     4 Jun 2027 00:19:35.545     4 Jun 2027 00:22:58.440           202.895
                      54     4 Jun 2027 01:52:33.696     4 Jun 2027 01:54:37.845           124.149
                      55     4 Jun 2027 01:54:43.505     4 Jun 2027 02:00:03.887           320.383
                      56     4 Jun 2027 02:00:35.610     4 Jun 2027 02:01:04.101            28.491
                      57     4 Jun 2027 03:30:07.678     4 Jun 2027 03:37:28.596           440.918
                      58     4 Jun 2027 05:06:50.362     4 Jun 2027 05:13:03.594           373.231
                      59     4 Jun 2027 05:13:07.780     4 Jun 2027 05:13:28.261            20.482
                      60     4 Jun 2027 06:44:53.391     4 Jun 2027 06:49:02.920           249.529
                      61     4 Jun 2027 08:18:31.120     4 Jun 2027 08:25:54.144           443.024
                      62     4 Jun 2027 13:26:37.918     4 Jun 2027 13:29:28.980           171.062
                      63     4 Jun 2027 15:03:09.786     4 Jun 2027 15:06:41.888           212.102
                      64     4 Jun 2027 15:07:52.759     4 Jun 2027 15:10:52.341           179.582
                      65     4 Jun 2027 16:39:47.852     4 Jun 2027 16:46:00.322           372.470
                      66     4 Jun 2027 18:15:16.554     4 Jun 2027 18:15:56.385            39.830
                      67     4 Jun 2027 18:15:58.182     4 Jun 2027 18:22:51.709           413.527
                      68     4 Jun 2027 19:52:09.733     4 Jun 2027 19:52:36.478            26.746
                      69     4 Jun 2027 19:52:41.854     4 Jun 2027 19:53:15.621            33.767
                      70     4 Jun 2027 19:53:19.591     4 Jun 2027 19:54:12.917            53.326
                      71     4 Jun 2027 19:54:15.292     4 Jun 2027 19:58:11.994           236.702
                      72     4 Jun 2027 21:30:57.533     4 Jun 2027 21:37:53.431           415.898
                      73     4 Jun 2027 22:55:17.317     4 Jun 2027 22:57:10.849           113.532
                      74     4 Jun 2027 23:07:33.315     4 Jun 2027 23:07:59.750            26.434
                      75     5 Jun 2027 00:29:09.148     5 Jun 2027 00:30:32.239            83.091
                      76     5 Jun 2027 00:31:09.898     5 Jun 2027 00:35:10.159           240.262
                      77     5 Jun 2027 02:04:04.407     5 Jun 2027 02:12:12.449           488.042
                      78     5 Jun 2027 02:12:32.595     5 Jun 2027 02:13:30.980            58.385
                      79     5 Jun 2027 03:42:01.619     5 Jun 2027 03:49:30.007           448.389
                      80     5 Jun 2027 05:18:56.257     5 Jun 2027 05:24:17.481           321.225
                      81     5 Jun 2027 05:24:37.081     5 Jun 2027 05:25:27.680            50.599
                      82     5 Jun 2027 06:56:39.612     5 Jun 2027 07:01:01.432           261.820
                      83     5 Jun 2027 08:30:54.263     5 Jun 2027 08:31:54.413            60.150
                      84     5 Jun 2027 08:32:39.163     5 Jun 2027 08:36:14.105           214.942
                      85     5 Jun 2027 13:38:45.075     5 Jun 2027 13:41:55.950           190.875
                      86     5 Jun 2027 13:42:09.925     5 Jun 2027 13:43:10.968            61.043
                      87     5 Jun 2027 15:15:06.270     5 Jun 2027 15:19:36.702           270.432
                      88     5 Jun 2027 15:19:54.357     5 Jun 2027 15:21:42.243           107.887
                      89     5 Jun 2027 16:51:40.197     5 Jun 2027 16:58:15.219           395.022
                      90     5 Jun 2027 18:27:12.854     5 Jun 2027 18:34:58.063           465.209
                      91     5 Jun 2027 20:04:52.376     5 Jun 2027 20:05:07.138            14.762
                      92     5 Jun 2027 20:05:16.206     5 Jun 2027 20:06:17.487            61.281
                      93     5 Jun 2027 20:06:36.175     5 Jun 2027 20:06:41.021             4.846
                      94     5 Jun 2027 20:07:02.895     5 Jun 2027 20:10:28.652           205.756
                      95     5 Jun 2027 21:43:23.285     5 Jun 2027 21:48:26.247           302.962
                      96     5 Jun 2027 23:07:13.048     5 Jun 2027 23:09:29.727           136.679
                      97     6 Jun 2027 00:43:13.220     6 Jun 2027 00:46:56.573           223.353
                      98     6 Jun 2027 02:16:57.703     6 Jun 2027 02:25:32.057           514.355
                      99     6 Jun 2027 03:54:22.653     6 Jun 2027 04:01:23.446           420.793
                     100     6 Jun 2027 05:31:26.291     6 Jun 2027 05:35:55.581           269.289
                     101     6 Jun 2027 05:36:03.056     6 Jun 2027 05:37:16.611            73.555
                     102     6 Jun 2027 07:08:11.282     6 Jun 2027 07:12:59.535           288.254
                     103     6 Jun 2027 08:43:27.630     6 Jun 2027 08:43:35.518             7.888
                     104     6 Jun 2027 08:45:08.841     6 Jun 2027 08:47:59.018           170.178
                     105     6 Jun 2027 13:51:06.090     6 Jun 2027 13:53:29.154           143.064
                     106     6 Jun 2027 13:53:50.997     6 Jun 2027 13:56:06.252           135.255
                     107     6 Jun 2027 15:27:00.590     6 Jun 2027 15:33:54.415           413.826
                     108     6 Jun 2027 17:03:44.091     6 Jun 2027 17:10:09.911           385.820
                     109     6 Jun 2027 18:39:12.418     6 Jun 2027 18:46:42.236           449.818
                     110     6 Jun 2027 20:17:35.934     6 Jun 2027 20:17:55.069            19.135
                     111     6 Jun 2027 20:18:08.476     6 Jun 2027 20:23:35.930           327.454
                     112     6 Jun 2027 21:55:43.546     6 Jun 2027 22:00:17.815           274.269
                     113     6 Jun 2027 23:19:04.560     6 Jun 2027 23:21:40.913           156.354
                     114     7 Jun 2027 00:55:27.636     7 Jun 2027 00:59:02.520           214.884
                     115     7 Jun 2027 02:29:31.691     7 Jun 2027 02:36:26.206           414.514
                     116     7 Jun 2027 02:36:28.286     7 Jun 2027 02:37:29.363            61.077
                     117     7 Jun 2027 04:06:36.054     7 Jun 2027 04:13:18.636           402.582
                     118     7 Jun 2027 05:43:31.939     7 Jun 2027 05:48:32.537           300.598
                     119     7 Jun 2027 07:20:18.387     7 Jun 2027 07:25:00.973           282.586
                     120     7 Jun 2027 08:58:30.925     7 Jun 2027 08:59:28.177            57.252
                     121     7 Jun 2027 14:03:08.575     7 Jun 2027 14:05:23.288           134.713
                     122     7 Jun 2027 15:39:04.808     7 Jun 2027 15:45:36.933           392.125
                     123     7 Jun 2027 17:15:46.813     7 Jun 2027 17:22:14.626           387.813
                     124     7 Jun 2027 18:51:20.644     7 Jun 2027 18:58:51.120           450.475
                     125     7 Jun 2027 20:29:39.139     7 Jun 2027 20:30:35.619            56.480
                     126     7 Jun 2027 20:30:41.379     7 Jun 2027 20:35:43.236           301.858
                     127     7 Jun 2027 22:08:09.850     7 Jun 2027 22:12:05.489           235.640
                     128     7 Jun 2027 23:31:09.073     7 Jun 2027 23:33:48.685           159.612
                     129     8 Jun 2027 01:07:38.009     8 Jun 2027 01:11:08.072           210.063
                     130     8 Jun 2027 02:42:43.329     8 Jun 2027 02:49:30.609           407.280
                     131     8 Jun 2027 04:19:05.448     8 Jun 2027 04:25:25.163           379.715
                     132     8 Jun 2027 05:56:34.623     8 Jun 2027 06:01:01.581           266.957
                     133     8 Jun 2027 07:32:40.051     8 Jun 2027 07:36:54.396           254.345
                     134     8 Jun 2027 14:15:13.055     8 Jun 2027 14:18:18.316           185.261
                     135     8 Jun 2027 15:51:08.579     8 Jun 2027 15:57:01.115           352.536
                     136     8 Jun 2027 17:27:51.153     8 Jun 2027 17:34:02.104           370.951
                     137     8 Jun 2027 19:03:21.654     8 Jun 2027 19:10:26.979           425.324
                     138     8 Jun 2027 20:41:29.883     8 Jun 2027 20:42:28.059            58.176
                     139     8 Jun 2027 20:42:37.275     8 Jun 2027 20:47:38.437           301.162
                     140     8 Jun 2027 22:19:46.540     8 Jun 2027 22:20:22.043            35.503
                     141     8 Jun 2027 22:20:35.056     8 Jun 2027 22:23:31.691           176.636
                     142     8 Jun 2027 23:43:04.753     8 Jun 2027 23:46:20.692           195.939
                     143     9 Jun 2027 01:19:42.347     9 Jun 2027 01:23:07.419           205.071
                     144     9 Jun 2027 02:54:52.810     9 Jun 2027 03:01:29.187           396.377
                     145     9 Jun 2027 04:31:06.408     9 Jun 2027 04:36:43.890           337.482
                     146     9 Jun 2027 04:36:48.391     9 Jun 2027 04:36:57.785             9.394
                     147     9 Jun 2027 04:37:06.614     9 Jun 2027 04:37:14.393             7.779
                     148     9 Jun 2027 06:08:40.822     9 Jun 2027 06:13:11.945           271.123
                     149     9 Jun 2027 07:44:42.158     9 Jun 2027 07:48:53.755           251.597
                     150     9 Jun 2027 07:48:57.756     9 Jun 2027 07:49:42.667            44.911
                     151     9 Jun 2027 12:51:41.475     9 Jun 2027 12:52:00.689            19.214
                     152     9 Jun 2027 14:27:21.122     9 Jun 2027 14:30:17.508           176.386
                     153     9 Jun 2027 16:03:12.920     9 Jun 2027 16:08:47.812           334.891
                     154     9 Jun 2027 17:39:48.427     9 Jun 2027 17:46:32.583           404.156
                     155     9 Jun 2027 19:15:18.820     9 Jun 2027 19:22:14.081           415.261
                     156     9 Jun 2027 20:54:36.009     9 Jun 2027 20:59:49.659           313.650
                     157     9 Jun 2027 21:00:54.171     9 Jun 2027 21:02:27.017            92.846
                     158     9 Jun 2027 22:20:51.622     9 Jun 2027 22:21:10.507            18.885
                     159     9 Jun 2027 22:31:42.625     9 Jun 2027 22:35:18.960           216.334
                     160     9 Jun 2027 23:55:40.146     9 Jun 2027 23:58:24.820           164.674
                     161    10 Jun 2027 01:31:26.441    10 Jun 2027 01:35:40.160           253.719
                     162    10 Jun 2027 03:06:16.883    10 Jun 2027 03:13:39.615           442.732
                     163    10 Jun 2027 04:42:52.978    10 Jun 2027 04:49:16.850           383.872
                     164    10 Jun 2027 06:21:10.824    10 Jun 2027 06:25:05.538           234.714
                     165    10 Jun 2027 07:54:30.886    10 Jun 2027 07:54:42.617            11.731
                     166    10 Jun 2027 07:56:30.503    10 Jun 2027 08:00:43.400           252.897
                     167    10 Jun 2027 08:01:02.844    10 Jun 2027 08:02:00.778            57.933
                     168    10 Jun 2027 13:02:58.555    10 Jun 2027 13:05:01.396           122.841
                     169    10 Jun 2027 14:39:08.019    10 Jun 2027 14:42:28.072           200.053
                     170    10 Jun 2027 16:15:43.211    10 Jun 2027 16:21:36.197           352.986
                     171    10 Jun 2027 17:51:54.160    10 Jun 2027 17:58:42.391           408.231
                     172    10 Jun 2027 19:27:59.260    10 Jun 2027 19:34:24.641           385.381
                     173    10 Jun 2027 21:06:40.723    10 Jun 2027 21:14:20.353           459.630
                     174    10 Jun 2027 22:32:08.162    10 Jun 2027 22:33:26.681            78.519
                     175    10 Jun 2027 22:43:40.156    10 Jun 2027 22:45:19.229            99.073
                     176    11 Jun 2027 00:06:19.272    11 Jun 2027 00:07:17.730            58.458
                     177    11 Jun 2027 00:07:54.759    11 Jun 2027 00:10:59.432           184.673
                     178    11 Jun 2027 01:41:36.386    11 Jun 2027 01:42:38.942            62.556
                     179    11 Jun 2027 01:43:10.363    11 Jun 2027 01:47:59.334           288.970
                     180    11 Jun 2027 03:18:10.627    11 Jun 2027 03:25:39.998           449.371
                     181    11 Jun 2027 04:55:14.107    11 Jun 2027 05:01:04.886           350.779
                     182    11 Jun 2027 05:01:07.878    11 Jun 2027 05:01:24.573            16.695
                     183    11 Jun 2027 06:33:08.381    11 Jun 2027 06:37:08.037           239.656
                     184    11 Jun 2027 08:06:21.243    11 Jun 2027 08:12:42.721           381.478
                     185    11 Jun 2027 08:13:00.698    11 Jun 2027 08:14:14.117            73.419
                     186    11 Jun 2027 13:14:52.579    11 Jun 2027 13:17:35.368           162.789
                     187    11 Jun 2027 14:51:12.399    11 Jun 2027 14:54:36.443           204.044
                     188    11 Jun 2027 14:57:06.103    11 Jun 2027 14:57:43.583            37.480
                     189    11 Jun 2027 16:27:49.138    11 Jun 2027 16:34:01.152           372.013
                     190    11 Jun 2027 18:04:01.967    11 Jun 2027 18:10:36.668           394.701
                     191    11 Jun 2027 19:40:04.782    11 Jun 2027 19:46:12.872           368.090
                     192    11 Jun 2027 21:19:09.749    11 Jun 2027 21:26:16.349           426.601
                     193    11 Jun 2027 22:43:26.119    11 Jun 2027 22:45:37.128           131.009
                     194    11 Jun 2027 22:55:39.422    11 Jun 2027 22:56:39.950            60.529
                     195    12 Jun 2027 00:17:55.011    12 Jun 2027 00:19:01.226            66.214
                     196    12 Jun 2027 00:19:50.167    12 Jun 2027 00:23:13.580           203.413
                     197    12 Jun 2027 01:52:48.047    12 Jun 2027 01:54:53.210           125.163
                     198    12 Jun 2027 01:54:58.106    12 Jun 2027 02:00:18.814           320.707
                     199    12 Jun 2027 02:00:50.274    12 Jun 2027 02:01:19.209            28.935
                     200    12 Jun 2027 03:30:22.312    12 Jun 2027 03:37:43.507           441.196
                     201    12 Jun 2027 05:07:05.146    12 Jun 2027 05:13:18.311           373.165
                     202    12 Jun 2027 05:13:22.496    12 Jun 2027 05:13:43.105            20.608
                     203    12 Jun 2027 06:45:08.215    12 Jun 2027 06:49:17.710           249.495
                     204    12 Jun 2027 08:18:49.184    12 Jun 2027 08:26:08.909           439.725
                     205    12 Jun 2027 13:26:52.880    12 Jun 2027 13:29:45.164           172.284
                     206    12 Jun 2027 15:03:24.763    12 Jun 2027 15:06:57.428           212.665
                     207    12 Jun 2027 15:08:07.970    12 Jun 2027 15:11:07.493           179.523
                     208    12 Jun 2027 16:40:02.409    12 Jun 2027 16:46:15.571           373.162
                     209    12 Jun 2027 18:15:31.067    12 Jun 2027 18:16:11.050            39.983
                     210    12 Jun 2027 18:16:13.426    12 Jun 2027 18:23:06.774           413.347
                     211    12 Jun 2027 19:52:24.630    12 Jun 2027 19:52:51.387            26.757
                     212    12 Jun 2027 19:52:58.421    12 Jun 2027 19:53:30.341            31.920
                     213    12 Jun 2027 19:53:34.422    12 Jun 2027 19:54:27.366            52.944
                     214    12 Jun 2027 19:54:30.034    12 Jun 2027 19:58:26.987           236.953
                     215    12 Jun 2027 21:31:12.679    12 Jun 2027 21:38:08.113           415.434
                     216    12 Jun 2027 22:55:31.949    12 Jun 2027 22:57:25.665           113.716
                     217    12 Jun 2027 23:07:48.222    12 Jun 2027 23:08:14.233            26.011
                     218    13 Jun 2027 00:29:23.604    13 Jun 2027 00:30:46.687            83.084
                     219    13 Jun 2027 00:31:25.016    13 Jun 2027 00:35:24.952           239.936
                     220    13 Jun 2027 02:04:18.509    13 Jun 2027 02:12:27.226           488.716
                     221    13 Jun 2027 02:12:47.263    13 Jun 2027 02:13:46.045            58.783
                     222    13 Jun 2027 03:42:16.402    13 Jun 2027 03:49:44.911           448.510
                     223    13 Jun 2027 05:19:11.489    13 Jun 2027 05:24:31.493           320.004
                     224    13 Jun 2027 05:24:51.757    13 Jun 2027 05:25:42.243            50.486
                     225    13 Jun 2027 06:56:54.244    13 Jun 2027 07:01:16.193           261.950
                     226    13 Jun 2027 08:31:09.504    13 Jun 2027 08:32:22.816            73.312
                     227    13 Jun 2027 08:32:53.968    13 Jun 2027 08:36:28.470           214.503
                     228    13 Jun 2027 13:38:59.887    13 Jun 2027 13:42:11.193           191.306
                     229    13 Jun 2027 13:42:25.056    13 Jun 2027 13:43:26.556            61.501
                     230    13 Jun 2027 15:15:21.082    13 Jun 2027 15:19:52.228           271.145
                     231    13 Jun 2027 15:20:09.439    13 Jun 2027 15:21:57.604           108.165
                     232    13 Jun 2027 15:22:46.390    13 Jun 2027 15:23:22.597            36.207
                     233    13 Jun 2027 16:51:54.944    13 Jun 2027 16:58:30.093           395.148
                     234    13 Jun 2027 18:27:27.663    13 Jun 2027 18:35:12.888           465.225
                     235    13 Jun 2027 20:05:07.356    13 Jun 2027 20:05:21.707            14.351
                     236    13 Jun 2027 20:05:31.054    13 Jun 2027 20:06:32.354            61.300
                     237    13 Jun 2027 20:06:50.299    13 Jun 2027 20:06:57.323             7.024
                     238    13 Jun 2027 20:07:17.661    13 Jun 2027 20:10:43.846           206.184
                     239    13 Jun 2027 21:43:38.568    13 Jun 2027 21:48:40.994           302.425
                     240    13 Jun 2027 23:07:27.761    13 Jun 2027 23:09:44.704           136.943

Min Duration          93     5 Jun 2027 20:06:36.175     5 Jun 2027 20:06:41.021             4.846
Max Duration          98     6 Jun 2027 02:16:57.703     6 Jun 2027 02:25:32.057           514.355
Mean Duration                                                                              221.587
Total Duration                                                                           53180.829


Russia-To-KinoSat_110203
------------------------
                  Access        Start Time (UTCG)           Stop Time (UTCG)        Duration (sec)
                  ------    ------------------------    ------------------------    --------------
                       1     1 Jun 2027 01:09:49.869     1 Jun 2027 01:13:28.505           218.635
                       2     1 Jun 2027 02:45:00.612     1 Jun 2027 02:51:38.601           397.989
                       3     1 Jun 2027 04:21:19.579     1 Jun 2027 04:27:36.416           376.838
                       4     1 Jun 2027 05:58:42.997     1 Jun 2027 06:03:15.143           272.146
                       5     1 Jun 2027 07:34:54.284     1 Jun 2027 07:39:07.911           253.626
                       6     1 Jun 2027 14:17:26.075     1 Jun 2027 14:20:27.674           181.598
                       7     1 Jun 2027 15:53:20.471     1 Jun 2027 15:59:06.629           346.159
                       8     1 Jun 2027 17:30:02.344     1 Jun 2027 17:36:13.352           371.007
                       9     1 Jun 2027 19:05:32.472     1 Jun 2027 19:12:32.411           419.938
                      10     1 Jun 2027 20:43:42.068     1 Jun 2027 20:44:27.015            44.947
                      11     1 Jun 2027 20:44:48.262     1 Jun 2027 20:49:50.694           302.432
                      12     1 Jun 2027 22:21:55.239     1 Jun 2027 22:22:33.316            38.077
                      13     1 Jun 2027 22:23:02.607     1 Jun 2027 22:25:29.529           146.922
                      14     1 Jun 2027 23:45:22.743     1 Jun 2027 23:48:32.358           189.615
                      15     2 Jun 2027 01:21:50.428     2 Jun 2027 01:25:19.799           209.371
                      16     2 Jun 2027 02:57:03.254     2 Jun 2027 03:03:44.072           400.818
                      17     2 Jun 2027 04:32:58.492     2 Jun 2027 04:39:17.690           379.198
                      18     2 Jun 2027 06:10:57.695     2 Jun 2027 06:15:21.837           264.142
                      19     2 Jun 2027 07:46:49.147     2 Jun 2027 07:51:02.252           253.105
                      20     2 Jun 2027 07:51:08.035     2 Jun 2027 07:51:59.405            51.370
                      21     2 Jun 2027 12:53:43.342     2 Jun 2027 12:54:51.252            67.910
                      22     2 Jun 2027 14:29:27.664     2 Jun 2027 14:32:31.612           183.948
                      23     2 Jun 2027 16:05:31.822     2 Jun 2027 16:10:58.830           327.009
                      24     2 Jun 2027 17:42:00.643     2 Jun 2027 17:48:21.711           381.068
                      25     2 Jun 2027 19:17:29.146     2 Jun 2027 19:24:31.359           422.213
                      26     2 Jun 2027 20:56:47.242     2 Jun 2027 21:02:04.579           317.337
                      27     2 Jun 2027 21:02:59.180     2 Jun 2027 21:04:35.549            96.369
                      28     2 Jun 2027 22:22:55.062     2 Jun 2027 22:23:24.265            29.203
                      29     2 Jun 2027 22:33:52.825     2 Jun 2027 22:37:22.936           210.111
                      30     2 Jun 2027 23:57:49.004     3 Jun 2027 00:00:45.901           176.898
                      31     3 Jun 2027 01:33:34.301     3 Jun 2027 01:37:55.453           261.152
                      32     3 Jun 2027 03:08:18.200     3 Jun 2027 03:15:51.248           453.048
                      33     3 Jun 2027 04:45:07.313     3 Jun 2027 04:51:27.216           379.903
                      34     3 Jun 2027 06:23:20.227     3 Jun 2027 06:27:16.185           235.958
                      35     3 Jun 2027 07:56:37.963     3 Jun 2027 07:58:10.539            92.576
                      36     3 Jun 2027 07:58:13.420     3 Jun 2027 08:02:59.321           285.901
                      37     3 Jun 2027 08:03:16.980     3 Jun 2027 08:04:21.888            64.908
                      38     3 Jun 2027 13:05:05.201     3 Jun 2027 13:07:20.027           134.826
                      39     3 Jun 2027 14:41:18.765     3 Jun 2027 14:44:43.086           204.321
                      40     3 Jun 2027 16:17:56.924     3 Jun 2027 16:24:06.027           369.103
                      41     3 Jun 2027 17:54:08.317     3 Jun 2027 18:00:53.291           404.975
                      42     3 Jun 2027 19:30:09.819     3 Jun 2027 19:36:33.835           384.016
                      43     3 Jun 2027 21:09:07.681     3 Jun 2027 21:16:29.198           441.517
                      44     3 Jun 2027 22:34:12.837     3 Jun 2027 22:35:38.790            85.953
                      45     3 Jun 2027 22:45:51.392     3 Jun 2027 22:47:19.174            87.782
                      46     4 Jun 2027 00:08:24.360     4 Jun 2027 00:09:25.252            60.893
                      47     4 Jun 2027 00:10:06.053     4 Jun 2027 00:13:12.312           186.259
                      48     4 Jun 2027 01:43:27.759     4 Jun 2027 01:44:46.603            78.844
                      49     4 Jun 2027 01:45:18.354     4 Jun 2027 01:50:11.762           293.408
                      50     4 Jun 2027 03:20:26.305     4 Jun 2027 03:27:50.381           444.076
                      51     4 Jun 2027 04:57:24.417     4 Jun 2027 05:03:17.606           353.189
                      52     4 Jun 2027 06:35:19.582     4 Jun 2027 06:39:18.764           239.182
                      53     4 Jun 2027 08:08:39.076     4 Jun 2027 08:14:55.070           375.994
                      54     4 Jun 2027 08:14:57.692     4 Jun 2027 08:16:25.618            87.926
                      55     4 Jun 2027 13:17:03.133     4 Jun 2027 13:19:41.646           158.512
                      56     4 Jun 2027 14:53:24.872     4 Jun 2027 14:56:48.779           203.907
                      57     4 Jun 2027 14:58:27.162     4 Jun 2027 15:00:10.165           103.003
                      58     4 Jun 2027 16:29:57.874     4 Jun 2027 16:36:15.143           377.269
                      59     4 Jun 2027 18:06:13.506     4 Jun 2027 18:12:50.223           396.716
                      60     4 Jun 2027 19:42:16.728     4 Jun 2027 19:43:51.142            94.414
                      61     4 Jun 2027 19:43:52.545     4 Jun 2027 19:48:21.976           269.430
                      62     4 Jun 2027 21:21:23.181     4 Jun 2027 21:28:25.988           422.806
                      63     4 Jun 2027 22:45:33.705     4 Jun 2027 22:47:50.457           136.752
                      64     4 Jun 2027 22:57:50.264     4 Jun 2027 22:58:46.691            56.427
                      65     5 Jun 2027 00:19:48.776     5 Jun 2027 00:21:12.959            84.183
                      66     5 Jun 2027 00:21:56.673     5 Jun 2027 00:25:26.033           209.360
                      67     5 Jun 2027 01:54:52.652     5 Jun 2027 02:02:31.373           458.721
                      68     5 Jun 2027 02:02:59.637     5 Jun 2027 02:03:31.402            31.765
                      69     5 Jun 2027 03:32:28.422     5 Jun 2027 03:39:54.160           445.738
                      70     5 Jun 2027 05:09:14.041     5 Jun 2027 05:15:11.791           357.750
                      71     5 Jun 2027 05:15:30.510     5 Jun 2027 05:15:55.426            24.916
                      72     5 Jun 2027 06:47:18.899     5 Jun 2027 06:51:27.865           248.965
                      73     5 Jun 2027 08:21:05.502     5 Jun 2027 08:27:53.867           408.365
                      74     5 Jun 2027 13:29:05.944     5 Jun 2027 13:32:00.248           174.304
                      75     5 Jun 2027 15:05:35.178     5 Jun 2027 15:09:14.630           219.452
                      76     5 Jun 2027 15:10:18.781     5 Jun 2027 15:13:25.359           186.578
                      77     5 Jun 2027 16:42:08.025     5 Jun 2027 16:48:28.816           380.792
                      78     5 Jun 2027 18:17:40.465     5 Jun 2027 18:18:25.381            44.916
                      79     5 Jun 2027 18:18:31.107     5 Jun 2027 18:25:21.526           410.420
                      80     5 Jun 2027 19:54:43.938     5 Jun 2027 19:55:01.601            17.663
                      81     5 Jun 2027 19:55:09.648     5 Jun 2027 19:55:39.109            29.462
                      82     5 Jun 2027 19:55:43.854     5 Jun 2027 19:56:38.113            54.259
                      83     5 Jun 2027 19:56:38.733     5 Jun 2027 20:00:40.528           241.795
                      84     5 Jun 2027 21:33:27.982     5 Jun 2027 21:40:18.284           410.302
                      85     5 Jun 2027 22:57:41.441     5 Jun 2027 22:59:36.087           114.645
                      86     5 Jun 2027 23:10:11.313     5 Jun 2027 23:10:17.322             6.008
                      87     6 Jun 2027 00:31:30.943     6 Jun 2027 00:37:30.329           359.387
                      88     6 Jun 2027 02:06:23.468     6 Jun 2027 02:14:39.075           495.608
                      89     6 Jun 2027 02:14:56.973     6 Jun 2027 02:15:57.634            60.661
                      90     6 Jun 2027 03:44:28.859     6 Jun 2027 03:51:55.658           446.799
                      91     6 Jun 2027 05:21:22.515     6 Jun 2027 05:26:30.050           307.534
                      92     6 Jun 2027 05:26:41.331     6 Jun 2027 05:27:49.830            68.500
                      93     6 Jun 2027 06:58:31.954     6 Jun 2027 07:03:26.146           294.192
                      94     6 Jun 2027 08:33:20.598     6 Jun 2027 08:34:30.983            70.385
                      95     6 Jun 2027 08:35:13.989     6 Jun 2027 08:38:35.853           201.864
                      96     6 Jun 2027 13:41:11.464     6 Jun 2027 13:45:59.673           288.209
                      97     6 Jun 2027 15:17:32.063     6 Jun 2027 15:22:11.910           279.847
                      98     6 Jun 2027 15:22:21.696     6 Jun 2027 15:24:11.824           110.128
                      99     6 Jun 2027 15:24:56.640     6 Jun 2027 15:25:43.015            46.375
                     100     6 Jun 2027 16:54:06.122     6 Jun 2027 17:00:40.878           394.757
                     101     6 Jun 2027 18:29:38.262     6 Jun 2027 18:37:24.476           466.215
                     102     6 Jun 2027 20:07:19.796     6 Jun 2027 20:07:31.821            12.025
                     103     6 Jun 2027 20:07:42.933     6 Jun 2027 20:08:44.636            61.704
                     104     6 Jun 2027 20:08:50.446     6 Jun 2027 20:12:58.363           247.917
                     105     6 Jun 2027 21:45:50.178     6 Jun 2027 21:50:48.624           298.446
                     106     6 Jun 2027 23:09:37.555     6 Jun 2027 23:11:57.137           139.582
                     107     7 Jun 2027 00:45:50.113     7 Jun 2027 00:49:22.746           212.633
                     108     7 Jun 2027 02:19:23.410     7 Jun 2027 02:27:57.057           513.646
                     109     7 Jun 2027 03:56:52.085     7 Jun 2027 04:03:40.761           408.676
