DATA_Files/Russia2Constellation/AreaTarget-Russia-To-Satellite-KinoSat_17_plane.txt

                                                                                                                                                                                                                                                                                           10 May 2023 22:38:40
Civil Air Patrol Use Only
AreaTarget-Russia-To-Satellite-KinoSat_111701, Satellite-KinoSat_111702, Satellite-KinoSat_111703, Satellite-KinoSat_111704, Satellite-KinoSat_111705, Satellite-KinoSat_111706, Satellite-KinoSat_111707, Satellite-KinoSat_111708, Satellite-KinoSat_111709, Satellite-KinoSat_111710:  Access Summary Report


Russia-To-KinoSat_111701
------------------------
                  Access        Start Time (UTCG)           Stop Time (UTCG)        Duration (sec)
                  ------    ------------------------    ------------------------    --------------
                       1     1 Jun 2027 00:35:20.395     1 Jun 2027 00:41:42.288           381.893
                       2     1 Jun 2027 02:10:52.111     1 Jun 2027 02:18:23.262           451.152
                       3     1 Jun 2027 03:48:59.135     1 Jun 2027 03:49:27.282            28.147
                       4     1 Jun 2027 03:49:31.256     1 Jun 2027 03:55:10.465           339.209
                       5     1 Jun 2027 05:26:59.781     1 Jun 2027 05:31:52.731           292.949
                       6     1 Jun 2027 06:50:40.600     1 Jun 2027 06:53:17.482           156.882
                       7     1 Jun 2027 08:27:07.240     1 Jun 2027 08:30:38.882           211.642
                       8     1 Jun 2027 09:59:17.857     1 Jun 2027 09:59:24.734             6.877
                       9     1 Jun 2027 10:01:12.665     1 Jun 2027 10:08:02.666           410.001
                      10     1 Jun 2027 10:08:04.742     1 Jun 2027 10:09:06.457            61.715
                      11     1 Jun 2027 11:38:10.751     1 Jun 2027 11:44:55.051           404.300
                      12     1 Jun 2027 13:15:17.970     1 Jun 2027 13:19:36.142           258.172
                      13     1 Jun 2027 13:19:36.669     1 Jun 2027 13:20:31.663            54.995
                      14     1 Jun 2027 14:51:53.913     1 Jun 2027 14:57:01.946           308.034
                      15     1 Jun 2027 16:30:13.138     1 Jun 2027 16:31:03.522            50.384
                      16     1 Jun 2027 21:34:45.770     1 Jun 2027 21:37:03.352           137.582
                      17     1 Jun 2027 23:10:41.699     1 Jun 2027 23:17:12.620           390.921
                      18     2 Jun 2027 00:47:22.818     2 Jun 2027 00:53:53.515           390.697
                      19     2 Jun 2027 02:22:55.348     2 Jun 2027 02:30:27.368           452.020
                      20     2 Jun 2027 04:01:05.174     2 Jun 2027 04:02:08.636            63.462
                      21     2 Jun 2027 04:02:15.936     2 Jun 2027 04:07:22.231           306.295
                      22     2 Jun 2027 05:40:13.520     2 Jun 2027 05:43:46.722           213.202
                      23     2 Jun 2027 07:02:46.400     2 Jun 2027 07:05:47.643           181.244
                      24     2 Jun 2027 08:39:15.126     2 Jun 2027 08:42:44.960           209.834
                      25     2 Jun 2027 10:14:23.281     2 Jun 2027 10:21:07.448           404.167
                      26     2 Jun 2027 11:50:44.957     2 Jun 2027 11:57:01.800           376.843
                      27     2 Jun 2027 13:28:09.861     2 Jun 2027 13:32:38.827           268.966
                      28     2 Jun 2027 15:04:20.880     2 Jun 2027 15:08:31.313           250.433
                      29     2 Jun 2027 21:46:52.721     2 Jun 2027 21:49:56.065           183.344
                      30     2 Jun 2027 23:22:47.244     2 Jun 2027 23:28:29.298           342.054
                      31     3 Jun 2027 00:59:28.749     3 Jun 2027 01:05:38.607           369.858
                      32     3 Jun 2027 02:34:53.660     3 Jun 2027 02:41:56.987           423.327
                      33     3 Jun 2027 04:13:09.327     3 Jun 2027 04:13:50.725            41.397
                      34     3 Jun 2027 04:14:13.271     3 Jun 2027 04:19:17.239           303.968
                      35     3 Jun 2027 05:51:22.607     3 Jun 2027 05:51:59.004            36.397
                      36     3 Jun 2027 05:52:16.965     3 Jun 2027 05:54:53.921           156.955
                      37     3 Jun 2027 07:14:49.452     3 Jun 2027 07:17:57.709           188.257
                      38     3 Jun 2027 08:51:18.166     3 Jun 2027 08:54:43.953           205.787
                      39     3 Jun 2027 10:26:30.341     3 Jun 2027 10:33:06.273           395.932
                      40     3 Jun 2027 12:02:25.273     3 Jun 2027 12:08:34.892           369.619
                      41     3 Jun 2027 13:40:18.690     3 Jun 2027 13:44:48.282           269.592
                      42     3 Jun 2027 15:16:15.461     3 Jun 2027 15:20:29.721           254.260
                      43     3 Jun 2027 15:20:34.306     3 Jun 2027 15:21:21.271            46.965
                      44     3 Jun 2027 20:23:03.868     3 Jun 2027 20:24:20.522            76.654
                      45     3 Jun 2027 21:58:48.431     3 Jun 2027 22:01:57.794           189.363
                      46     3 Jun 2027 23:35:19.546     3 Jun 2027 23:40:26.133           306.587
                      47     4 Jun 2027 01:11:27.467     4 Jun 2027 01:18:16.917           409.449
                      48     4 Jun 2027 02:46:56.300     4 Jun 2027 02:53:57.625           421.326
                      49     4 Jun 2027 04:26:13.993     4 Jun 2027 04:31:36.127           322.134
                      50     4 Jun 2027 04:32:24.127     4 Jun 2027 04:34:01.233            97.106
                      51     4 Jun 2027 05:52:26.775     4 Jun 2027 05:52:48.761            21.986
                      52     4 Jun 2027 06:03:18.324     4 Jun 2027 06:06:46.778           208.453
                      53     4 Jun 2027 07:27:16.344     4 Jun 2027 07:30:02.195           165.851
                      54     4 Jun 2027 09:03:01.825     4 Jun 2027 09:07:17.367           255.543
                      55     4 Jun 2027 10:37:44.859     4 Jun 2027 10:45:16.723           451.864
                      56     4 Jun 2027 12:14:32.122     4 Jun 2027 12:20:54.110           381.988
                      57     4 Jun 2027 13:52:47.514     4 Jun 2027 13:56:42.782           235.268
                      58     4 Jun 2027 15:26:05.262     4 Jun 2027 15:27:37.242            91.981
                      59     4 Jun 2027 15:27:54.338     4 Jun 2027 15:32:21.090           266.752
                      60     4 Jun 2027 15:32:42.032     4 Jun 2027 15:33:45.810            63.778
                      61     4 Jun 2027 20:34:30.522     4 Jun 2027 20:36:51.290           140.768
                      62     4 Jun 2027 22:10:45.301     4 Jun 2027 22:14:08.821           203.520
                      63     4 Jun 2027 23:47:27.662     4 Jun 2027 23:53:34.984           367.323
                      64     5 Jun 2027 01:23:36.277     5 Jun 2027 01:30:18.217           401.941
                      65     5 Jun 2027 02:59:36.697     5 Jun 2027 03:05:59.806           383.109
                      66     5 Jun 2027 04:38:35.778     5 Jun 2027 04:45:54.945           439.168
                      67     5 Jun 2027 06:03:41.341     5 Jun 2027 06:05:04.460            83.119
                      68     5 Jun 2027 06:15:19.417     5 Jun 2027 06:16:43.521            84.105
                      69     5 Jun 2027 07:37:52.824     5 Jun 2027 07:38:52.719            59.896
                      70     5 Jun 2027 07:39:32.526     5 Jun 2027 07:42:37.133           184.607
                      71     5 Jun 2027 09:12:56.529     5 Jun 2027 09:14:17.518            80.989
                      72     5 Jun 2027 09:14:45.931     5 Jun 2027 09:19:37.119           291.188
                      73     5 Jun 2027 10:49:52.818     5 Jun 2027 10:57:17.493           444.675
                      74     5 Jun 2027 12:26:52.351     5 Jun 2027 12:32:42.647           350.296
                      75     5 Jun 2027 12:32:53.349     5 Jun 2027 12:33:01.466             8.116
                      76     5 Jun 2027 14:04:46.170     5 Jun 2027 14:08:45.138           238.968
                      77     5 Jun 2027 15:38:04.998     5 Jun 2027 15:44:21.728           376.731
                      78     5 Jun 2027 15:44:36.812     5 Jun 2027 15:45:52.619            75.807
                      79     5 Jun 2027 20:46:29.912     5 Jun 2027 20:49:07.748           157.836
                      80     5 Jun 2027 22:22:53.440     5 Jun 2027 22:26:15.817           202.377
                      81     5 Jun 2027 22:27:53.669     5 Jun 2027 22:29:42.937           109.268
                      82     5 Jun 2027 23:59:43.137     6 Jun 2027 00:05:42.228           359.091
                      83     6 Jun 2027 01:35:36.830     6 Jun 2027 01:42:20.476           403.645
                      84     6 Jun 2027 03:11:52.685     6 Jun 2027 03:13:16.887            84.202
                      85     6 Jun 2027 03:13:17.862     6 Jun 2027 03:17:48.784           270.922
                      86     6 Jun 2027 04:50:53.096     6 Jun 2027 04:57:52.857           419.761
                      87     6 Jun 2027 06:15:02.091     6 Jun 2027 06:17:15.491           133.400
                      88     6 Jun 2027 06:27:16.745     6 Jun 2027 06:28:11.618            54.873
                      89     6 Jun 2027 07:49:22.916     6 Jun 2027 07:50:39.272            76.356
                      90     6 Jun 2027 07:51:26.340     6 Jun 2027 07:54:51.872           205.532
                      91     6 Jun 2027 09:24:21.262     6 Jun 2027 09:31:56.758           455.497
                      92     6 Jun 2027 09:32:28.338     6 Jun 2027 09:32:56.206            27.868
                      93     6 Jun 2027 11:01:57.651     6 Jun 2027 11:09:21.320           443.668
                      94     6 Jun 2027 12:38:41.227     6 Jun 2027 12:44:55.897           374.669
                      95     6 Jun 2027 12:45:00.250     6 Jun 2027 12:45:21.199            20.949
                      96     6 Jun 2027 14:16:45.689     6 Jun 2027 14:20:55.363           249.674
                      97     6 Jun 2027 15:50:31.087     6 Jun 2027 15:57:22.090           411.003
                      98     6 Jun 2027 20:58:34.016     6 Jun 2027 21:01:19.253           165.237
                      99     6 Jun 2027 22:35:00.486     6 Jun 2027 22:38:51.596           231.110
                     100     6 Jun 2027 22:39:51.794     6 Jun 2027 22:42:54.369           182.575
                     101     7 Jun 2027 00:11:33.407     7 Jun 2027 00:17:57.612           384.205
                     102     7 Jun 2027 01:47:05.833     7 Jun 2027 01:54:51.066           465.234
                     103     7 Jun 2027 03:24:18.730     7 Jun 2027 03:24:24.915             6.185
                     104     7 Jun 2027 03:24:39.367     7 Jun 2027 03:30:09.205           329.839
                     105     7 Jun 2027 05:02:59.845     7 Jun 2027 05:09:01.252           361.407
                     106     7 Jun 2027 06:27:08.770     7 Jun 2027 06:29:03.432           114.662
                     107     7 Jun 2027 08:00:58.599     7 Jun 2027 08:07:02.885           364.287
                     108     7 Jun 2027 09:35:51.589     7 Jun 2027 09:44:05.333           493.744
                     109     7 Jun 2027 09:44:25.410     7 Jun 2027 09:45:23.992            58.582
                     110     7 Jun 2027 11:13:55.907     7 Jun 2027 11:21:23.102           447.195
                     111     7 Jun 2027 12:50:49.127     7 Jun 2027 12:56:00.586           311.459
                     112     7 Jun 2027 12:56:26.313     7 Jun 2027 12:57:19.744            53.431
                     113     7 Jun 2027 14:27:59.290     7 Jun 2027 14:32:54.132           294.842
                     114     7 Jun 2027 16:02:46.414     7 Jun 2027 16:03:58.421            72.006
                     115     7 Jun 2027 16:04:41.782     7 Jun 2027 16:08:04.266           202.484
                     116     7 Jun 2027 21:11:00.084     7 Jun 2027 21:13:09.328           129.244
                     117     7 Jun 2027 21:13:11.727     7 Jun 2027 21:15:28.613           136.886
                     118     7 Jun 2027 22:46:54.571     7 Jun 2027 22:51:42.696           288.125
                     119     7 Jun 2027 22:51:48.842     7 Jun 2027 22:53:42.324           113.483
                     120     7 Jun 2027 22:54:22.736     7 Jun 2027 22:55:09.547            46.812
                     121     8 Jun 2027 00:23:34.125     8 Jun 2027 00:30:07.862           393.737
                     122     8 Jun 2027 01:59:04.913     8 Jun 2027 02:06:50.709           465.795
                     123     8 Jun 2027 03:36:49.773     8 Jun 2027 03:36:56.430             6.657
                     124     8 Jun 2027 03:37:11.207     8 Jun 2027 03:38:11.954            60.748
                     125     8 Jun 2027 03:38:16.845     8 Jun 2027 03:42:26.577           249.732
                     126     8 Jun 2027 05:15:36.424     8 Jun 2027 05:20:17.100           280.676
                     127     8 Jun 2027 06:39:06.402     8 Jun 2027 06:41:23.496           137.094
                     128     8 Jun 2027 08:15:07.132     8 Jun 2027 08:18:47.060           219.928
                     129     8 Jun 2027 09:48:50.978     8 Jun 2027 09:56:20.764           449.786
                     130     8 Jun 2027 09:56:24.875     8 Jun 2027 09:57:25.587            60.711
                     131     8 Jun 2027 11:26:18.387     8 Jun 2027 11:33:19.501           421.114
                     132     8 Jun 2027 13:03:18.249     8 Jun 2027 13:07:47.867           269.618
                     133     8 Jun 2027 13:07:54.300     8 Jun 2027 13:09:09.720            75.420
                     134     8 Jun 2027 14:40:12.259     8 Jun 2027 14:44:52.173           279.915
                     135     8 Jun 2027 16:17:21.572     8 Jun 2027 16:19:51.026           149.453
                     136     8 Jun 2027 21:22:54.093     8 Jun 2027 21:25:31.877           157.784
                     137     8 Jun 2027 21:26:07.083     8 Jun 2027 21:27:40.522            93.439
                     138     8 Jun 2027 22:58:55.177     8 Jun 2027 23:05:35.216           400.040
                     139     9 Jun 2027 00:35:37.345     9 Jun 2027 00:41:59.812           382.467
                     140     9 Jun 2027 02:11:09.486     9 Jun 2027 02:18:41.956           452.470
                     141     9 Jun 2027 03:49:16.049     9 Jun 2027 03:49:43.220            27.172
                     142     9 Jun 2027 03:49:47.125     9 Jun 2027 03:55:24.197           337.072
                     143     9 Jun 2027 05:27:17.030     9 Jun 2027 05:32:09.680           292.650
                     144     9 Jun 2027 06:50:56.638     9 Jun 2027 06:53:35.287           158.649
                     145     9 Jun 2027 08:27:23.589     9 Jun 2027 08:30:57.116           213.527
                     146     9 Jun 2027 09:59:33.002     9 Jun 2027 09:59:42.546             9.544
                     147     9 Jun 2027 10:01:30.209     9 Jun 2027 10:08:19.176           408.968
                     148     9 Jun 2027 10:08:21.802     9 Jun 2027 10:09:23.147            61.345
                     149     9 Jun 2027 11:38:28.316     9 Jun 2027 11:45:12.411           404.095
                     150     9 Jun 2027 13:15:45.865     9 Jun 2027 13:19:52.874           247.009
                     151     9 Jun 2027 13:19:55.861     9 Jun 2027 13:20:46.300            50.438
                     152     9 Jun 2027 14:52:13.622     9 Jun 2027 14:57:20.112           306.490
                     153     9 Jun 2027 16:30:30.039     9 Jun 2027 16:31:16.866            46.828
                     154     9 Jun 2027 21:35:03.454     9 Jun 2027 21:37:20.235           136.781
                     155     9 Jun 2027 23:10:59.186     9 Jun 2027 23:17:28.252           389.066
                     156    10 Jun 2027 00:47:40.419    10 Jun 2027 00:54:10.549           390.130
                     157    10 Jun 2027 02:23:12.497    10 Jun 2027 02:30:42.038           449.541
                     158    10 Jun 2027 04:01:22.236    10 Jun 2027 04:02:24.665            62.429
                     159    10 Jun 2027 04:02:31.637    10 Jun 2027 04:07:38.918           307.280
                     160    10 Jun 2027 05:40:30.447    10 Jun 2027 05:44:02.423           211.975
                     161    10 Jun 2027 07:03:04.605    10 Jun 2027 07:06:06.257           181.653
                     162    10 Jun 2027 08:39:32.699    10 Jun 2027 08:43:11.613           218.914
                     163    10 Jun 2027 10:14:43.580    10 Jun 2027 10:21:24.557           400.977
                     164    10 Jun 2027 11:51:02.646    10 Jun 2027 11:57:19.256           376.610
                     165    10 Jun 2027 13:28:26.118    10 Jun 2027 13:32:57.314           271.196
                     166    10 Jun 2027 15:04:37.165    10 Jun 2027 15:08:50.001           252.836
                     167    10 Jun 2027 20:12:20.456    10 Jun 2027 20:12:27.859             7.403
                     168    10 Jun 2027 21:47:11.088    10 Jun 2027 21:50:16.757           185.670
                     169    10 Jun 2027 23:23:05.061    10 Jun 2027 23:28:45.887           340.826
                     170    11 Jun 2027 00:59:45.964    11 Jun 2027 01:05:55.438           369.474
                     171    11 Jun 2027 02:35:10.443    11 Jun 2027 02:42:13.041           422.598
                     172    11 Jun 2027 04:13:27.083    11 Jun 2027 04:14:08.331            41.248
                     173    11 Jun 2027 04:14:30.272    11 Jun 2027 04:19:34.358           304.086
                     174    11 Jun 2027 05:51:39.454    11 Jun 2027 05:52:15.880            36.426
                     175    11 Jun 2027 05:52:44.489    11 Jun 2027 05:55:10.710           146.221
                     176    11 Jun 2027 07:15:06.246    11 Jun 2027 07:18:15.329           189.083
                     177    11 Jun 2027 08:51:34.111    11 Jun 2027 08:55:00.146           206.034
                     178    11 Jun 2027 10:26:46.494    11 Jun 2027 10:33:23.390           396.896
                     179    11 Jun 2027 12:02:41.731    11 Jun 2027 12:08:59.315           377.584
                     180    11 Jun 2027 13:40:41.183    11 Jun 2027 13:45:05.318           264.135
                     181    11 Jun 2027 15:16:32.338    11 Jun 2027 15:20:45.902           253.564
                     182    11 Jun 2027 15:20:51.492    11 Jun 2027 15:21:41.069            49.577
                     183    11 Jun 2027 20:23:17.717    11 Jun 2027 20:24:39.762            82.045
                     184    11 Jun 2027 21:59:04.649    11 Jun 2027 22:02:12.898           188.249
                     185    11 Jun 2027 23:35:36.696    11 Jun 2027 23:40:44.606           307.909
                     186    12 Jun 2027 01:11:44.917    12 Jun 2027 01:18:34.075           409.158
                     187    12 Jun 2027 02:47:14.044    12 Jun 2027 02:54:21.239           427.195
                     188    12 Jun 2027 04:26:31.624    12 Jun 2027 04:32:08.692           337.068
                     189    12 Jun 2027 04:32:41.045    12 Jun 2027 04:34:18.450            97.405
                     190    12 Jun 2027 05:52:40.736    12 Jun 2027 05:53:07.333            26.597
                     191    12 Jun 2027 06:03:35.202    12 Jun 2027 06:07:02.012           206.810
                     192    12 Jun 2027 07:27:32.846    12 Jun 2027 07:30:27.785           174.939
                     193    12 Jun 2027 09:03:17.930    12 Jun 2027 09:07:35.266           257.336
                     194    12 Jun 2027 10:38:01.809    12 Jun 2027 10:45:34.289           452.480
                     195    12 Jun 2027 12:14:51.584    12 Jun 2027 12:21:11.010           379.426
                     196    12 Jun 2027 13:53:03.679    12 Jun 2027 13:56:59.870           236.191
                     197    12 Jun 2027 15:26:20.916    12 Jun 2027 15:32:42.174           381.258
                     198    12 Jun 2027 15:33:00.332    12 Jun 2027 15:34:04.216            63.884
                     199    12 Jun 2027 20:34:47.312    12 Jun 2027 20:37:10.766           143.454
                     200    12 Jun 2027 22:11:02.713    12 Jun 2027 22:14:26.261           203.548
                     201    12 Jun 2027 23:47:45.475    12 Jun 2027 23:53:55.414           369.939
                     202    13 Jun 2027 01:23:54.643    13 Jun 2027 01:30:34.022           399.379
                     203    13 Jun 2027 02:59:54.269    13 Jun 2027 03:06:19.027           384.758
                     204    13 Jun 2027 04:38:54.433    13 Jun 2027 04:46:12.041           437.608
                     205    13 Jun 2027 06:03:56.781    13 Jun 2027 06:05:22.320            85.539
                     206    13 Jun 2027 06:15:36.420    13 Jun 2027 06:16:57.006            80.586
                     207    13 Jun 2027 07:38:07.869    13 Jun 2027 07:39:09.163            61.294
                     208    13 Jun 2027 07:39:50.067    13 Jun 2027 07:42:54.755           184.689
                     209    13 Jun 2027 09:13:10.954    13 Jun 2027 09:14:30.415            79.460
                     210    13 Jun 2027 09:15:02.092    13 Jun 2027 09:19:55.090           292.998
                     211    13 Jun 2027 10:50:10.007    13 Jun 2027 10:57:34.896           444.889
                     212    13 Jun 2027 12:27:08.053    13 Jun 2027 12:33:00.761           352.708
                     213    13 Jun 2027 12:33:05.925    13 Jun 2027 12:33:17.104            11.179
                     214    13 Jun 2027 14:05:03.958    13 Jun 2027 14:09:02.628           238.670
                     215    13 Jun 2027 15:38:24.548    13 Jun 2027 15:44:38.576           374.029
                     216    13 Jun 2027 15:44:42.203    13 Jun 2027 15:46:10.068            87.865
                     217    13 Jun 2027 20:46:47.583    13 Jun 2027 20:49:25.549           157.966
                     218    13 Jun 2027 22:23:11.551    13 Jun 2027 22:26:33.385           201.834
                     219    13 Jun 2027 22:28:09.231    13 Jun 2027 22:30:13.348           124.117

Min Duration         103     7 Jun 2027 03:24:18.730     7 Jun 2027 03:24:24.915             6.185
Max Duration         108     7 Jun 2027 09:35:51.589     7 Jun 2027 09:44:05.333           493.744
Mean Duration                                                                              237.894
Total Duration                                                                           52098.794


Russia-To-KinoSat_111702
------------------------
                  Access        Start Time (UTCG)           Stop Time (UTCG)        Duration (sec)
                  ------    ------------------------    ------------------------    --------------
                       1     1 Jun 2027 00:25:44.700     1 Jun 2027 00:32:17.605           392.905
                       2     1 Jun 2027 02:01:13.452     1 Jun 2027 02:08:53.810           460.359
                       3     1 Jun 2027 03:39:21.857     1 Jun 2027 03:40:15.541            53.683
                       4     1 Jun 2027 03:40:25.028     1 Jun 2027 03:41:06.760            41.732
                       5     1 Jun 2027 03:41:07.359     1 Jun 2027 03:44:38.004           210.645
                       6     1 Jun 2027 05:17:47.061     1 Jun 2027 05:22:28.514           281.452
                       7     1 Jun 2027 06:41:13.096     1 Jun 2027 06:43:33.943           140.847
                       8     1 Jun 2027 08:17:27.701     1 Jun 2027 08:20:59.104           211.403
                       9     1 Jun 2027 09:51:00.177     1 Jun 2027 09:58:30.968           450.791
                      10     1 Jun 2027 09:58:32.431     1 Jun 2027 09:59:33.752            61.321
                      11     1 Jun 2027 11:28:32.805     1 Jun 2027 11:35:17.060           404.256
                      12     1 Jun 2027 13:05:27.384     1 Jun 2027 13:09:56.871           269.488
                      13     1 Jun 2027 13:10:01.772     1 Jun 2027 13:11:18.573            76.800
                      14     1 Jun 2027 14:42:20.607     1 Jun 2027 14:46:56.431           275.824
                      15     1 Jun 2027 16:19:31.164     1 Jun 2027 16:21:57.934           146.770
                      16     1 Jun 2027 21:25:02.033     1 Jun 2027 21:27:36.081           154.048
                      17     1 Jun 2027 21:28:21.205     1 Jun 2027 21:29:39.418            78.213
                      18     1 Jun 2027 23:01:04.843     1 Jun 2027 23:07:41.740           396.897
                      19     2 Jun 2027 00:37:46.066     2 Jun 2027 00:44:09.529           383.463
                      20     2 Jun 2027 02:13:19.038     2 Jun 2027 02:20:51.585           452.547
                      21     2 Jun 2027 03:51:22.770     2 Jun 2027 03:51:50.895            28.126
                      22     2 Jun 2027 03:51:53.238     2 Jun 2027 03:57:34.355           341.117
                      23     2 Jun 2027 05:29:25.744     2 Jun 2027 05:34:08.677           282.933
                      24     2 Jun 2027 06:53:04.816     2 Jun 2027 06:55:43.905           159.089
                      25     2 Jun 2027 08:29:32.020     2 Jun 2027 08:33:07.558           215.538
                      26     2 Jun 2027 10:01:46.620     2 Jun 2027 10:01:49.971             3.351
                      27     2 Jun 2027 10:03:39.415     2 Jun 2027 10:10:26.829           407.414
                      28     2 Jun 2027 10:10:29.920     2 Jun 2027 10:11:28.589            58.669
                      29     2 Jun 2027 11:40:37.836     2 Jun 2027 11:47:21.915           404.080
                      30     2 Jun 2027 13:18:10.334     2 Jun 2027 13:22:03.703           233.369
                      31     2 Jun 2027 13:22:05.405     2 Jun 2027 13:22:44.580            39.174
                      32     2 Jun 2027 14:54:28.081     2 Jun 2027 14:59:14.996           286.915
                      33     2 Jun 2027 16:32:41.334     2 Jun 2027 16:33:12.276            30.942
                      34     2 Jun 2027 21:37:13.191     2 Jun 2027 21:39:31.139           137.948
                      35     2 Jun 2027 23:13:08.479     2 Jun 2027 23:19:29.240           380.761
                      36     3 Jun 2027 00:49:50.122     3 Jun 2027 00:56:18.338           388.215
                      37     3 Jun 2027 02:25:21.720     3 Jun 2027 02:32:45.805           444.085
                      38     3 Jun 2027 04:03:30.921     3 Jun 2027 04:04:31.286            60.366
                      39     3 Jun 2027 04:04:39.969     3 Jun 2027 04:09:50.814           310.845
                      40     3 Jun 2027 05:41:52.509     3 Jun 2027 05:42:17.196            24.687
                      41     3 Jun 2027 05:42:39.152     3 Jun 2027 05:45:46.498           187.346
                      42     3 Jun 2027 07:05:13.154     3 Jun 2027 07:08:16.841           183.686
                      43     3 Jun 2027 08:41:42.371     3 Jun 2027 08:45:20.139           217.768
                      44     3 Jun 2027 10:16:53.740     3 Jun 2027 10:23:30.782           397.042
                      45     3 Jun 2027 11:53:12.880     3 Jun 2027 11:59:28.276           375.396
                      46     3 Jun 2027 13:30:34.368     3 Jun 2027 13:35:07.496           273.127
                      47     3 Jun 2027 15:06:45.275     3 Jun 2027 15:11:21.491           276.216
                      48     3 Jun 2027 20:14:24.468     3 Jun 2027 20:14:40.300            15.832
                      49     3 Jun 2027 21:49:25.093     3 Jun 2027 21:52:25.746           180.652
                      50     3 Jun 2027 23:25:14.414     3 Jun 2027 23:30:51.756           337.343
                      51     4 Jun 2027 01:01:54.647     4 Jun 2027 01:08:03.076           368.428
                      52     4 Jun 2027 02:37:19.068     4 Jun 2027 02:44:19.945           420.877
                      53     4 Jun 2027 04:15:35.667     4 Jun 2027 04:15:51.237            15.571
                      54     4 Jun 2027 04:16:38.242     4 Jun 2027 04:21:41.247           303.005
                      55     4 Jun 2027 04:23:50.919     4 Jun 2027 04:24:24.735            33.816
                      56     4 Jun 2027 05:53:47.009     4 Jun 2027 05:54:24.678            37.670
                      57     4 Jun 2027 05:54:54.658     4 Jun 2027 05:57:21.225           146.567
                      58     4 Jun 2027 07:17:55.979     4 Jun 2027 07:20:24.539           148.559
                      59     4 Jun 2027 08:53:39.605     4 Jun 2027 08:57:12.197           212.591
                      60     4 Jun 2027 10:28:38.084     4 Jun 2027 10:35:35.689           417.606
                      61     4 Jun 2027 12:04:49.058     4 Jun 2027 12:11:10.371           381.313
                      62     4 Jun 2027 13:42:48.568     4 Jun 2027 13:47:13.593           265.025
                      63     4 Jun 2027 15:18:39.078     4 Jun 2027 15:22:53.936           254.858
                      64     4 Jun 2027 15:23:00.050     4 Jun 2027 15:23:52.910            52.859
                      65     4 Jun 2027 20:25:20.306     4 Jun 2027 20:26:51.102            90.795
                      66     4 Jun 2027 22:01:11.780     4 Jun 2027 22:04:21.496           189.716
                      67     4 Jun 2027 23:37:44.844     4 Jun 2027 23:42:54.316           309.472
                      68     5 Jun 2027 01:13:53.963     5 Jun 2027 01:20:41.283           407.319
                      69     5 Jun 2027 02:49:25.341     5 Jun 2027 02:56:28.583           423.242
                      70     5 Jun 2027 04:28:41.139     5 Jun 2027 04:34:19.674           338.535
                      71     5 Jun 2027 04:34:50.434     5 Jun 2027 04:36:25.594            95.160
                      72     5 Jun 2027 05:54:43.975     5 Jun 2027 05:55:17.219            33.244
                      73     5 Jun 2027 06:05:43.329     5 Jun 2027 06:09:02.799           199.471
                      74     5 Jun 2027 07:29:39.839     5 Jun 2027 07:32:38.950           179.111
                      75     5 Jun 2027 09:04:15.850     5 Jun 2027 09:04:20.672             4.821
                      76     5 Jun 2027 09:05:24.651     5 Jun 2027 09:09:48.643           263.992
                      77     5 Jun 2027 10:40:10.894     5 Jun 2027 10:47:43.628           452.734
                      78     5 Jun 2027 12:17:03.369     5 Jun 2027 12:23:19.706           376.337
                      79     5 Jun 2027 13:55:10.884     5 Jun 2027 13:59:08.534           237.651
                      80     5 Jun 2027 15:28:26.822     5 Jun 2027 15:34:54.030           387.208
                      81     5 Jun 2027 15:35:10.250     5 Jun 2027 15:36:16.305            66.056
                      82     5 Jun 2027 20:36:55.239     5 Jun 2027 20:39:23.772           148.533
                      83     5 Jun 2027 22:13:11.983     5 Jun 2027 22:16:35.185           203.202
                      84     5 Jun 2027 23:49:54.352     5 Jun 2027 23:56:07.563           373.211
                      85     6 Jun 2027 01:26:01.856     6 Jun 2027 01:32:38.557           396.701
                      86     6 Jun 2027 03:02:03.706     6 Jun 2027 03:08:28.476           384.770
                      87     6 Jun 2027 04:41:07.115     6 Jun 2027 04:48:18.579           431.464
                      88     6 Jun 2027 06:06:04.182     6 Jun 2027 06:07:32.117            87.934
                      89     6 Jun 2027 06:17:45.558     6 Jun 2027 06:19:04.792            79.233
                      90     6 Jun 2027 07:40:00.077     6 Jun 2027 07:41:15.766            75.689
                      91     6 Jun 2027 07:41:58.236     6 Jun 2027 07:45:05.951           187.715
                      92     6 Jun 2027 09:15:10.642     6 Jun 2027 09:16:36.132            85.490
                      93     6 Jun 2027 09:17:08.914     6 Jun 2027 09:22:04.679           295.765
                      94     6 Jun 2027 10:52:18.155     6 Jun 2027 10:59:43.079           444.925
                      95     6 Jun 2027 12:29:15.949     6 Jun 2027 12:35:24.847           368.898
                      96     6 Jun 2027 14:07:09.299     6 Jun 2027 14:11:11.390           242.091
                      97     6 Jun 2027 15:40:36.200     6 Jun 2027 15:48:16.087           459.886
                      98     6 Jun 2027 20:48:56.084     6 Jun 2027 20:51:34.961           158.877
                      99     6 Jun 2027 22:25:22.058     6 Jun 2027 22:28:44.143           202.085
                     100     6 Jun 2027 22:30:16.886     6 Jun 2027 22:32:30.937           134.051
                     101     7 Jun 2027 00:02:09.009     7 Jun 2027 00:08:05.446           356.437
                     102     7 Jun 2027 01:37:41.174     7 Jun 2027 01:37:49.676             8.502
                     103     7 Jun 2027 01:38:03.469     7 Jun 2027 01:44:52.572           409.103
                     104     7 Jun 2027 03:14:21.536     7 Jun 2027 03:20:16.913           355.377
                     105     7 Jun 2027 04:53:22.372     7 Jun 2027 05:00:22.294           419.923
                     106     7 Jun 2027 06:17:29.209     7 Jun 2027 06:19:44.258           135.049
                     107     7 Jun 2027 06:29:42.577     7 Jun 2027 06:30:20.590            38.014
                     108     7 Jun 2027 07:51:45.003     7 Jun 2027 07:53:03.059            78.056
                     109     7 Jun 2027 07:53:48.352     7 Jun 2027 07:57:19.418           211.066
                     110     7 Jun 2027 09:26:37.584     7 Jun 2027 09:34:24.906           467.322
                     111     7 Jun 2027 09:34:52.609     7 Jun 2027 09:35:24.317            31.708
                     112     7 Jun 2027 11:04:20.056     7 Jun 2027 11:11:47.210           447.154
                     113     7 Jun 2027 12:41:08.163     7 Jun 2027 12:47:03.832           355.669
                     114     7 Jun 2027 12:47:22.873     7 Jun 2027 12:47:49.942            27.069
                     115     7 Jun 2027 14:19:09.638     7 Jun 2027 14:23:20.165           250.528
                     116     7 Jun 2027 15:53:02.723     7 Jun 2027 15:59:45.517           402.793
                     117     7 Jun 2027 21:01:01.047     7 Jun 2027 21:03:55.738           174.691
                     118     7 Jun 2027 22:37:24.657     7 Jun 2027 22:41:26.549           241.893
                     119     7 Jun 2027 22:42:19.216     7 Jun 2027 22:45:26.269           187.053
                     120     8 Jun 2027 00:14:00.673     8 Jun 2027 00:20:26.744           386.072
                     121     8 Jun 2027 01:49:30.568     8 Jun 2027 01:57:19.609           469.041
                     122     8 Jun 2027 03:27:07.572     8 Jun 2027 03:27:32.397            24.826
                     123     8 Jun 2027 03:27:34.990     8 Jun 2027 03:32:41.661           306.671
                     124     8 Jun 2027 05:05:30.170     8 Jun 2027 05:11:29.169           358.999
                     125     8 Jun 2027 06:29:34.394     8 Jun 2027 06:31:35.193           120.799
                     126     8 Jun 2027 08:03:20.889     8 Jun 2027 08:09:23.897           363.008
                     127     8 Jun 2027 09:39:21.162     8 Jun 2027 09:46:32.610           431.447
                     128     8 Jun 2027 09:46:50.147     8 Jun 2027 09:47:50.963            60.815
                     129     8 Jun 2027 11:16:23.669     8 Jun 2027 11:23:48.884           445.215
                     130     8 Jun 2027 12:53:18.433     8 Jun 2027 12:58:22.483           304.050
                     131     8 Jun 2027 12:58:34.074     8 Jun 2027 12:59:42.015            67.942
                     132     8 Jun 2027 14:30:24.793     8 Jun 2027 14:35:18.842           294.049
                     133     8 Jun 2027 16:05:24.511     8 Jun 2027 16:06:10.390            45.879
                     134     8 Jun 2027 16:07:07.005     8 Jun 2027 16:10:27.477           200.472
                     135     8 Jun 2027 21:13:27.185     8 Jun 2027 21:15:17.060           109.875
                     136     8 Jun 2027 21:15:48.047     8 Jun 2027 21:18:21.465           153.418
                     137     8 Jun 2027 22:49:18.730     8 Jun 2027 22:56:14.017           415.288
                     138     9 Jun 2027 00:26:03.169     9 Jun 2027 00:32:35.461           392.292
                     139     9 Jun 2027 02:01:30.369     9 Jun 2027 02:09:10.107           459.737
                     140     9 Jun 2027 03:39:41.948     9 Jun 2027 03:40:31.535            49.587
                     141     9 Jun 2027 03:40:41.646     9 Jun 2027 03:41:23.858            42.212
                     142     9 Jun 2027 03:41:24.485     9 Jun 2027 03:44:56.440           211.956
                     143     9 Jun 2027 05:18:04.304     9 Jun 2027 05:22:45.504           281.201
                     144     9 Jun 2027 06:41:29.403     9 Jun 2027 06:43:52.207           142.804
                     145     9 Jun 2027 08:17:48.281     9 Jun 2027 08:21:17.050           208.769
                     146     9 Jun 2027 09:51:18.079     9 Jun 2027 09:58:48.938           450.858
                     147     9 Jun 2027 09:58:49.159     9 Jun 2027 09:59:50.771            61.612
                     148     9 Jun 2027 11:28:49.997     9 Jun 2027 11:35:34.586           404.589
                     149     9 Jun 2027 13:05:46.286     9 Jun 2027 13:10:13.472           267.186
                     150     9 Jun 2027 13:10:18.219     9 Jun 2027 13:11:35.378            77.160
                     151     9 Jun 2027 14:42:36.967     9 Jun 2027 14:47:12.059           275.093
                     152     9 Jun 2027 16:20:10.181     9 Jun 2027 16:22:14.514           124.333
                     153     9 Jun 2027 21:25:19.448     9 Jun 2027 21:27:53.085           153.637
                     154     9 Jun 2027 21:28:40.340     9 Jun 2027 21:29:51.456            71.115
                     155     9 Jun 2027 23:01:22.613     9 Jun 2027 23:07:57.100           394.486
                     156    10 Jun 2027 00:38:03.448    10 Jun 2027 00:44:25.876           382.428
                     157    10 Jun 2027 02:13:37.105    10 Jun 2027 02:21:08.650           451.545
                     158    10 Jun 2027 03:51:39.821    10 Jun 2027 03:51:47.120             7.299
                     159    10 Jun 2027 03:51:55.565    10 Jun 2027 03:57:54.958           359.393
                     160    10 Jun 2027 05:29:43.205    10 Jun 2027 05:34:24.262           281.057
                     161    10 Jun 2027 06:53:21.282    10 Jun 2027 06:56:02.092           160.811
                     162    10 Jun 2027 08:29:49.919    10 Jun 2027 08:33:25.070           215.151
                     163    10 Jun 2027 10:03:58.012    10 Jun 2027 10:10:44.178           406.166
                     164    10 Jun 2027 10:10:47.239    10 Jun 2027 10:11:45.279            58.040
                     165    10 Jun 2027 11:40:56.426    10 Jun 2027 11:47:39.453           403.028
                     166    10 Jun 2027 13:18:35.615    10 Jun 2027 13:23:02.710           267.095
                     167    10 Jun 2027 14:54:40.218    10 Jun 2027 14:59:29.393           289.175
                     168    10 Jun 2027 16:33:23.885    10 Jun 2027 16:33:27.371             3.486
                     169    10 Jun 2027 21:37:30.401    10 Jun 2027 21:39:51.662           141.261
                     170    10 Jun 2027 23:13:26.044    10 Jun 2027 23:19:40.718           374.674
                     171    11 Jun 2027 00:50:08.378    11 Jun 2027 00:56:35.513           387.134
                     172    11 Jun 2027 02:25:39.069    11 Jun 2027 02:33:00.793           441.724
                     173    11 Jun 2027 04:03:48.250    11 Jun 2027 04:04:47.991            59.741
                     174    11 Jun 2027 04:04:57.460    11 Jun 2027 04:10:09.429           311.969
                     175    11 Jun 2027 05:42:07.464    11 Jun 2027 05:42:35.873            28.409
                     176    11 Jun 2027 05:42:55.952    11 Jun 2027 05:46:03.622           187.670
                     177    11 Jun 2027 07:05:30.114    11 Jun 2027 07:08:34.925           184.811
                     178    11 Jun 2027 08:42:00.529    11 Jun 2027 08:45:36.780           216.251
                     179    11 Jun 2027 10:17:10.692    11 Jun 2027 10:23:47.729           397.037
                     180    11 Jun 2027 11:53:32.853    11 Jun 2027 11:59:45.940           373.087
                     181    11 Jun 2027 13:30:50.104    11 Jun 2027 13:35:25.651           275.547
                     182    11 Jun 2027 15:07:02.957    11 Jun 2027 15:11:39.913           276.955
                     183    11 Jun 2027 21:49:42.454    11 Jun 2027 21:52:42.502           180.048
                     184    11 Jun 2027 23:25:31.853    11 Jun 2027 23:31:08.282           336.429
                     185    12 Jun 2027 01:02:06.440    12 Jun 2027 01:08:20.823           374.382
                     186    12 Jun 2027 02:37:36.629    12 Jun 2027 02:44:36.155           419.526
                     187    12 Jun 2027 04:15:53.212    12 Jun 2027 04:16:05.413            12.202
                     188    12 Jun 2027 04:16:55.295    12 Jun 2027 04:22:01.879           306.585
                     189    12 Jun 2027 04:24:01.830    12 Jun 2027 04:24:46.068            44.238
                     190    12 Jun 2027 05:54:03.999    12 Jun 2027 05:54:42.293            38.293
                     191    12 Jun 2027 05:55:11.027    12 Jun 2027 05:57:40.764           149.737
                     192    12 Jun 2027 07:18:10.271    12 Jun 2027 07:20:41.955           151.685
                     193    12 Jun 2027 08:53:55.834    12 Jun 2027 08:57:29.290           213.456
                     194    12 Jun 2027 10:28:53.006    12 Jun 2027 10:35:54.052           421.046
                     195    12 Jun 2027 12:05:05.528    12 Jun 2027 12:11:29.056           383.528
                     196    12 Jun 2027 13:43:06.774    12 Jun 2027 13:47:22.487           255.713
                     197    12 Jun 2027 15:18:46.395    12 Jun 2027 15:23:10.847           264.451
                     198    12 Jun 2027 15:23:17.017    12 Jun 2027 15:24:12.643            55.626
                     199    12 Jun 2027 20:25:34.346    12 Jun 2027 20:27:10.059            95.714
                     200    12 Jun 2027 22:01:28.512    12 Jun 2027 22:04:38.527           190.015
                     201    12 Jun 2027 23:38:01.988    12 Jun 2027 23:43:12.168           310.179
                     202    13 Jun 2027 01:14:11.684    13 Jun 2027 01:20:59.714           408.030
                     203    13 Jun 2027 02:50:06.416    13 Jun 2027 02:56:45.984           399.567
                     204    13 Jun 2027 04:28:58.567    13 Jun 2027 04:34:36.200           337.633
                     205    13 Jun 2027 04:35:07.555    13 Jun 2027 04:36:37.335            89.780
                     206    13 Jun 2027 05:54:57.869    13 Jun 2027 05:55:36.439            38.570
                     207    13 Jun 2027 06:06:00.351    13 Jun 2027 06:07:42.169           101.817
                     208    13 Jun 2027 06:08:00.585    13 Jun 2027 06:09:19.258            78.673
                     209    13 Jun 2027 07:28:59.506    13 Jun 2027 07:32:57.285           237.780
                     210    13 Jun 2027 09:04:31.618    13 Jun 2027 09:04:39.646             8.028
                     211    13 Jun 2027 09:05:41.870    13 Jun 2027 09:10:08.007           266.136
                     212    13 Jun 2027 10:40:26.747    13 Jun 2027 10:48:00.948           454.202
                     213    13 Jun 2027 12:17:27.739    13 Jun 2027 12:23:36.545           368.806
                     214    13 Jun 2027 13:55:28.386    13 Jun 2027 13:59:24.836           236.449
                     215    13 Jun 2027 15:28:41.335    13 Jun 2027 15:35:12.450           391.116
                     216    13 Jun 2027 15:35:28.485    13 Jun 2027 15:36:34.762            66.277
                     217    13 Jun 2027 20:37:11.944    13 Jun 2027 20:39:43.671           151.728
                     218    13 Jun 2027 22:13:29.630    13 Jun 2027 22:16:56.356           206.726
                     219    13 Jun 2027 23:50:11.566    13 Jun 2027 23:56:24.236           372.670

Min Duration          26     2 Jun 2027 10:01:46.620     2 Jun 2027 10:01:49.971             3.351
Max Duration         121     8 Jun 2027 01:49:30.568     8 Jun 2027 01:57:19.609           469.041
Mean Duration                                                                              237.814
Total Duration                                                                           52081.291


Russia-To-KinoSat_111703
------------------------
                  Access        Start Time (UTCG)           Stop Time (UTCG)        Duration (sec)
                  ------    ------------------------    ------------------------    --------------
                       1     1 Jun 2027 00:16:08.337     1 Jun 2027 00:22:37.952           389.616
                       2     1 Jun 2027 01:51:39.326     1 Jun 2027 01:59:26.111           466.785
                       3     1 Jun 2027 03:29:17.118     1 Jun 2027 03:30:57.952           100.834
                       4     1 Jun 2027 03:31:18.342     1 Jun 2027 03:34:50.429           212.087
                       5     1 Jun 2027 05:07:39.840     1 Jun 2027 05:12:53.415           313.576
                       6     1 Jun 2027 06:31:42.547     1 Jun 2027 06:33:46.789           124.242
                       7     1 Jun 2027 08:07:40.157     1 Jun 2027 08:11:33.843           233.686
                       8     1 Jun 2027 09:41:29.389     1 Jun 2027 09:48:49.213           439.824
                       9     1 Jun 2027 09:48:58.875     1 Jun 2027 09:49:59.664            60.789
                      10     1 Jun 2027 11:18:34.583     1 Jun 2027 11:25:53.745           439.161
                      11     1 Jun 2027 12:55:33.313     1 Jun 2027 13:00:30.274           296.961
                      12     1 Jun 2027 13:00:41.235     1 Jun 2027 13:01:48.517            67.281
                      13     1 Jun 2027 14:32:34.580     1 Jun 2027 14:37:27.053           292.472
                      14     1 Jun 2027 16:07:38.684     1 Jun 2027 16:08:09.338            30.654
                      15     1 Jun 2027 16:09:16.679     1 Jun 2027 16:12:34.148           197.469
                      16     1 Jun 2027 21:15:33.291     1 Jun 2027 21:17:43.927           130.636
                      17     1 Jun 2027 21:17:59.719     1 Jun 2027 21:20:37.018           157.299
                      18     1 Jun 2027 22:51:27.145     1 Jun 2027 22:58:24.075           416.930
                      19     2 Jun 2027 00:28:12.089     2 Jun 2027 00:34:42.067           389.978
                      20     2 Jun 2027 02:03:39.221     2 Jun 2027 02:11:18.725           459.505
                      21     2 Jun 2027 03:41:54.648     2 Jun 2027 03:42:38.626            43.977
                      22     2 Jun 2027 03:42:45.432     2 Jun 2027 03:43:30.935            45.503
                      23     2 Jun 2027 03:43:32.766     2 Jun 2027 03:47:05.075           212.309
                      24     2 Jun 2027 05:20:14.641     2 Jun 2027 05:24:52.648           278.006
                      25     2 Jun 2027 06:43:36.738     2 Jun 2027 06:46:01.933           145.195
                      26     2 Jun 2027 08:19:59.409     2 Jun 2027 08:23:26.053           206.643
                      27     2 Jun 2027 09:53:27.755     2 Jun 2027 10:01:59.237           511.482
                      28     2 Jun 2027 11:31:01.511     2 Jun 2027 11:37:43.982           402.471
                      29     2 Jun 2027 13:07:55.254     2 Jun 2027 13:12:18.505           263.251
                      30     2 Jun 2027 13:12:23.677     2 Jun 2027 13:13:42.159            78.483
                      31     2 Jun 2027 14:44:46.748     2 Jun 2027 14:49:18.202           271.454
                      32     2 Jun 2027 16:22:28.137     2 Jun 2027 16:24:07.022            98.885
                      33     2 Jun 2027 21:27:32.644     2 Jun 2027 21:29:50.459           137.816
                      34     2 Jun 2027 21:30:49.969     2 Jun 2027 21:31:52.756            62.787
                      35     2 Jun 2027 23:03:31.932     2 Jun 2027 23:10:03.737           391.805
                      36     3 Jun 2027 00:40:13.555     3 Jun 2027 00:46:34.974           381.419
                      37     3 Jun 2027 02:15:47.005     3 Jun 2027 02:23:18.692           451.687
                      38     3 Jun 2027 03:53:48.208     3 Jun 2027 03:53:53.548             5.340
                      39     3 Jun 2027 03:54:18.194     3 Jun 2027 04:00:04.475           346.281
                      40     3 Jun 2027 05:32:29.412     3 Jun 2027 05:36:29.366           239.954
                      41     3 Jun 2027 06:55:26.445     3 Jun 2027 06:58:11.172           164.727
                      42     3 Jun 2027 08:32:01.241     3 Jun 2027 08:35:33.799           212.558
                      43     3 Jun 2027 10:06:45.293     3 Jun 2027 10:12:53.404           368.111
                      44     3 Jun 2027 10:12:56.072     3 Jun 2027 10:13:53.779            57.707
                      45     3 Jun 2027 11:43:08.098     3 Jun 2027 11:49:48.607           400.508
                      46     3 Jun 2027 13:20:50.845     3 Jun 2027 13:25:16.001           265.156
                      47     3 Jun 2027 14:56:55.158     3 Jun 2027 15:01:35.686           280.529
                      48     3 Jun 2027 21:39:37.989     3 Jun 2027 21:42:09.952           151.964
                      49     3 Jun 2027 23:15:34.969     3 Jun 2027 23:21:45.177           370.208
                      50     4 Jun 2027 00:52:17.520     4 Jun 2027 00:58:42.531           385.011
                      51     4 Jun 2027 02:27:48.717     4 Jun 2027 02:35:05.000           436.283
                      52     4 Jun 2027 04:05:57.037     4 Jun 2027 04:06:59.089            62.052
                      53     4 Jun 2027 04:07:06.065     4 Jun 2027 04:12:12.692           306.627
                      54     4 Jun 2027 05:44:15.722     4 Jun 2027 05:44:46.827            31.105
                      55     4 Jun 2027 05:45:05.263     4 Jun 2027 05:48:07.484           182.222
                      56     4 Jun 2027 07:07:38.384     4 Jun 2027 07:10:44.808           186.424
                      57     4 Jun 2027 08:44:10.249     4 Jun 2027 08:47:43.898           213.649
                      58     4 Jun 2027 10:19:19.730     4 Jun 2027 10:25:56.311           396.581
                      59     4 Jun 2027 11:55:44.476     4 Jun 2027 12:01:55.195           370.719
                      60     4 Jun 2027 13:32:57.505     4 Jun 2027 13:37:35.406           277.902
                      61     4 Jun 2027 15:09:14.788     4 Jun 2027 15:13:56.326           281.538
                      62     4 Jun 2027 21:51:48.305     4 Jun 2027 21:54:54.653           186.348
                      63     4 Jun 2027 23:27:40.131     4 Jun 2027 23:33:18.552           338.421
                      64     5 Jun 2027 01:04:15.044     5 Jun 2027 01:10:30.154           375.110
                      65     5 Jun 2027 02:39:46.526     5 Jun 2027 02:46:43.351           416.825
                      66     5 Jun 2027 04:18:08.111     5 Jun 2027 04:18:08.841             0.730
                      67     5 Jun 2027 04:19:03.804     5 Jun 2027 04:24:11.893           308.089
                      68     5 Jun 2027 04:25:37.422     5 Jun 2027 04:25:57.360            19.939
                      69     5 Jun 2027 05:56:12.733     5 Jun 2027 05:56:51.573            38.840
                      70     5 Jun 2027 05:57:14.017     5 Jun 2027 05:59:47.431           153.414
                      71     5 Jun 2027 07:20:14.740     5 Jun 2027 07:22:51.026           156.286
                      72     5 Jun 2027 08:56:03.284     5 Jun 2027 09:00:00.876           237.592
                      73     5 Jun 2027 10:31:00.197     5 Jun 2027 10:38:03.947           423.751
                      74     5 Jun 2027 12:07:17.712     5 Jun 2027 12:13:41.884           384.172
                      75     5 Jun 2027 13:45:34.443     5 Jun 2027 13:49:25.618           231.175
                      76     5 Jun 2027 15:20:53.978     5 Jun 2027 15:25:17.309           263.331
                      77     5 Jun 2027 15:25:26.079     5 Jun 2027 15:26:23.568            57.489
                      78     5 Jun 2027 20:27:37.264     5 Jun 2027 20:29:22.489           105.225
                      79     5 Jun 2027 22:03:36.475     5 Jun 2027 22:06:56.489           200.014
                      80     5 Jun 2027 23:40:10.712     5 Jun 2027 23:45:22.608           311.897
                      81     6 Jun 2027 01:16:21.031     6 Jun 2027 01:23:07.696           406.665
                      82     6 Jun 2027 02:52:24.349     6 Jun 2027 02:58:59.054           394.705
                      83     6 Jun 2027 04:31:07.573     6 Jun 2027 04:36:40.142           332.570
                      84     6 Jun 2027 04:37:10.127     6 Jun 2027 04:38:45.168            95.041
                      85     6 Jun 2027 05:57:00.759     6 Jun 2027 05:57:47.040            46.281
                      86     6 Jun 2027 06:08:08.732     6 Jun 2027 06:09:49.644           100.913
                      87     6 Jun 2027 06:10:18.885     6 Jun 2027 06:11:16.852            57.967
                      88     6 Jun 2027 07:31:05.976     6 Jun 2027 07:35:21.714           255.738
                      89     6 Jun 2027 09:06:22.296     6 Jun 2027 09:06:54.906            32.610
                      90     6 Jun 2027 09:07:47.708     6 Jun 2027 09:12:19.003           271.295
                      91     6 Jun 2027 10:42:33.370     6 Jun 2027 10:50:09.659           456.289
                      92     6 Jun 2027 12:19:37.414     6 Jun 2027 12:25:44.359           366.945
                      93     6 Jun 2027 13:57:36.622     6 Jun 2027 14:01:33.369           236.746
                      94     6 Jun 2027 15:30:45.892     6 Jun 2027 15:37:20.974           395.082
                      95     6 Jun 2027 15:37:38.934     6 Jun 2027 15:38:43.035            64.101
                      96     6 Jun 2027 20:39:20.248     6 Jun 2027 20:41:56.011           155.763
                      97     6 Jun 2027 22:15:39.090     6 Jun 2027 22:19:06.422           207.331
                      98     6 Jun 2027 23:52:19.703     6 Jun 2027 23:58:32.959           373.256
                      99     7 Jun 2027 01:28:26.057     7 Jun 2027 01:35:05.663           399.606
                     100     7 Jun 2027 03:04:31.130     7 Jun 2027 03:06:15.462           104.331
                     101     7 Jun 2027 03:06:17.522     7 Jun 2027 03:10:45.101           267.579
                     102     7 Jun 2027 04:43:37.147     7 Jun 2027 04:50:43.981           426.833
                     103     7 Jun 2027 06:08:29.207     7 Jun 2027 06:09:59.619            90.412
                     104     7 Jun 2027 06:20:11.410     7 Jun 2027 06:21:13.870            62.460
                     105     7 Jun 2027 07:42:24.922     7 Jun 2027 07:43:36.204            71.282
                     106     7 Jun 2027 07:44:25.837     7 Jun 2027 07:47:35.431           189.594
                     107     7 Jun 2027 09:17:29.341     7 Jun 2027 09:19:12.642           103.301
                     108     7 Jun 2027 09:19:32.488     7 Jun 2027 09:24:32.269           299.781
                     109     7 Jun 2027 09:25:29.273     7 Jun 2027 09:25:35.972             6.699
                     110     7 Jun 2027 10:54:50.415     7 Jun 2027 11:02:10.638           440.223
                     111     7 Jun 2027 12:31:39.567     7 Jun 2027 12:37:50.570           371.003
                     112     7 Jun 2027 14:09:36.402     7 Jun 2027 14:13:35.617           239.215
                     113     7 Jun 2027 15:43:13.579     7 Jun 2027 15:50:41.550           447.971
                     114     7 Jun 2027 20:51:20.940     7 Jun 2027 20:54:03.633           162.694
                     115     7 Jun 2027 22:27:51.150     7 Jun 2027 22:31:12.431           201.281
                     116     7 Jun 2027 22:32:36.831     7 Jun 2027 22:35:10.856           154.026
                     117     8 Jun 2027 00:04:33.518     8 Jun 2027 00:10:31.094           357.576
                     118     8 Jun 2027 01:40:03.299     8 Jun 2027 01:40:22.633            19.334
                     119     8 Jun 2027 01:40:31.778     8 Jun 2027 01:47:24.227           412.449
                     120     8 Jun 2027 03:16:50.442     8 Jun 2027 03:18:00.158            69.715
                     121     8 Jun 2027 03:18:01.850     8 Jun 2027 03:19:01.812            59.962
                     122     8 Jun 2027 03:19:03.669     8 Jun 2027 03:22:50.506           226.838
                     123     8 Jun 2027 04:55:38.280     8 Jun 2027 05:02:43.707           425.427
                     124     8 Jun 2027 06:19:59.197     8 Jun 2027 06:22:12.664           133.468
                     125     8 Jun 2027 06:32:13.285     8 Jun 2027 06:32:44.805            31.520
                     126     8 Jun 2027 07:54:09.471     8 Jun 2027 07:55:29.974            80.503
                     127     8 Jun 2027 07:56:12.233     8 Jun 2027 07:59:47.061           214.828
                     128     8 Jun 2027 09:28:57.583     8 Jun 2027 09:36:53.171           475.588
                     129     8 Jun 2027 09:37:17.772     8 Jun 2027 09:37:51.283            33.511
                     130     8 Jun 2027 11:06:46.476     8 Jun 2027 11:14:12.753           446.277
                     131     8 Jun 2027 12:43:30.902     8 Jun 2027 12:49:27.621           356.719
                     132     8 Jun 2027 12:49:35.113     8 Jun 2027 12:50:17.333            42.220
                     133     8 Jun 2027 14:21:38.377     8 Jun 2027 14:25:46.430           248.052
                     134     8 Jun 2027 15:55:29.721     8 Jun 2027 16:02:08.438           398.717
                     135     8 Jun 2027 21:03:27.192     8 Jun 2027 21:07:02.613           215.421
                     136     8 Jun 2027 22:39:50.675     8 Jun 2027 22:44:03.382           252.707
                     137     8 Jun 2027 22:44:41.081     8 Jun 2027 22:47:54.539           193.458
                     138     9 Jun 2027 00:16:25.302     9 Jun 2027 00:22:57.440           392.138
                     139     9 Jun 2027 01:51:57.024     9 Jun 2027 01:59:41.612           464.588
                     140     9 Jun 2027 03:29:34.778     9 Jun 2027 03:31:13.777            98.999
                     141     9 Jun 2027 03:31:37.000     9 Jun 2027 03:35:08.837           211.836
                     142     9 Jun 2027 05:08:00.069     9 Jun 2027 05:13:10.042           309.973
                     143     9 Jun 2027 06:31:58.811     9 Jun 2027 06:34:04.751           125.940
                     144     9 Jun 2027 08:07:55.787     9 Jun 2027 08:11:51.708           235.921
                     145     9 Jun 2027 09:41:46.362     9 Jun 2027 09:49:06.721           440.359
                     146     9 Jun 2027 09:49:17.004     9 Jun 2027 09:50:16.823            59.819
