DATA_Files/Russia2Constellation/AreaTarget-Russia-To-Satellite-KinoSat_05_plane.txt

                                                                                                                                                                                                                                                                                           10 May 2023 21:06:03
Civil Air Patrol Use Only
AreaTarget-Russia-To-Satellite-KinoSat_110501, Satellite-KinoSat_110502, Satellite-KinoSat_110503, Satellite-KinoSat_110504, Satellite-KinoSat_110505, Satellite-KinoSat_110506, Satellite-KinoSat_110507, Satellite-KinoSat_110508, Satellite-KinoSat_110509, Satellite-KinoSat_110510:  Access Summary Report


Russia-To-KinoSat_110501
------------------------
                  Access        Start Time (UTCG)           Stop Time (UTCG)        Duration (sec)
                  ------    ------------------------    ------------------------    --------------
                       1     1 Jun 2027 01:14:29.135     1 Jun 2027 01:17:04.604           155.469
                       2     1 Jun 2027 02:50:51.474     1 Jun 2027 02:54:26.183           214.708
                       3     1 Jun 2027 04:23:08.289     1 Jun 2027 04:23:26.810            18.521
                       4     1 Jun 2027 04:24:55.469     1 Jun 2027 04:31:50.337           414.868
                       5     1 Jun 2027 04:31:52.394     1 Jun 2027 04:32:53.511            61.117
                       6     1 Jun 2027 06:01:59.981     1 Jun 2027 06:08:42.704           402.722
                       7     1 Jun 2027 07:38:56.069     1 Jun 2027 07:43:20.207           264.138
                       8     1 Jun 2027 07:43:20.892     1 Jun 2027 07:43:56.000            35.108
                       9     1 Jun 2027 09:15:42.657     1 Jun 2027 09:20:24.466           281.809
                      10     1 Jun 2027 10:53:54.706     1 Jun 2027 10:54:52.789            58.083
                      11     1 Jun 2027 15:58:32.356     1 Jun 2027 16:00:46.154           133.799
                      12     1 Jun 2027 16:02:09.158     1 Jun 2027 16:02:23.992            14.834
                      13     1 Jun 2027 17:34:28.917     1 Jun 2027 17:41:00.161           391.245
                      14     1 Jun 2027 19:11:10.792     1 Jun 2027 19:17:36.357           385.565
                      15     1 Jun 2027 20:46:44.375     1 Jun 2027 20:54:13.766           449.391
                      16     1 Jun 2027 22:25:07.670     1 Jun 2027 22:25:59.793            52.123
                      17     1 Jun 2027 22:26:05.501     1 Jun 2027 22:31:03.972           298.472
                      18     2 Jun 2027 00:03:30.627     2 Jun 2027 00:07:29.757           239.130
                      19     2 Jun 2027 01:26:32.913     2 Jun 2027 01:29:34.307           181.393
                      20     2 Jun 2027 03:03:01.980     2 Jun 2027 03:06:31.687           209.707
                      21     2 Jun 2027 04:38:06.886     2 Jun 2027 04:44:54.672           407.786
                      22     2 Jun 2027 06:14:28.703     2 Jun 2027 06:20:49.123           380.421
                      23     2 Jun 2027 07:51:59.140     2 Jun 2027 07:56:25.184           266.044
                      24     2 Jun 2027 09:28:03.770     2 Jun 2027 09:32:18.279           254.509
                      25     2 Jun 2027 16:10:37.042     2 Jun 2027 16:13:21.889           164.847
                      26     2 Jun 2027 17:46:32.588     2 Jun 2027 17:52:28.400           355.813
                      27     2 Jun 2027 19:23:14.955     2 Jun 2027 19:29:26.253           371.298
                      28     2 Jun 2027 20:58:45.754     2 Jun 2027 21:05:52.126           426.372
                      29     2 Jun 2027 22:36:53.687     2 Jun 2027 22:37:53.582            59.895
                      30     2 Jun 2027 22:38:01.267     2 Jun 2027 22:43:04.168           302.901
                      31     3 Jun 2027 00:15:10.757     3 Jun 2027 00:15:45.842            35.084
                      32     3 Jun 2027 00:15:59.234     3 Jun 2027 00:18:56.045           176.810
                      33     3 Jun 2027 01:38:28.820     3 Jun 2027 01:41:44.654           195.834
                      34     3 Jun 2027 03:15:06.592     3 Jun 2027 03:18:31.785           205.193
                      35     3 Jun 2027 04:50:16.901     3 Jun 2027 04:56:53.221           396.320
                      36     3 Jun 2027 06:26:31.947     3 Jun 2027 06:32:21.628           349.681
                      37     3 Jun 2027 06:32:30.310     3 Jun 2027 06:32:38.797             8.487
                      38     3 Jun 2027 08:04:04.653     3 Jun 2027 08:08:36.217           271.564
                      39     3 Jun 2027 09:40:05.967     3 Jun 2027 09:44:17.967           252.000
                      40     3 Jun 2027 09:44:22.117     3 Jun 2027 09:45:05.939            43.822
                      41     3 Jun 2027 14:47:07.923     3 Jun 2027 14:47:23.892            15.968
                      42     3 Jun 2027 16:22:45.022     3 Jun 2027 16:25:41.684           176.662
                      43     3 Jun 2027 17:58:36.712     3 Jun 2027 18:04:12.740           336.028
                      44     3 Jun 2027 19:35:12.090     3 Jun 2027 19:41:24.130           372.040
                      45     3 Jun 2027 21:10:42.948     3 Jun 2027 21:17:36.903           413.955
                      46     3 Jun 2027 22:49:59.993     3 Jun 2027 22:55:12.290           312.297
                      47     3 Jun 2027 22:56:20.171     3 Jun 2027 22:57:52.005            91.833
                      48     4 Jun 2027 00:16:16.562     4 Jun 2027 00:16:33.871            17.310
                      49     4 Jun 2027 00:27:56.596     4 Jun 2027 00:30:42.277           165.682
                      50     4 Jun 2027 01:51:04.572     4 Jun 2027 01:53:48.666           164.095
                      51     4 Jun 2027 03:26:50.201     4 Jun 2027 03:31:04.140           253.939
                      52     4 Jun 2027 05:01:41.426     4 Jun 2027 05:09:03.546           442.120
                      53     4 Jun 2027 06:38:17.094     4 Jun 2027 06:44:40.870           383.776
                      54     4 Jun 2027 08:16:34.701     4 Jun 2027 08:20:29.512           234.811
                      55     4 Jun 2027 09:49:55.540     4 Jun 2027 09:50:03.238             7.697
                      56     4 Jun 2027 09:51:54.585     4 Jun 2027 09:56:06.721           252.136
                      57     4 Jun 2027 09:56:26.195     4 Jun 2027 09:57:24.587            58.392
                      58     4 Jun 2027 14:58:24.547     4 Jun 2027 15:00:24.915           120.368
                      59     4 Jun 2027 16:34:32.008     4 Jun 2027 16:37:52.954           200.946
                      60     4 Jun 2027 18:11:06.985     4 Jun 2027 18:16:53.663           346.678
                      61     4 Jun 2027 19:47:17.735     4 Jun 2027 19:54:06.004           408.269
                      62     4 Jun 2027 21:23:22.213     4 Jun 2027 21:29:48.092           385.879
                      63     4 Jun 2027 23:02:03.984     4 Jun 2027 23:09:43.669           459.684
                      64     5 Jun 2027 00:27:33.435     5 Jun 2027 00:28:50.786            77.352
                      65     5 Jun 2027 00:39:04.067     5 Jun 2027 00:40:43.654            99.587
                      66     5 Jun 2027 02:01:43.337     5 Jun 2027 02:02:42.201            58.864
                      67     5 Jun 2027 02:03:18.822     5 Jun 2027 02:06:23.238           184.416
                      68     5 Jun 2027 03:37:03.259     5 Jun 2027 03:38:02.169            58.909
                      69     5 Jun 2027 03:38:35.186     5 Jun 2027 03:43:22.718           287.532
                      70     5 Jun 2027 05:13:33.466     5 Jun 2027 05:21:03.891           450.425
                      71     5 Jun 2027 06:50:38.137     5 Jun 2027 06:56:28.668           350.531
                      72     5 Jun 2027 06:56:30.644     5 Jun 2027 06:56:49.165            18.521
                      73     5 Jun 2027 08:28:32.369     5 Jun 2027 08:32:32.028           239.660
                      74     5 Jun 2027 10:01:40.898     5 Jun 2027 10:08:05.830           384.932
                      75     5 Jun 2027 10:08:25.355     5 Jun 2027 10:09:37.141            71.787
                      76     5 Jun 2027 15:10:16.033     5 Jun 2027 15:13:00.048           164.015
                      77     5 Jun 2027 16:46:36.065     5 Jun 2027 16:49:59.820           203.755
                      78     5 Jun 2027 16:52:31.937     5 Jun 2027 16:53:04.709            32.773
                      79     5 Jun 2027 18:23:13.607     5 Jun 2027 18:29:25.360           371.752
                      80     5 Jun 2027 19:59:21.047     5 Jun 2027 20:06:01.341           400.294
                      81     5 Jun 2027 21:35:27.765     5 Jun 2027 21:41:36.344           368.578
                      82     5 Jun 2027 23:14:33.875     5 Jun 2027 23:21:40.765           426.890
                      83     6 Jun 2027 00:38:50.689     6 Jun 2027 00:41:00.838           130.149
                      84     6 Jun 2027 00:51:03.958     6 Jun 2027 00:52:04.831            60.873
                      85     6 Jun 2027 02:13:19.113     6 Jun 2027 02:14:25.631            66.518
                      86     6 Jun 2027 02:15:14.486     6 Jun 2027 02:18:37.097           202.611
                      87     6 Jun 2027 03:48:12.934     6 Jun 2027 03:50:15.799           122.866
                      88     6 Jun 2027 03:50:22.276     6 Jun 2027 03:55:42.631           320.355
                      89     6 Jun 2027 03:56:14.391     6 Jun 2027 03:56:42.898            28.508
                      90     6 Jun 2027 05:25:46.589     6 Jun 2027 05:33:07.348           440.759
                      91     6 Jun 2027 07:02:29.097     6 Jun 2027 07:08:42.411           373.313
                      92     6 Jun 2027 07:08:46.601     6 Jun 2027 07:09:07.014            20.413
                      93     6 Jun 2027 08:40:32.218     6 Jun 2027 08:44:41.708           249.490
                      94     6 Jun 2027 10:14:09.554     6 Jun 2027 10:21:32.939           443.385
                      95     6 Jun 2027 15:22:16.483     6 Jun 2027 15:25:05.647           169.164
                      96     6 Jun 2027 16:58:48.301     6 Jun 2027 17:02:19.263           210.962
                      97     6 Jun 2027 17:03:30.902     6 Jun 2027 17:06:28.346           177.444
                      98     6 Jun 2027 18:35:27.209     6 Jun 2027 18:41:34.811           367.602
                      99     6 Jun 2027 20:10:56.281     6 Jun 2027 20:11:21.363            25.082
                     100     6 Jun 2027 20:11:27.553     6 Jun 2027 20:18:30.011           422.458
                     101     6 Jun 2027 21:47:48.321     6 Jun 2027 21:48:14.996            26.675
                     102     6 Jun 2027 21:48:19.979     6 Jun 2027 21:48:54.543            34.564
                     103     6 Jun 2027 21:48:58.365     6 Jun 2027 21:49:52.599            54.234
                     104     6 Jun 2027 21:49:54.255     6 Jun 2027 21:53:50.374           236.119
                     105     6 Jun 2027 23:26:35.695     6 Jun 2027 23:33:32.684           416.989
                     106     7 Jun 2027 00:50:56.238     7 Jun 2027 00:52:49.595           113.358
                     107     7 Jun 2027 01:03:12.039     7 Jun 2027 01:03:39.273            27.234
                     108     7 Jun 2027 02:24:48.335     7 Jun 2027 02:26:11.341            83.006
                     109     7 Jun 2027 02:26:48.448     7 Jun 2027 02:30:48.906           240.458
                     110     7 Jun 2027 03:59:43.636     7 Jun 2027 04:07:51.197           487.561
                     111     7 Jun 2027 04:08:11.364     7 Jun 2027 04:09:09.784            58.420
                     112     7 Jun 2027 05:37:40.489     7 Jun 2027 05:45:08.730           448.241
                     113     7 Jun 2027 07:14:34.761     7 Jun 2027 07:19:56.937           322.175
                     114     7 Jun 2027 07:20:15.909     7 Jun 2027 07:21:06.527            50.618
                     115     7 Jun 2027 08:52:18.559     7 Jun 2027 08:56:40.217           261.657
                     116     7 Jun 2027 10:26:32.558     7 Jun 2027 10:27:33.811            61.254
                     117     7 Jun 2027 10:28:18.092     7 Jun 2027 10:31:53.206           215.114
                     118     7 Jun 2027 15:34:23.898     7 Jun 2027 15:37:18.864           174.965
                     119     7 Jun 2027 15:37:48.223     7 Jun 2027 15:38:48.552            60.329
                     120     7 Jun 2027 17:10:45.232     7 Jun 2027 17:15:14.333           269.100
                     121     7 Jun 2027 17:15:32.224     7 Jun 2027 17:17:20.623           108.399
                     122     7 Jun 2027 18:47:19.209     7 Jun 2027 18:53:53.896           394.686
                     123     7 Jun 2027 20:22:51.734     7 Jun 2027 20:30:36.935           465.201
                     124     7 Jun 2027 22:00:30.784     7 Jun 2027 22:00:46.818            16.034
                     125     7 Jun 2027 22:00:55.010     7 Jun 2027 22:01:56.035            61.025
                     126     7 Jun 2027 22:02:41.913     7 Jun 2027 22:06:07.755           205.841
                     127     7 Jun 2027 23:39:01.135     7 Jun 2027 23:44:05.152           304.017
                     128     8 Jun 2027 01:02:51.964     8 Jun 2027 01:05:08.320           136.356
                     129     8 Jun 2027 02:38:51.900     8 Jun 2027 02:42:35.548           223.647
                     130     8 Jun 2027 04:12:37.175     8 Jun 2027 04:21:10.743           513.568
                     131     8 Jun 2027 05:50:01.224     8 Jun 2027 05:57:02.155           420.931
                     132     8 Jun 2027 07:27:05.133     8 Jun 2027 07:31:34.344           269.210
                     133     8 Jun 2027 07:31:41.872     8 Jun 2027 07:32:55.354            73.483
                     134     8 Jun 2027 09:03:49.783     8 Jun 2027 09:08:38.251           288.468
                     135     8 Jun 2027 10:39:05.902     8 Jun 2027 10:39:14.395             8.493
                     136     8 Jun 2027 10:40:46.937     8 Jun 2027 10:43:38.032           171.096
                     137     8 Jun 2027 15:46:44.829     8 Jun 2027 15:49:06.279           141.450
                     138     8 Jun 2027 15:49:29.207     8 Jun 2027 15:51:47.099           137.892
                     139     8 Jun 2027 17:22:39.170     8 Jun 2027 17:29:33.623           414.453
                     140     8 Jun 2027 18:59:22.934     8 Jun 2027 19:05:48.549           385.615
                     141     8 Jun 2027 20:34:51.056     8 Jun 2027 20:42:21.125           450.070
                     142     8 Jun 2027 22:13:14.912     8 Jun 2027 22:13:34.001            19.089
                     143     8 Jun 2027 22:13:47.694     8 Jun 2027 22:19:14.491           326.797
                     144     8 Jun 2027 23:51:22.288     8 Jun 2027 23:55:56.926           274.638
                     145     9 Jun 2027 01:14:43.486     9 Jun 2027 01:17:19.432           155.947
                     146     9 Jun 2027 02:51:06.163     9 Jun 2027 02:54:41.067           214.904
                     147     9 Jun 2027 04:25:10.132     9 Jun 2027 04:32:04.919           414.786
                     148     9 Jun 2027 04:32:06.980     9 Jun 2027 04:33:08.030            61.050
                     149     9 Jun 2027 06:02:14.719     9 Jun 2027 06:08:57.317           402.598
                     150     9 Jun 2027 07:39:10.613     9 Jun 2027 07:44:10.933           300.320
                     151     9 Jun 2027 09:15:57.156     9 Jun 2027 09:20:39.364           282.208
                     152     9 Jun 2027 10:54:09.411     9 Jun 2027 10:55:07.146            57.735
                     153     9 Jun 2027 15:58:47.060     9 Jun 2027 16:01:01.305           134.246
                     154     9 Jun 2027 16:02:24.711     9 Jun 2027 16:02:32.149             7.438
                     155     9 Jun 2027 17:34:43.524     9 Jun 2027 17:41:14.993           391.469
                     156     9 Jun 2027 19:11:25.445     9 Jun 2027 19:17:51.454           386.009
                     157     9 Jun 2027 20:46:59.043     9 Jun 2027 20:54:28.938           449.895
                     158     9 Jun 2027 22:25:19.804     9 Jun 2027 22:26:14.406            54.601
                     159     9 Jun 2027 22:26:20.107     9 Jun 2027 22:31:18.619           298.513
                     160    10 Jun 2027 00:03:46.475    10 Jun 2027 00:07:44.353           237.878
                     161    10 Jun 2027 01:26:47.622    10 Jun 2027 01:29:27.195           159.573
                     162    10 Jun 2027 03:03:16.626    10 Jun 2027 03:06:46.553           209.927
                     163    10 Jun 2027 04:38:21.628    10 Jun 2027 04:45:09.260           407.632
                     164    10 Jun 2027 06:14:43.625    10 Jun 2027 06:21:03.801           380.176
                     165    10 Jun 2027 07:52:13.773    10 Jun 2027 07:56:40.037           266.263
                     166    10 Jun 2027 09:28:18.483    10 Jun 2027 09:32:32.977           254.493
                     167    10 Jun 2027 16:10:51.679    10 Jun 2027 16:13:37.503           165.824
                     168    10 Jun 2027 17:46:47.217    10 Jun 2027 17:52:42.553           355.336
                     169    10 Jun 2027 19:23:29.629    10 Jun 2027 19:29:40.859           371.230
                     170    10 Jun 2027 20:59:00.419    10 Jun 2027 21:06:06.407           425.988
                     171    10 Jun 2027 22:37:08.340    10 Jun 2027 22:38:07.861            59.521
                     172    10 Jun 2027 22:38:15.899    10 Jun 2027 22:43:17.870           301.971
                     173    11 Jun 2027 00:15:25.376    11 Jun 2027 00:16:00.523            35.147
                     174    11 Jun 2027 00:16:13.801    11 Jun 2027 00:19:10.551           176.751
                     175    11 Jun 2027 01:38:43.403    11 Jun 2027 01:41:59.306           195.903
                     176    11 Jun 2027 03:15:21.119    11 Jun 2027 03:18:46.210           205.091
                     177    11 Jun 2027 04:50:31.626    11 Jun 2027 04:57:07.814           396.188
                     178    11 Jun 2027 06:26:45.955    11 Jun 2027 06:32:36.346           350.391
                     179    11 Jun 2027 06:32:45.098    11 Jun 2027 06:32:53.185             8.086
                     180    11 Jun 2027 08:04:19.353    11 Jun 2027 08:08:50.711           271.358
                     181    11 Jun 2027 09:40:20.664    11 Jun 2027 09:44:32.503           251.838
                     182    11 Jun 2027 09:44:36.604    11 Jun 2027 09:45:20.885            44.281
                     183    11 Jun 2027 14:47:21.962    11 Jun 2027 14:47:38.612            16.650
                     184    11 Jun 2027 16:22:59.674    11 Jun 2027 16:25:56.183           176.509
                     185    11 Jun 2027 17:58:51.384    11 Jun 2027 18:04:27.196           335.812
                     186    11 Jun 2027 19:35:26.777    11 Jun 2027 19:41:38.653           371.877
                     187    11 Jun 2027 21:10:57.597    11 Jun 2027 21:17:51.843           414.246
                     188    11 Jun 2027 22:50:14.617    11 Jun 2027 22:55:27.357           312.740
                     189    11 Jun 2027 22:56:34.240    11 Jun 2027 22:58:06.348            92.108
                     190    12 Jun 2027 00:16:30.713    12 Jun 2027 00:16:48.815            18.102
                     191    12 Jun 2027 00:28:10.901    12 Jun 2027 00:30:57.198           166.297
                     192    12 Jun 2027 01:51:19.006    12 Jun 2027 01:54:03.363           164.358
                     193    12 Jun 2027 03:27:04.874    12 Jun 2027 03:31:18.771           253.897
                     194    12 Jun 2027 05:01:55.831    12 Jun 2027 05:09:18.208           442.377
                     195    12 Jun 2027 06:38:31.647    12 Jun 2027 06:44:55.469           383.822
                     196    12 Jun 2027 08:16:49.307    12 Jun 2027 08:20:44.141           234.834
                     197    12 Jun 2027 09:50:09.905    12 Jun 2027 09:50:19.531             9.626
                     198    12 Jun 2027 09:52:09.166    12 Jun 2027 09:56:21.695           252.529
                     199    12 Jun 2027 09:56:41.111    12 Jun 2027 09:57:39.291            58.180
                     200    12 Jun 2027 14:58:38.694    12 Jun 2027 15:00:39.752           121.057
                     201    12 Jun 2027 16:34:46.644    12 Jun 2027 16:38:06.866           200.222
                     202    12 Jun 2027 18:11:21.658    12 Jun 2027 18:17:09.598           347.940
                     203    12 Jun 2027 19:47:32.441    12 Jun 2027 19:54:20.738           408.297
                     204    12 Jun 2027 21:23:37.238    12 Jun 2027 21:30:02.915           385.677
                     205    12 Jun 2027 23:02:18.706    12 Jun 2027 23:09:58.480           459.774
                     206    13 Jun 2027 00:27:47.444    13 Jun 2027 00:29:05.350            77.906
                     207    13 Jun 2027 00:39:18.704    13 Jun 2027 00:40:58.208            99.504
                     208    13 Jun 2027 02:01:57.931    13 Jun 2027 02:02:56.697            58.766
                     209    13 Jun 2027 02:03:33.377    13 Jun 2027 02:06:37.950           184.573
                     210    13 Jun 2027 03:37:17.248    13 Jun 2027 03:38:17.066            59.819
                     211    13 Jun 2027 03:38:49.492    13 Jun 2027 03:43:37.753           288.261
                     212    13 Jun 2027 05:13:48.508    13 Jun 2027 05:21:18.561           450.052
                     213    13 Jun 2027 06:50:52.703    13 Jun 2027 06:56:43.398           350.695
                     214    13 Jun 2027 06:56:46.312    13 Jun 2027 06:57:03.417            17.105
                     215    13 Jun 2027 08:28:46.973    13 Jun 2027 08:32:46.635           239.662
                     216    13 Jun 2027 10:01:58.796    13 Jun 2027 10:08:20.849           382.053
                     217    13 Jun 2027 10:08:39.652    13 Jun 2027 10:09:52.252            72.600
                     218    13 Jun 2027 15:10:30.736    13 Jun 2027 15:13:14.569           163.834
                     219    13 Jun 2027 16:46:50.747    13 Jun 2027 16:50:14.390           203.643
                     220    13 Jun 2027 16:52:46.536    13 Jun 2027 16:53:19.987            33.451
                     221    13 Jun 2027 18:23:28.172    13 Jun 2027 18:29:39.947           371.776
                     222    13 Jun 2027 19:59:35.678    13 Jun 2027 20:06:15.777           400.099
                     223    13 Jun 2027 21:35:42.840    13 Jun 2027 21:41:51.240           368.400
                     224    13 Jun 2027 23:14:48.465    13 Jun 2027 23:21:55.227           426.762

Min Duration         154     9 Jun 2027 16:02:24.711     9 Jun 2027 16:02:32.149             7.438
Max Duration         130     8 Jun 2027 04:12:37.175     8 Jun 2027 04:21:10.743           513.568
Mean Duration                                                                              229.290
Total Duration                                                                           51360.960


Russia-To-KinoSat_110502
------------------------
                  Access        Start Time (UTCG)           Stop Time (UTCG)        Duration (sec)
                  ------    ------------------------    ------------------------    --------------
                       1     1 Jun 2027 01:05:02.092     1 Jun 2027 01:07:20.620           138.528
                       2     1 Jun 2027 02:41:14.057     1 Jun 2027 02:44:46.086           212.029
                       3     1 Jun 2027 04:14:47.484     1 Jun 2027 04:23:21.128           513.644
                       4     1 Jun 2027 05:52:14.673     1 Jun 2027 05:59:04.758           410.085
                       5     1 Jun 2027 07:29:14.704     1 Jun 2027 07:33:44.438           269.733
                       6     1 Jun 2027 07:33:50.454     1 Jun 2027 07:35:06.188            75.733
                       7     1 Jun 2027 09:06:08.690     1 Jun 2027 09:10:45.290           276.601
                       8     1 Jun 2027 10:43:17.957     1 Jun 2027 10:45:47.143           149.186
                       9     1 Jun 2027 15:48:55.431     1 Jun 2027 15:51:24.506           149.075
                      10     1 Jun 2027 15:51:54.637     1 Jun 2027 15:53:43.121           108.484
                      11     1 Jun 2027 17:24:50.514     1 Jun 2027 17:31:35.031           404.517
                      12     1 Jun 2027 19:01:33.551     1 Jun 2027 19:07:56.767           383.216
                      13     1 Jun 2027 20:37:03.016     1 Jun 2027 20:44:34.551           451.534
                      14     1 Jun 2027 22:15:16.564     1 Jun 2027 22:15:43.191            26.627
                      15     1 Jun 2027 22:15:50.872     1 Jun 2027 22:21:25.040           334.168
                      16     1 Jun 2027 23:53:15.644     1 Jun 2027 23:58:06.856           291.213
                      17     2 Jun 2027 01:16:52.601     2 Jun 2027 01:19:31.394           158.793
                      18     2 Jun 2027 02:53:19.507     2 Jun 2027 02:56:54.735           215.228
                      19     2 Jun 2027 04:25:30.331     2 Jun 2027 04:25:38.790             8.459
                      20     2 Jun 2027 04:27:26.329     2 Jun 2027 04:34:14.170           407.841
                      21     2 Jun 2027 04:34:17.278     2 Jun 2027 04:35:15.338            58.061
                      22     2 Jun 2027 06:04:24.255     2 Jun 2027 06:11:09.245           404.989
                      23     2 Jun 2027 07:41:40.995     2 Jun 2027 07:45:49.902           248.907
                      24     2 Jun 2027 07:45:52.122     2 Jun 2027 07:46:30.955            38.833
                      25     2 Jun 2027 09:18:09.652     2 Jun 2027 09:23:16.254           306.602
                      26     2 Jun 2027 10:56:26.110     2 Jun 2027 10:57:10.075            43.965
                      27     2 Jun 2027 16:00:58.185     2 Jun 2027 16:03:15.030           136.845
                      28     2 Jun 2027 17:36:54.889     2 Jun 2027 17:43:26.873           391.983
                      29     2 Jun 2027 19:13:36.404     2 Jun 2027 19:20:05.977           389.573
                      30     2 Jun 2027 20:49:12.019     2 Jun 2027 20:56:43.252           451.232
                      31     2 Jun 2027 22:27:23.138     2 Jun 2027 22:28:23.782            60.644
                      32     2 Jun 2027 22:28:29.934     2 Jun 2027 22:33:36.406           306.472
                      33     3 Jun 2027 00:06:03.158     3 Jun 2027 00:10:00.281           237.123
                      34     3 Jun 2027 01:29:00.476     3 Jun 2027 01:32:03.410           182.934
                      35     3 Jun 2027 03:05:28.595     3 Jun 2027 03:09:07.367           218.772
                      36     3 Jun 2027 04:40:39.161     3 Jun 2027 04:47:17.439           398.278
                      37     3 Jun 2027 06:16:58.306     3 Jun 2027 06:23:15.249           376.943
                      38     3 Jun 2027 07:54:22.020     3 Jun 2027 07:58:53.911           271.891
                      39     3 Jun 2027 09:30:34.406     3 Jun 2027 09:34:46.584           252.178
                      40     3 Jun 2027 16:13:04.471     3 Jun 2027 16:16:06.610           182.139
                      41     3 Jun 2027 17:48:59.042     3 Jun 2027 17:54:45.592           346.550
                      42     3 Jun 2027 19:25:41.204     3 Jun 2027 19:31:52.418           371.213
                      43     3 Jun 2027 21:01:11.141     3 Jun 2027 21:08:12.011           420.869
                      44     3 Jun 2027 22:39:20.673     3 Jun 2027 22:40:06.999            46.325
                      45     3 Jun 2027 22:40:27.178     3 Jun 2027 22:45:29.380           302.202
                      46     4 Jun 2027 00:17:34.267     4 Jun 2027 00:18:12.131            37.863
                      47     4 Jun 2027 00:18:41.520     4 Jun 2027 00:21:08.814           147.294
                      48     4 Jun 2027 01:41:01.698     4 Jun 2027 01:44:11.148           189.451
                      49     4 Jun 2027 03:17:29.622     4 Jun 2027 03:20:58.531           208.909
                      50     4 Jun 2027 04:52:42.390     4 Jun 2027 04:59:22.898           400.508
                      51     4 Jun 2027 06:28:37.476     4 Jun 2027 06:34:56.382           378.906
                      52     4 Jun 2027 08:06:35.136     4 Jun 2027 08:11:00.675           265.539
                      53     4 Jun 2027 09:42:27.960     4 Jun 2027 09:46:41.118           253.158
                      54     4 Jun 2027 09:46:46.856     4 Jun 2027 09:47:38.050            51.194
                      55     4 Jun 2027 14:49:23.662     4 Jun 2027 14:50:29.608            65.946
                      56     4 Jun 2027 16:25:10.541     4 Jun 2027 16:28:10.351           179.810
                      57     4 Jun 2027 18:01:10.477     4 Jun 2027 18:06:37.599           327.122
                      58     4 Jun 2027 19:37:39.158     4 Jun 2027 19:44:00.110           380.952
                      59     4 Jun 2027 21:13:07.947     4 Jun 2027 21:20:09.528           421.581
                      60     4 Jun 2027 22:52:25.909     4 Jun 2027 22:57:43.178           317.269
                      61     4 Jun 2027 22:58:38.986     4 Jun 2027 23:00:14.787            95.800
                      62     5 Jun 2027 00:18:34.367     5 Jun 2027 00:19:03.014            28.647
                      63     5 Jun 2027 00:29:31.745     5 Jun 2027 00:33:02.858           211.113
                      64     5 Jun 2027 01:53:28.003     5 Jun 2027 01:56:24.631           176.628
                      65     5 Jun 2027 03:29:13.101     5 Jun 2027 03:33:33.999           260.898
                      66     5 Jun 2027 05:03:56.990     5 Jun 2027 05:11:30.033           453.043
                      67     5 Jun 2027 06:40:45.100     5 Jun 2027 06:47:05.980           380.880
                      68     5 Jun 2027 08:19:00.074     5 Jun 2027 08:22:54.981           234.907
                      69     5 Jun 2027 09:52:17.113     5 Jun 2027 09:53:49.588            92.475
                      70     5 Jun 2027 09:53:53.999     5 Jun 2027 09:58:37.770           283.771
                      71     5 Jun 2027 09:58:55.646     5 Jun 2027 10:00:00.393            64.747
                      72     5 Jun 2027 15:00:44.161     5 Jun 2027 15:02:57.471           133.310
                      73     5 Jun 2027 16:36:57.533     5 Jun 2027 16:40:21.513           203.980
                      74     5 Jun 2027 18:13:34.782     5 Jun 2027 18:19:44.410           369.627
                      75     5 Jun 2027 19:49:46.038     5 Jun 2027 19:56:31.960           405.922
                      76     5 Jun 2027 21:25:48.734     5 Jun 2027 21:32:12.231           383.497
                      77     5 Jun 2027 23:04:46.238     5 Jun 2027 23:12:09.731           443.493
                      78     6 Jun 2027 00:29:51.619     6 Jun 2027 00:31:17.499            85.880
                      79     6 Jun 2027 00:41:29.998     6 Jun 2027 00:42:57.951            87.953
                      80     6 Jun 2027 02:04:03.584     6 Jun 2027 02:05:04.184            60.599
                      81     6 Jun 2027 02:05:44.980     6 Jun 2027 02:08:50.984           186.004
                      82     6 Jun 2027 03:39:07.252     6 Jun 2027 03:40:25.335            78.083
                      83     6 Jun 2027 03:40:57.373     6 Jun 2027 03:45:50.485           293.112
                      84     6 Jun 2027 05:16:05.167     6 Jun 2027 05:23:29.128           443.961
                      85     6 Jun 2027 06:53:03.378     6 Jun 2027 06:58:56.268           352.890
                      86     6 Jun 2027 08:30:58.169     6 Jun 2027 08:34:57.511           239.343
                      87     6 Jun 2027 10:04:17.181     6 Jun 2027 10:10:33.475           376.293
                      88     6 Jun 2027 10:10:36.695     6 Jun 2027 10:12:04.458            87.763
                      89     6 Jun 2027 15:12:42.030     6 Jun 2027 15:15:20.585           158.555
                      90     6 Jun 2027 16:49:03.115     6 Jun 2027 16:52:27.348           204.233
                      91     6 Jun 2027 16:54:06.162     6 Jun 2027 16:55:47.002           100.840
                      92     6 Jun 2027 18:25:36.602     6 Jun 2027 18:31:53.627           377.025
                      93     6 Jun 2027 20:01:52.212     6 Jun 2027 20:08:28.484           396.272
                      94     6 Jun 2027 21:37:55.094     6 Jun 2027 21:44:01.278           366.184
                      95     6 Jun 2027 23:17:01.585     6 Jun 2027 23:24:05.031           423.446
                      96     7 Jun 2027 00:41:12.510     7 Jun 2027 00:43:29.084           136.574
                      97     7 Jun 2027 00:53:28.933     7 Jun 2027 00:54:26.198            57.266
                      98     7 Jun 2027 02:15:27.974     7 Jun 2027 02:16:51.643            83.669
                      99     7 Jun 2027 02:17:35.627     7 Jun 2027 02:21:04.729           209.102
                     100     7 Jun 2027 03:50:32.220     7 Jun 2027 03:58:10.029           457.809
                     101     7 Jun 2027 03:58:38.381     7 Jun 2027 03:59:10.138            31.757
                     102     7 Jun 2027 05:28:08.483     7 Jun 2027 05:35:32.890           444.406
                     103     7 Jun 2027 07:04:52.851     7 Jun 2027 07:10:56.030           363.179
                     104     7 Jun 2027 07:11:03.717     7 Jun 2027 07:11:34.133            30.416
                     105     7 Jun 2027 08:42:57.541     7 Jun 2027 08:47:06.634           249.093
                     106     7 Jun 2027 10:16:43.194     7 Jun 2027 10:23:32.723           409.529
                     107     7 Jun 2027 15:24:44.479     7 Jun 2027 15:27:39.176           174.696
                     108     7 Jun 2027 17:01:15.049     7 Jun 2027 17:04:51.568           216.519
                     109     7 Jun 2027 17:05:57.762     7 Jun 2027 17:09:03.168           185.406
                     110     7 Jun 2027 18:37:47.383     7 Jun 2027 18:44:07.592           380.210
                     111     7 Jun 2027 20:13:19.351     7 Jun 2027 20:13:57.334            37.983
                     112     7 Jun 2027 20:14:08.343     7 Jun 2027 20:20:56.729           408.386
                     113     7 Jun 2027 21:50:18.136     7 Jun 2027 21:50:40.758            22.622
                     114     7 Jun 2027 21:50:48.085     7 Jun 2027 21:51:17.889            29.805
                     115     7 Jun 2027 21:51:22.731     7 Jun 2027 21:52:16.689            53.958
                     116     7 Jun 2027 21:52:18.820     7 Jun 2027 21:56:18.680           239.860
                     117     7 Jun 2027 23:29:05.889     7 Jun 2027 23:35:57.496           411.607
                     118     8 Jun 2027 00:53:20.166     8 Jun 2027 00:55:14.769           114.604
                     119     8 Jun 2027 01:05:44.821     8 Jun 2027 01:06:00.554            15.732
                     120     8 Jun 2027 02:27:09.730     8 Jun 2027 02:33:09.015           359.285
                     121     8 Jun 2027 04:02:02.731     8 Jun 2027 04:10:17.751           495.020
                     122     8 Jun 2027 04:10:35.699     8 Jun 2027 04:11:36.335            60.636
                     123     8 Jun 2027 05:40:07.577     8 Jun 2027 05:47:34.379           446.802
                     124     8 Jun 2027 07:17:00.860     8 Jun 2027 07:22:08.940           308.079
                     125     8 Jun 2027 07:22:20.138     8 Jun 2027 07:23:28.684            68.546
                     126     8 Jun 2027 08:54:10.633     8 Jun 2027 08:59:04.871           294.238
                     127     8 Jun 2027 10:28:57.813     8 Jun 2027 10:30:09.744            71.931
                     128     8 Jun 2027 10:30:52.868     8 Jun 2027 10:34:14.753           201.885
                     129     8 Jun 2027 15:36:50.109     8 Jun 2027 15:41:36.925           286.816
                     130     8 Jun 2027 17:13:11.177     8 Jun 2027 17:17:48.461           277.284
                     131     8 Jun 2027 17:17:59.823     8 Jun 2027 17:19:50.299           110.476
                     132     8 Jun 2027 17:20:35.430     8 Jun 2027 17:21:17.516            42.086
                     133     8 Jun 2027 18:49:44.713     8 Jun 2027 18:56:20.020           395.307
                     134     8 Jun 2027 20:25:17.025     8 Jun 2027 20:33:02.635           465.610
                     135     8 Jun 2027 22:02:58.098     8 Jun 2027 22:03:10.881            12.784
                     136     8 Jun 2027 22:03:21.267     8 Jun 2027 22:04:22.513            61.246
                     137     8 Jun 2027 22:04:29.435     8 Jun 2027 22:05:00.113            30.678
                     138     8 Jun 2027 22:05:01.379     8 Jun 2027 22:08:36.752           215.373
                     139     8 Jun 2027 23:41:28.928     8 Jun 2027 23:46:26.598           297.670
                     140     9 Jun 2027 01:05:16.441     9 Jun 2027 01:07:35.540           139.099
                     141     9 Jun 2027 02:41:28.732     9 Jun 2027 02:45:01.197           212.465
                     142     9 Jun 2027 04:15:02.069     9 Jun 2027 04:23:35.729           513.660
                     143     9 Jun 2027 05:52:29.854     9 Jun 2027 05:59:19.420           409.566
                     144     9 Jun 2027 07:29:29.238     9 Jun 2027 07:33:59.113           269.876
                     145     9 Jun 2027 07:34:04.852     9 Jun 2027 07:35:20.849            75.997
                     146     9 Jun 2027 09:06:23.225     9 Jun 2027 09:10:59.779           276.554
                     147     9 Jun 2027 10:43:32.684     9 Jun 2027 10:46:01.633           148.949
                     148     9 Jun 2027 15:49:09.416     9 Jun 2027 15:51:39.132           149.717
                     149     9 Jun 2027 15:52:10.015     9 Jun 2027 15:53:57.225           107.211
                     150     9 Jun 2027 17:25:05.149     9 Jun 2027 17:31:49.316           404.166
                     151     9 Jun 2027 19:01:48.128     9 Jun 2027 19:08:11.220           383.092
                     152     9 Jun 2027 20:37:17.797     9 Jun 2027 20:44:49.252           451.456
                     153     9 Jun 2027 22:15:31.115     9 Jun 2027 22:15:57.527            26.412
                     154     9 Jun 2027 22:16:05.086     9 Jun 2027 22:21:39.519           334.433
                     155     9 Jun 2027 23:53:30.041     9 Jun 2027 23:58:21.481           291.440
                     156    10 Jun 2027 01:17:07.119    10 Jun 2027 01:19:46.002           158.883
                     157    10 Jun 2027 02:53:34.016    10 Jun 2027 02:57:09.469           215.452
                     158    10 Jun 2027 04:25:44.419    10 Jun 2027 04:25:53.382             8.963
                     159    10 Jun 2027 04:27:40.979    10 Jun 2027 04:34:28.839           407.860
                     160    10 Jun 2027 04:34:31.903    10 Jun 2027 04:35:29.972            58.069
                     161    10 Jun 2027 06:04:39.076    10 Jun 2027 06:11:23.933           404.856
                     162    10 Jun 2027 07:41:57.110    10 Jun 2027 07:46:04.669           247.559
                     163    10 Jun 2027 07:46:06.899    10 Jun 2027 07:46:45.816            38.917
                     164    10 Jun 2027 09:18:24.328    10 Jun 2027 09:23:30.812           306.484
                     165    10 Jun 2027 10:56:40.856    10 Jun 2027 10:57:22.982            42.126
                     166    10 Jun 2027 16:01:12.853    10 Jun 2027 16:03:30.015           137.162
                     167    10 Jun 2027 17:37:09.529    10 Jun 2027 17:43:41.425           391.896
                     168    10 Jun 2027 19:13:51.091    10 Jun 2027 19:20:20.930           389.840
                     169    10 Jun 2027 20:49:26.287    10 Jun 2027 20:56:57.567           451.281
                     170    10 Jun 2027 22:27:37.483    10 Jun 2027 22:28:38.223            60.740
                     171    10 Jun 2027 22:28:44.495    10 Jun 2027 22:33:50.843           306.348
                     172    11 Jun 2027 00:06:17.924    11 Jun 2027 00:10:14.949           237.024
                     173    11 Jun 2027 01:29:15.133    11 Jun 2027 01:32:18.189           183.055
                     174    11 Jun 2027 03:05:43.340    11 Jun 2027 03:09:21.942           218.601
                     175    11 Jun 2027 04:40:54.047    11 Jun 2027 04:47:32.088           398.041
                     176    11 Jun 2027 06:17:13.031    11 Jun 2027 06:23:29.910           376.879
                     177    11 Jun 2027 07:54:36.490    11 Jun 2027 07:59:08.659           272.169
                     178    11 Jun 2027 09:30:48.107    11 Jun 2027 09:35:01.417           253.310
                     179    11 Jun 2027 16:13:19.344    11 Jun 2027 16:16:21.201           181.856
                     180    11 Jun 2027 17:49:13.757    11 Jun 2027 17:55:00.185           346.428
                     181    11 Jun 2027 19:25:55.813    11 Jun 2027 19:32:06.960           371.147
                     182    11 Jun 2027 21:01:25.804    11 Jun 2027 21:08:26.287           420.483
                     183    11 Jun 2027 22:39:35.373    11 Jun 2027 22:40:20.849            45.475
                     184    11 Jun 2027 22:40:41.783    11 Jun 2027 22:45:44.123           302.340
                     185    12 Jun 2027 00:17:48.817    12 Jun 2027 00:18:26.765            37.948
                     186    12 Jun 2027 00:18:56.083    12 Jun 2027 00:21:23.247           147.164
                     187    12 Jun 2027 01:41:16.197    12 Jun 2027 01:44:25.829           189.632
                     188    12 Jun 2027 03:17:43.906    12 Jun 2027 03:21:13.309           209.403
                     189    12 Jun 2027 04:52:56.755    12 Jun 2027 04:59:37.737           400.982
                     190    12 Jun 2027 06:28:51.974    12 Jun 2027 06:35:11.258           379.284
                     191    12 Jun 2027 08:06:50.916    12 Jun 2027 08:11:15.255           264.339
                     192    12 Jun 2027 09:42:42.589    12 Jun 2027 09:46:55.680           253.091
                     193    12 Jun 2027 09:47:01.473    12 Jun 2027 09:47:52.904            51.431
                     194    12 Jun 2027 14:49:37.732    12 Jun 2027 14:50:44.404            66.671
                     195    12 Jun 2027 16:25:25.070    12 Jun 2027 16:28:25.049           179.979
                     196    12 Jun 2027 18:01:25.153    12 Jun 2027 18:06:52.249           327.096
                     197    12 Jun 2027 19:37:53.906    12 Jun 2027 19:44:14.952           381.046
                     198    12 Jun 2027 21:13:22.568    12 Jun 2027 21:20:24.546           421.978
                     199    12 Jun 2027 22:52:40.572    12 Jun 2027 22:57:57.895           317.323
                     200    12 Jun 2027 22:58:53.166    12 Jun 2027 23:00:29.303            96.137
                     201    13 Jun 2027 00:18:48.367    13 Jun 2027 00:19:17.705            29.338
                     202    13 Jun 2027 00:29:46.376    13 Jun 2027 00:33:16.989           210.613
                     203    13 Jun 2027 01:53:42.436    13 Jun 2027 01:56:39.366           176.930
                     204    13 Jun 2027 03:29:27.723    13 Jun 2027 03:33:49.084           261.361
                     205    13 Jun 2027 05:04:11.616    13 Jun 2027 05:11:44.676           453.060
                     206    13 Jun 2027 06:41:00.323    13 Jun 2027 06:47:20.646           380.323
                     207    13 Jun 2027 08:19:13.740    13 Jun 2027 08:23:09.596           235.856
                     208    13 Jun 2027 09:52:31.486    13 Jun 2027 09:54:04.046            92.560
                     209    13 Jun 2027 09:54:07.324    13 Jun 2027 09:58:52.763           285.439
                     210    13 Jun 2027 09:59:10.408    13 Jun 2027 10:00:15.442            65.034
                     211    13 Jun 2027 15:00:58.734    13 Jun 2027 15:03:12.862           134.128
                     212    13 Jun 2027 16:37:12.154    13 Jun 2027 16:40:36.318           204.164
                     213    13 Jun 2027 18:13:49.646    13 Jun 2027 18:19:59.212           369.566
                     214    13 Jun 2027 19:50:00.979    13 Jun 2027 19:56:46.658           405.679
                     215    13 Jun 2027 21:26:03.315    13 Jun 2027 21:32:27.061           383.746
                     216    13 Jun 2027 23:05:00.936    13 Jun 2027 23:12:22.746           441.810

Min Duration          19     2 Jun 2027 04:25:30.331     2 Jun 2027 04:25:38.790             8.459
Max Duration         142     9 Jun 2027 04:15:02.069     9 Jun 2027 04:23:35.729           513.660
Mean Duration                                                                              241.404
Total Duration                                                                           52143.285


Russia-To-KinoSat_110503
------------------------
                  Access        Start Time (UTCG)           Stop Time (UTCG)        Duration (sec)
                  ------    ------------------------    ------------------------    --------------
                       1     1 Jun 2027 00:55:30.724     1 Jun 2027 00:57:33.495           122.770
                       2     1 Jun 2027 02:29:17.372     1 Jun 2027 02:35:21.460           364.087
                       3     1 Jun 2027 04:04:09.944     1 Jun 2027 04:12:36.990           507.046
                       4     1 Jun 2027 04:12:46.719     1 Jun 2027 04:13:47.163            60.444
                       5     1 Jun 2027 05:42:20.050     1 Jun 2027 05:49:41.265           441.215
                       6     1 Jun 2027 07:19:14.797     1 Jun 2027 07:24:18.414           303.617
                       7     1 Jun 2027 07:24:29.809     1 Jun 2027 07:25:36.507            66.698
                       8     1 Jun 2027 08:56:21.210     1 Jun 2027 09:01:14.901           293.691
                       9     1 Jun 2027 10:31:20.050     1 Jun 2027 10:32:06.857            46.806
                      10     1 Jun 2027 10:33:03.450     1 Jun 2027 10:36:23.311           199.861
                      11     1 Jun 2027 15:39:01.772     1 Jun 2027 15:41:30.902           149.130
                      12     1 Jun 2027 15:41:39.678     1 Jun 2027 15:44:05.229           145.551
                      13     1 Jun 2027 17:15:17.474     1 Jun 2027 17:20:06.321           288.847
                      14     1 Jun 2027 17:20:10.961     1 Jun 2027 17:22:09.164           118.202
                      15     1 Jun 2027 17:22:46.462     1 Jun 2027 17:23:38.142            51.680
                      16     1 Jun 2027 18:51:56.135     1 Jun 2027 18:58:30.570           394.435
                      17     1 Jun 2027 20:27:27.614     1 Jun 2027 20:35:09.980           462.366
                      18     1 Jun 2027 22:05:11.590     1 Jun 2027 22:05:20.152             8.562
                      19     1 Jun 2027 22:05:33.262     1 Jun 2027 22:06:34.380            61.118
                      20     1 Jun 2027 22:06:39.232     1 Jun 2027 22:11:44.939           305.707
                      21     1 Jun 2027 23:43:58.760     1 Jun 2027 23:48:41.833           283.073
                      22     2 Jun 2027 01:07:25.400     2 Jun 2027 01:09:48.847           143.447
                      23     2 Jun 2027 02:43:44.668     2 Jun 2027 02:47:13.328           208.660
                      24     2 Jun 2027 04:17:13.873     2 Jun 2027 04:25:46.378           512.505
                      25     2 Jun 2027 05:54:46.186     2 Jun 2027 06:01:31.320           405.134
                      26     2 Jun 2027 07:31:41.906     2 Jun 2027 07:36:08.778           266.872
                      27     2 Jun 2027 07:36:14.024     2 Jun 2027 07:37:29.822            75.798
                      28     2 Jun 2027 09:08:32.997     2 Jun 2027 09:13:05.292           272.295
                      29     2 Jun 2027 10:46:05.992     2 Jun 2027 10:48:10.293           124.301
                      30     2 Jun 2027 15:51:16.804     2 Jun 2027 15:53:53.329           156.526
                      31     2 Jun 2027 15:54:30.448     2 Jun 2027 15:55:57.950            87.502
                      32     2 Jun 2027 17:27:16.913     2 Jun 2027 17:33:56.087           399.174
                      33     2 Jun 2027 19:03:59.672     2 Jun 2027 19:10:22.879           383.207
                      34     2 Jun 2027 20:39:30.476     2 Jun 2027 20:47:04.478           454.002
                      35     2 Jun 2027 22:17:38.314     2 Jun 2027 22:18:05.904            27.590
                      36     2 Jun 2027 22:18:09.631     2 Jun 2027 22:23:47.385           337.753
                      37     2 Jun 2027 23:55:38.983     3 Jun 2027 00:00:29.690           290.708
                      38     3 Jun 2027 01:19:16.640     3 Jun 2027 01:21:58.174           161.534
                      39     3 Jun 2027 02:55:45.987     3 Jun 2027 02:59:20.890           214.903
                      40     3 Jun 2027 04:29:53.433     3 Jun 2027 04:36:40.398           406.965
                      41     3 Jun 2027 04:36:43.068     3 Jun 2027 04:37:41.168            58.099
                      42     3 Jun 2027 06:06:51.969     3 Jun 2027 06:13:35.542           403.573
                      43     3 Jun 2027 07:44:30.028     3 Jun 2027 07:49:00.192           270.164
                      44     3 Jun 2027 09:20:36.363     3 Jun 2027 09:25:24.277           287.915
                      45     3 Jun 2027 10:59:19.593     3 Jun 2027 10:59:23.074             3.481
                      46     3 Jun 2027 16:03:24.955     3 Jun 2027 16:05:42.055           137.099
                      47     3 Jun 2027 17:39:20.706     3 Jun 2027 17:45:46.557           385.851
                      48     3 Jun 2027 19:16:01.789     3 Jun 2027 19:22:32.089           390.300
                      49     3 Jun 2027 20:51:34.870     3 Jun 2027 20:59:01.675           446.805
                      50     3 Jun 2027 22:29:44.084     3 Jun 2027 22:30:46.939            62.855
                      51     3 Jun 2027 22:30:53.711     3 Jun 2027 22:35:59.582           305.870
                      52     4 Jun 2027 00:08:52.023     4 Jun 2027 00:12:22.850           210.827
                      53     4 Jun 2027 01:31:25.596     4 Jun 2027 01:34:31.097           185.501
                      54     4 Jun 2027 03:07:56.021     4 Jun 2027 03:11:31.182           215.160
                      55     4 Jun 2027 04:43:06.123     4 Jun 2027 04:49:42.897           396.773
                      56     4 Jun 2027 06:19:28.111     4 Jun 2027 06:25:41.863           373.752
                      57     4 Jun 2027 07:56:46.339     4 Jun 2027 08:01:21.616           275.277
                      58     4 Jun 2027 09:32:58.081     4 Jun 2027 09:37:38.153           280.072
                      59     4 Jun 2027 14:40:41.637     4 Jun 2027 14:40:52.443            10.806
                      60     4 Jun 2027 16:15:31.766     4 Jun 2027 16:18:38.291           186.525
                      61     4 Jun 2027 17:51:25.867     4 Jun 2027 17:57:06.975           341.109
                      62     4 Jun 2027 19:28:07.380     4 Jun 2027 19:34:16.405           369.025
                      63     4 Jun 2027 21:03:32.991     4 Jun 2027 21:10:33.713           420.722
                      64     4 Jun 2027 22:41:47.863     4 Jun 2027 22:42:29.493            41.630
                      65     4 Jun 2027 22:42:51.729     4 Jun 2027 22:47:54.504           302.775
                      66     5 Jun 2027 00:20:00.879     5 Jun 2027 00:20:37.222            36.343
                      67     5 Jun 2027 00:21:05.786     5 Jun 2027 00:23:32.106           146.320
                      68     5 Jun 2027 01:44:05.389     5 Jun 2027 01:46:37.255           151.866
                      69     5 Jun 2027 03:19:51.118     5 Jun 2027 03:23:27.701           216.584
                      70     5 Jun 2027 04:54:48.761     5 Jun 2027 05:01:50.393           421.631
                      71     5 Jun 2027 06:31:00.991     5 Jun 2027 06:37:27.568           386.578
                      72     5 Jun 2027 08:09:01.590     5 Jun 2027 08:13:13.032           251.442
                      73     5 Jun 2027 09:44:42.249     5 Jun 2027 09:49:05.739           263.490
                      74     5 Jun 2027 09:49:12.057     5 Jun 2027 09:50:08.522            56.465
                      75     5 Jun 2027 14:51:39.957     5 Jun 2027 14:53:00.879            80.922
                      76     5 Jun 2027 16:27:26.521     5 Jun 2027 16:30:33.899           187.378
                      77     5 Jun 2027 18:03:57.847     5 Jun 2027 18:09:05.860           308.013
                      78     5 Jun 2027 19:40:05.718     5 Jun 2027 19:46:54.091           408.373
                      79     5 Jun 2027 21:15:34.229     5 Jun 2027 21:22:42.589           428.360
                      80     5 Jun 2027 22:54:52.318     5 Jun 2027 23:00:18.398           326.080
                      81     5 Jun 2027 23:01:02.306     5 Jun 2027 23:02:38.946            96.640
                      82     6 Jun 2027 00:20:51.500     6 Jun 2027 00:21:32.190            40.690
                      83     6 Jun 2027 00:31:56.384     6 Jun 2027 00:35:22.890           206.506
                      84     6 Jun 2027 01:54:54.986     6 Jun 2027 01:59:06.547           251.561
                      85     6 Jun 2027 03:30:27.132     6 Jun 2027 03:30:33.213             6.081
                      86     6 Jun 2027 03:31:36.775     6 Jun 2027 03:36:03.538           266.763
                      87     6 Jun 2027 05:06:22.604     6 Jun 2027 05:13:55.620           453.016
                      88     6 Jun 2027 06:43:22.141     6 Jun 2027 06:49:30.102           367.961
                      89     6 Jun 2027 08:21:23.185     6 Jun 2027 08:25:19.775           236.590
                      90     6 Jun 2027 09:54:38.222     6 Jun 2027 10:01:07.232           389.010
                      91     6 Jun 2027 10:01:23.486     6 Jun 2027 10:02:29.703            66.217
                      92     6 Jun 2027 15:03:08.387     6 Jun 2027 15:05:31.784           143.396
                      93     6 Jun 2027 16:39:23.310     6 Jun 2027 16:42:46.921           203.610
                      94     6 Jun 2027 18:16:05.605     6 Jun 2027 18:22:17.437           371.832
                      95     6 Jun 2027 19:52:13.910     6 Jun 2027 19:58:52.551           398.641
                      96     6 Jun 2027 21:28:14.465     6 Jun 2027 21:34:39.890           385.425
                      97     6 Jun 2027 23:07:14.045     6 Jun 2027 23:14:32.369           438.325
                      98     7 Jun 2027 00:32:14.971     7 Jun 2027 00:33:45.118            90.147
                      99     7 Jun 2027 00:43:57.304     7 Jun 2027 00:45:20.087            82.783
                     100     7 Jun 2027 02:06:11.310     7 Jun 2027 02:07:24.907            73.597
                     101     7 Jun 2027 02:08:11.440     7 Jun 2027 02:11:20.120           188.680
                     102     7 Jun 2027 03:41:19.665     7 Jun 2027 03:42:51.413            91.748
                     103     7 Jun 2027 03:43:20.195     7 Jun 2027 03:48:16.980           296.786
                     104     7 Jun 2027 03:49:14.895     7 Jun 2027 03:49:22.836             7.942
                     105     7 Jun 2027 05:18:30.349     7 Jun 2027 05:25:56.317           445.968
                     106     7 Jun 2027 06:55:27.630     7 Jun 2027 07:01:36.290           368.660
                     107     7 Jun 2027 08:33:20.654     7 Jun 2027 08:37:22.412           241.758
                     108     7 Jun 2027 10:06:48.155     7 Jun 2027 10:14:27.267           459.113
                     109     7 Jun 2027 15:15:07.664     7 Jun 2027 15:17:45.916           158.251
                     110     7 Jun 2027 16:51:31.075     7 Jun 2027 16:54:53.758           202.683
                     111     7 Jun 2027 16:56:29.475     7 Jun 2027 16:58:36.058           126.583
                     112     7 Jun 2027 18:28:20.753     7 Jun 2027 18:34:19.335           358.582
                     113     7 Jun 2027 20:04:14.881     7 Jun 2027 20:11:00.126           405.245
                     114     7 Jun 2027 21:40:29.814     7 Jun 2027 21:46:27.434           357.620
                     115     7 Jun 2027 23:19:31.436     7 Jun 2027 23:26:30.211           418.775
                     116     8 Jun 2027 00:43:41.676     8 Jun 2027 00:45:56.786           135.110
                     117     8 Jun 2027 00:55:54.310     8 Jun 2027 00:56:48.507            54.197
                     118     8 Jun 2027 02:17:56.208     8 Jun 2027 02:19:14.965            78.757
                     119     8 Jun 2027 02:19:59.200     8 Jun 2027 02:23:31.975           212.775
                     120     8 Jun 2027 03:52:48.768     8 Jun 2027 04:00:38.263           469.495
                     121     8 Jun 2027 04:01:03.228     8 Jun 2027 04:01:54.122            50.894
                     122     8 Jun 2027 05:30:31.550     8 Jun 2027 05:37:58.130           446.580
                     123     8 Jun 2027 07:07:19.739     8 Jun 2027 07:13:13.763           354.024
                     124     8 Jun 2027 07:13:22.306     8 Jun 2027 07:14:02.516            40.209
                     125     8 Jun 2027 08:45:21.599     8 Jun 2027 08:49:31.455           249.856
                     126     8 Jun 2027 10:19:14.084     8 Jun 2027 10:25:55.691           401.607
                     127     8 Jun 2027 15:27:11.377     8 Jun 2027 15:29:58.876           167.499
                     128     8 Jun 2027 17:03:37.941     8 Jun 2027 17:07:33.406           235.464
                     129     8 Jun 2027 17:08:34.724     8 Jun 2027 17:11:35.696           180.972
                     130     8 Jun 2027 18:40:10.854     8 Jun 2027 18:46:36.556           385.702
                     131     8 Jun 2027 20:15:44.405     8 Jun 2027 20:23:29.383           464.978
                     132     8 Jun 2027 21:52:48.849     8 Jun 2027 21:53:02.201            13.352
                     133     8 Jun 2027 21:53:16.247     8 Jun 2027 21:53:44.066            27.819
                     134     8 Jun 2027 21:53:46.297     8 Jun 2027 21:58:47.441           301.143
                     135     8 Jun 2027 23:31:37.294     8 Jun 2027 23:38:20.495           403.200
                     136     9 Jun 2027 00:55:45.294     9 Jun 2027 00:57:48.413           123.118
                     137     9 Jun 2027 02:29:31.661     9 Jun 2027 02:35:36.219           364.558
                     138     9 Jun 2027 04:05:32.248     9 Jun 2027 04:12:51.685           439.437
                     139     9 Jun 2027 04:13:01.458     9 Jun 2027 04:14:01.776            60.318
                     140     9 Jun 2027 05:42:34.841     9 Jun 2027 05:49:55.804           440.963
                     141     9 Jun 2027 07:19:29.613     9 Jun 2027 07:24:32.963           303.349
                     142     9 Jun 2027 07:24:44.315     9 Jun 2027 07:25:50.944            66.628
                     143     9 Jun 2027 08:56:35.800     9 Jun 2027 09:01:29.495           293.694
                     144     9 Jun 2027 10:31:35.264     9 Jun 2027 10:32:21.408            46.145
