DATA_Files/Russia2Constellation/AreaTarget-Russia-To-Satellite-KinoSat_04_plane.txt

                                                                                                                                                                                                                                                                                           10 May 2023 21:03:20
Civil Air Patrol Use Only
AreaTarget-Russia-To-Satellite-KinoSat_110401, Satellite-KinoSat_110402, Satellite-KinoSat_110403, Satellite-KinoSat_110404, Satellite-KinoSat_110405, Satellite-KinoSat_110406, Satellite-KinoSat_110407, Satellite-KinoSat_110408, Satellite-KinoSat_110409, Satellite-KinoSat_110410:  Access Summary Report


Russia-To-KinoSat_110401
------------------------
                  Access        Start Time (UTCG)           Stop Time (UTCG)        Duration (sec)
                  ------    ------------------------    ------------------------    --------------
                       1     1 Jun 2027 01:18:30.035     1 Jun 2027 01:22:43.712           253.677
                       2     1 Jun 2027 02:54:02.551     1 Jun 2027 02:54:10.867             8.317
                       3     1 Jun 2027 02:55:12.773     1 Jun 2027 02:59:41.031           268.258
                       4     1 Jun 2027 04:29:57.825     1 Jun 2027 04:37:31.622           453.798
                       5     1 Jun 2027 06:06:58.699     1 Jun 2027 06:13:06.329           367.629
                       6     1 Jun 2027 07:44:59.170     1 Jun 2027 07:48:56.003           236.833
                       7     1 Jun 2027 09:18:13.069     1 Jun 2027 09:26:05.807           472.737
                       8     1 Jun 2027 14:26:44.323     1 Jun 2027 14:29:09.656           145.333
                       9     1 Jun 2027 16:02:59.574     1 Jun 2027 16:06:23.197           203.623
                      10     1 Jun 2027 17:39:42.279     1 Jun 2027 17:45:55.149           372.870
                      11     1 Jun 2027 19:15:50.581     1 Jun 2027 19:22:26.358           395.777
                      12     1 Jun 2027 20:51:50.769     1 Jun 2027 20:58:16.336           385.567
                      13     1 Jun 2027 22:30:51.087     1 Jun 2027 22:38:07.788           436.701
                      14     1 Jun 2027 23:55:50.865     1 Jun 2027 23:57:21.544            90.679
                      15     2 Jun 2027 00:07:33.288     2 Jun 2027 00:08:53.931            80.643
                      16     2 Jun 2027 01:29:46.473     2 Jun 2027 01:31:00.118            73.645
                      17     2 Jun 2027 01:31:47.986     2 Jun 2027 01:34:57.023           189.037
                      18     2 Jun 2027 03:04:54.318     2 Jun 2027 03:06:22.960            88.642
                      19     2 Jun 2027 03:06:55.870     2 Jun 2027 03:11:53.981           298.111
                      20     2 Jun 2027 03:12:50.126     2 Jun 2027 03:13:04.715            14.589
                      21     2 Jun 2027 04:42:06.711     2 Jun 2027 04:49:32.530           445.819
                      22     2 Jun 2027 06:19:03.888     2 Jun 2027 06:25:12.473           368.586
                      23     2 Jun 2027 07:56:56.928     2 Jun 2027 08:00:58.350           241.423
                      24     2 Jun 2027 09:30:31.297     2 Jun 2027 09:38:03.362           452.064
                      25     2 Jun 2027 14:38:44.117     2 Jun 2027 14:41:22.400           158.283
                      26     2 Jun 2027 16:15:07.710     2 Jun 2027 16:18:30.233           202.523
                      27     2 Jun 2027 16:20:05.421     2 Jun 2027 16:22:16.143           130.721
                      28     2 Jun 2027 17:51:57.534     2 Jun 2027 17:57:54.874           357.340
                      29     2 Jun 2027 19:27:50.716     2 Jun 2027 19:34:36.757           406.041
                      30     2 Jun 2027 21:04:06.310     2 Jun 2027 21:10:04.615           358.305
                      31     2 Jun 2027 22:43:09.855     2 Jun 2027 22:50:07.638           417.783
                      32     3 Jun 2027 00:07:18.557     3 Jun 2027 00:09:33.707           135.150
                      33     3 Jun 2027 00:19:30.405     3 Jun 2027 00:20:10.059            39.654
                      34     3 Jun 2027 01:41:31.691     3 Jun 2027 01:42:52.598            80.907
                      35     3 Jun 2027 01:43:34.924     3 Jun 2027 01:47:08.464           213.540
                      36     3 Jun 2027 03:16:23.899     3 Jun 2027 03:24:14.714           470.815
                      37     3 Jun 2027 03:24:39.299     3 Jun 2027 03:25:33.162            53.862
                      38     3 Jun 2027 04:54:08.508     3 Jun 2027 05:01:34.278           445.770
                      39     3 Jun 2027 06:30:56.326     3 Jun 2027 06:36:49.749           353.424
                      40     3 Jun 2027 06:36:57.725     3 Jun 2027 06:37:38.827            41.102
                      41     3 Jun 2027 08:09:00.047     3 Jun 2027 08:13:07.656           247.609
                      42     3 Jun 2027 09:42:50.569     3 Jun 2027 09:49:31.316           400.747
                      43     3 Jun 2027 14:50:47.674     3 Jun 2027 14:53:36.078           168.405
                      44     3 Jun 2027 16:27:13.815     3 Jun 2027 16:31:10.256           236.441
                      45     3 Jun 2027 16:32:12.302     3 Jun 2027 16:35:12.562           180.260
                      46     3 Jun 2027 18:03:46.908     3 Jun 2027 18:10:13.159           386.251
                      47     3 Jun 2027 19:39:20.190     3 Jun 2027 19:47:06.900           466.711
                      48     3 Jun 2027 21:16:32.208     3 Jun 2027 21:16:38.428             6.220
                      49     3 Jun 2027 21:16:52.810     3 Jun 2027 21:17:20.503            27.693
                      50     3 Jun 2027 21:17:22.392     3 Jun 2027 21:22:23.958           301.566
                      51     3 Jun 2027 22:55:14.317     3 Jun 2027 23:01:56.695           402.377
                      52     4 Jun 2027 00:19:21.342     4 Jun 2027 00:21:31.307           129.965
                      53     4 Jun 2027 01:55:18.509     4 Jun 2027 01:59:12.758           234.249
                      54     4 Jun 2027 03:29:08.349     4 Jun 2027 03:36:27.991           439.642
                      55     4 Jun 2027 03:36:38.238     4 Jun 2027 03:37:37.894            59.656
                      56     4 Jun 2027 05:06:11.453     4 Jun 2027 05:13:31.616           440.163
                      57     4 Jun 2027 06:43:05.927     4 Jun 2027 06:48:08.887           302.960
                      58     4 Jun 2027 06:48:19.984     4 Jun 2027 06:49:26.529            66.545
                      59     4 Jun 2027 08:20:12.219     4 Jun 2027 08:25:05.577           293.359
                      60     4 Jun 2027 09:55:13.603     4 Jun 2027 09:55:56.950            43.347
                      61     4 Jun 2027 09:56:53.453     4 Jun 2027 10:00:13.349           199.896
                      62     4 Jun 2027 15:02:52.692     4 Jun 2027 15:05:10.772           138.080
                      63     4 Jun 2027 15:05:31.481     4 Jun 2027 15:08:04.051           152.569
                      64     4 Jun 2027 16:39:07.677     4 Jun 2027 16:43:59.056           291.379
                      65     4 Jun 2027 16:44:01.772     4 Jun 2027 16:45:59.993           118.221
                      66     4 Jun 2027 18:15:47.378     4 Jun 2027 18:22:21.987           394.608
                      67     4 Jun 2027 19:51:18.448     4 Jun 2027 19:58:59.450           461.002
                      68     4 Jun 2027 21:29:24.405     4 Jun 2027 21:30:24.656            60.250
                      69     4 Jun 2027 21:30:29.744     4 Jun 2027 21:35:36.845           307.101
                      70     4 Jun 2027 23:07:50.739     4 Jun 2027 23:12:32.981           282.242
                      71     5 Jun 2027 00:31:15.476     5 Jun 2027 00:33:40.196           144.720
                      72     5 Jun 2027 02:07:36.354     5 Jun 2027 02:11:04.353           207.999
                      73     5 Jun 2027 03:41:06.292     5 Jun 2027 03:49:37.139           510.847
                      74     5 Jun 2027 05:18:37.128     5 Jun 2027 05:25:22.127           404.999
                      75     5 Jun 2027 06:55:33.361     5 Jun 2027 06:59:56.732           263.371
                      76     5 Jun 2027 07:00:02.975     5 Jun 2027 07:01:20.226            77.251
                      77     5 Jun 2027 08:32:23.780     5 Jun 2027 08:36:56.315           272.536
                      78     5 Jun 2027 10:10:00.862     5 Jun 2027 10:11:43.660           102.798
                      79     5 Jun 2027 15:15:06.691     5 Jun 2027 15:17:39.500           152.809
                      80     5 Jun 2027 15:18:23.535     5 Jun 2027 15:19:45.144            81.609
                      81     5 Jun 2027 16:51:08.074     5 Jun 2027 16:57:46.103           398.029
                      82     5 Jun 2027 18:27:50.244     5 Jun 2027 18:34:13.723           383.479
                      83     5 Jun 2027 20:03:22.296     5 Jun 2027 20:10:55.732           453.437
                      84     5 Jun 2027 21:41:28.916     5 Jun 2027 21:41:55.847            26.932
                      85     5 Jun 2027 21:41:59.778     5 Jun 2027 21:47:38.423           338.644
                      86     5 Jun 2027 23:19:29.817     5 Jun 2027 23:24:17.702           287.885
                      87     6 Jun 2027 00:43:06.326     6 Jun 2027 00:45:49.113           162.786
                      88     6 Jun 2027 02:19:37.984     6 Jun 2027 02:23:11.666           213.683
                      89     6 Jun 2027 03:53:55.942     6 Jun 2027 04:00:31.286           395.344
                      90     6 Jun 2027 04:00:34.131     6 Jun 2027 04:01:32.375            58.245
                      91     6 Jun 2027 05:30:43.807     6 Jun 2027 05:37:26.777           402.971
                      92     6 Jun 2027 07:08:24.825     6 Jun 2027 07:12:52.398           267.574
                      93     6 Jun 2027 08:44:26.283     6 Jun 2027 08:49:14.098           287.815
                      94     6 Jun 2027 15:27:16.259     6 Jun 2027 15:29:33.119           136.860
                      95     6 Jun 2027 17:03:11.709     6 Jun 2027 17:09:33.435           381.726
                      96     6 Jun 2027 18:39:52.853     6 Jun 2027 18:46:21.884           389.031
                      97     6 Jun 2027 20:15:25.382     6 Jun 2027 20:22:50.466           445.084
                      98     6 Jun 2027 21:53:34.762     6 Jun 2027 21:54:36.565            61.804
                      99     6 Jun 2027 21:54:43.926     6 Jun 2027 21:59:49.276           305.350
                     100     6 Jun 2027 23:32:42.711     6 Jun 2027 23:36:09.636           206.925
                     101     7 Jun 2027 00:55:16.290     7 Jun 2027 00:58:22.398           186.109
                     102     7 Jun 2027 02:31:47.377     7 Jun 2027 02:35:21.407           214.030
                     103     7 Jun 2027 04:06:57.101     7 Jun 2027 04:13:34.034           396.933
                     104     7 Jun 2027 05:43:19.599     7 Jun 2027 05:49:32.652           373.053
                     105     7 Jun 2027 07:20:34.911     7 Jun 2027 07:25:12.819           277.908
                     106     7 Jun 2027 08:56:49.551     7 Jun 2027 09:01:32.917           283.366
                     107     7 Jun 2027 14:04:31.661     7 Jun 2027 14:04:44.221            12.560
                     108     7 Jun 2027 15:39:23.914     7 Jun 2027 15:42:29.362           185.448
                     109     7 Jun 2027 17:15:17.163     7 Jun 2027 17:20:55.500           338.336
                     110     7 Jun 2027 18:51:58.220     7 Jun 2027 18:58:06.744           368.525
                     111     7 Jun 2027 20:27:23.637     7 Jun 2027 20:34:23.888           420.251
                     112     7 Jun 2027 22:05:39.068     7 Jun 2027 22:06:20.495            41.427
                     113     7 Jun 2027 22:06:42.369     7 Jun 2027 22:11:43.509           301.140
                     114     7 Jun 2027 23:43:51.464     7 Jun 2027 23:44:27.915            36.451
                     115     7 Jun 2027 23:44:56.526     7 Jun 2027 23:47:23.338           146.811
                     116     8 Jun 2027 01:07:56.066     8 Jun 2027 01:10:28.263           152.197
                     117     8 Jun 2027 02:43:41.392     8 Jun 2027 02:47:38.255           236.863
                     118     8 Jun 2027 04:18:38.871     8 Jun 2027 04:25:41.293           422.423
                     119     8 Jun 2027 05:54:51.496     8 Jun 2027 06:01:19.142           387.646
                     120     8 Jun 2027 07:33:04.053     8 Jun 2027 07:37:03.115           239.062
                     121     8 Jun 2027 09:08:32.137     8 Jun 2027 09:12:55.973           263.836
                     122     8 Jun 2027 09:13:03.037     8 Jun 2027 09:14:00.154            57.117
                     123     8 Jun 2027 14:15:28.310     8 Jun 2027 14:16:52.630            84.320
                     124     8 Jun 2027 15:51:16.584     8 Jun 2027 15:54:24.837           188.252
                     125     8 Jun 2027 17:27:48.602     8 Jun 2027 17:32:57.039           308.436
                     126     8 Jun 2027 19:03:56.709     8 Jun 2027 19:10:44.350           407.640
                     127     8 Jun 2027 20:39:25.134     8 Jun 2027 20:46:32.924           427.790
                     128     8 Jun 2027 22:18:43.487     8 Jun 2027 22:24:22.832           339.345
                     129     8 Jun 2027 22:24:53.695     8 Jun 2027 22:26:29.028            95.333
                     130     8 Jun 2027 23:44:40.115     8 Jun 2027 23:45:23.745            43.630
                     131     8 Jun 2027 23:55:46.953     8 Jun 2027 23:57:30.960           104.007
                     132     8 Jun 2027 23:57:37.617     8 Jun 2027 23:59:12.244            94.627
                     133     9 Jun 2027 01:18:44.357     9 Jun 2027 01:22:58.598           254.241
                     134     9 Jun 2027 02:54:16.914     9 Jun 2027 02:54:27.300            10.386
                     135     9 Jun 2027 02:55:27.098     9 Jun 2027 02:59:55.962           268.863
                     136     9 Jun 2027 04:30:12.283     9 Jun 2027 04:37:46.174           453.892
                     137     9 Jun 2027 06:07:13.446     9 Jun 2027 06:13:21.148           367.702
                     138     9 Jun 2027 07:45:13.627     9 Jun 2027 07:49:10.610           236.983
                     139     9 Jun 2027 09:18:27.262     9 Jun 2027 09:24:37.656           370.393
                     140     9 Jun 2027 09:24:38.456     9 Jun 2027 09:26:20.368           101.912
                     141     9 Jun 2027 14:26:58.891     9 Jun 2027 14:29:24.414           145.523
                     142     9 Jun 2027 16:03:14.262     9 Jun 2027 16:06:37.965           203.704
                     143     9 Jun 2027 17:39:56.981     9 Jun 2027 17:46:10.043           373.062
                     144     9 Jun 2027 19:16:05.426     9 Jun 2027 19:22:41.075           395.649
                     145     9 Jun 2027 20:52:05.453     9 Jun 2027 20:58:31.043           385.590
                     146     9 Jun 2027 22:31:06.041     9 Jun 2027 22:38:22.151           436.111
                     147     9 Jun 2027 23:56:05.516     9 Jun 2027 23:57:36.247            90.731
                     148    10 Jun 2027 00:07:47.903    10 Jun 2027 00:09:08.614            80.711
                     149    10 Jun 2027 01:30:00.975    10 Jun 2027 01:31:14.554            73.579
                     150    10 Jun 2027 01:32:02.743    10 Jun 2027 01:35:11.899           189.156
                     151    10 Jun 2027 03:05:08.696    10 Jun 2027 03:06:37.477            88.781
                     152    10 Jun 2027 03:07:10.338    10 Jun 2027 03:12:08.827           298.489
                     153    10 Jun 2027 03:13:02.196    10 Jun 2027 03:13:19.516            17.320
                     154    10 Jun 2027 04:42:21.464    10 Jun 2027 04:49:47.188           445.724
                     155    10 Jun 2027 06:19:18.225    10 Jun 2027 06:25:27.119           368.893
                     156    10 Jun 2027 07:57:11.652    10 Jun 2027 08:01:12.888           241.235
                     157    10 Jun 2027 09:30:45.931    10 Jun 2027 09:38:17.991           452.060
                     158    10 Jun 2027 14:38:58.834    10 Jun 2027 14:41:37.137           158.304
                     159    10 Jun 2027 16:15:22.523    10 Jun 2027 16:18:45.035           202.511
                     160    10 Jun 2027 16:20:19.992    10 Jun 2027 16:22:31.477           131.484
                     161    10 Jun 2027 17:52:12.492    10 Jun 2027 17:58:09.254           356.763
                     162    10 Jun 2027 19:28:05.299    10 Jun 2027 19:34:52.315           407.015
                     163    10 Jun 2027 21:04:21.008    10 Jun 2027 21:10:19.492           358.484
                     164    10 Jun 2027 22:43:24.544    10 Jun 2027 22:50:24.444           419.900
                     165    11 Jun 2027 00:07:33.420    11 Jun 2027 00:09:48.553           135.132
                     166    11 Jun 2027 00:19:44.967    11 Jun 2027 00:20:24.623            39.656
                     167    11 Jun 2027 01:41:46.309    11 Jun 2027 01:43:07.340            81.031
                     168    11 Jun 2027 01:43:49.481    11 Jun 2027 01:47:23.219           213.738
                     169    11 Jun 2027 03:16:38.213    11 Jun 2027 03:24:29.425           471.213
                     170    11 Jun 2027 03:24:53.902    11 Jun 2027 03:25:48.070            54.169
                     171    11 Jun 2027 04:54:23.350    11 Jun 2027 05:01:48.913           445.563
                     172    11 Jun 2027 06:31:11.039    11 Jun 2027 06:37:04.283           353.244
                     173    11 Jun 2027 06:37:12.123    11 Jun 2027 06:37:53.510            41.387
                     174    11 Jun 2027 08:09:14.803    11 Jun 2027 08:13:22.401           247.598
                     175    11 Jun 2027 09:43:05.082    11 Jun 2027 09:49:45.758           400.676
                     176    11 Jun 2027 14:51:02.308    11 Jun 2027 14:53:51.205           168.897
                     177    11 Jun 2027 16:27:28.336    11 Jun 2027 16:31:26.425           238.089
                     178    11 Jun 2027 16:32:21.921    11 Jun 2027 16:35:27.412           185.491
                     179    11 Jun 2027 18:04:01.560    11 Jun 2027 18:10:27.869           386.309
                     180    11 Jun 2027 19:39:34.577    11 Jun 2027 19:47:21.715           467.138
                     181    11 Jun 2027 21:16:46.864    11 Jun 2027 21:16:53.083             6.219
                     182    11 Jun 2027 21:17:07.551    11 Jun 2027 21:17:35.178            27.627
                     183    11 Jun 2027 21:17:37.036    11 Jun 2027 21:22:38.554           301.517
                     184    11 Jun 2027 22:55:29.202    11 Jun 2027 23:02:11.299           402.097
                     185    12 Jun 2027 00:19:35.944    12 Jun 2027 00:21:48.834           132.890
                     186    12 Jun 2027 01:55:33.129    12 Jun 2027 01:59:27.492           234.363
                     187    12 Jun 2027 03:29:23.029    12 Jun 2027 03:36:42.641           439.613
                     188    12 Jun 2027 03:36:52.870    12 Jun 2027 03:37:52.492            59.623
                     189    12 Jun 2027 05:06:26.231    12 Jun 2027 05:13:46.133           439.902
                     190    12 Jun 2027 06:43:20.609    12 Jun 2027 06:48:23.443           302.834
                     191    12 Jun 2027 06:48:34.242    12 Jun 2027 06:49:40.978            66.736
                     192    12 Jun 2027 08:20:27.001    12 Jun 2027 08:25:20.187           293.186
                     193    12 Jun 2027 09:55:28.540    12 Jun 2027 09:56:11.692            43.151
                     194    12 Jun 2027 09:57:08.098    12 Jun 2027 10:00:27.788           199.690
                     195    12 Jun 2027 15:03:07.356    12 Jun 2027 15:05:17.382           130.026
                     196    12 Jun 2027 15:05:46.221    12 Jun 2027 15:08:19.575           153.354
                     197    12 Jun 2027 16:39:22.208    12 Jun 2027 16:44:14.285           292.078
                     198    12 Jun 2027 16:44:16.328    12 Jun 2027 16:46:14.639           118.311
                     199    12 Jun 2027 18:16:02.149    12 Jun 2027 18:22:36.784           394.635
                     200    12 Jun 2027 19:51:33.032    12 Jun 2027 19:59:12.371           459.339
                     201    12 Jun 2027 21:29:39.192    12 Jun 2027 21:30:39.148            59.956
                     202    12 Jun 2027 21:30:44.353    12 Jun 2027 21:35:51.728           307.375
                     203    12 Jun 2027 23:08:05.605    12 Jun 2027 23:12:47.496           281.891
                     204    13 Jun 2027 00:31:29.981    13 Jun 2027 00:33:54.973           144.993
                     205    13 Jun 2027 02:07:51.301    13 Jun 2027 02:11:19.043           207.741
                     206    13 Jun 2027 03:41:21.000    13 Jun 2027 03:49:51.761           510.761
                     207    13 Jun 2027 05:18:52.030    13 Jun 2027 05:25:36.736           404.706
                     208    13 Jun 2027 06:55:47.961    13 Jun 2027 07:00:11.375           263.414
                     209    13 Jun 2027 07:00:16.919    13 Jun 2027 07:01:34.761            77.842
                     210    13 Jun 2027 08:32:38.386    13 Jun 2027 08:37:10.996           272.610
                     211    13 Jun 2027 10:10:15.516    13 Jun 2027 10:11:58.661           103.146
                     212    13 Jun 2027 15:15:21.281    13 Jun 2027 15:17:54.521           153.240
                     213    13 Jun 2027 15:18:38.746    13 Jun 2027 15:19:58.935            80.188
                     214    13 Jun 2027 16:51:22.798    13 Jun 2027 16:58:00.531           397.733
                     215    13 Jun 2027 18:28:04.858    13 Jun 2027 18:34:28.306           383.448
                     216    13 Jun 2027 20:03:36.930    13 Jun 2027 20:11:10.346           453.416
                     217    13 Jun 2027 21:41:43.140    13 Jun 2027 21:42:10.323            27.183
                     218    13 Jun 2027 21:42:14.297    13 Jun 2027 21:47:53.068           338.771
                     219    13 Jun 2027 23:19:44.466    13 Jun 2027 23:24:32.067           287.600

Min Duration         181    11 Jun 2027 21:16:46.864    11 Jun 2027 21:16:53.083             6.219
Max Duration          73     5 Jun 2027 03:41:06.292     5 Jun 2027 03:49:37.139           510.847
Mean Duration                                                                              247.827
Total Duration                                                                           54274.195


Russia-To-KinoSat_110402
------------------------
                  Access        Start Time (UTCG)           Stop Time (UTCG)        Duration (sec)
                  ------    ------------------------    ------------------------    --------------
                       1     1 Jun 2027 01:09:56.048     1 Jun 2027 01:12:39.324           163.276
                       2     1 Jun 2027 02:45:51.029     1 Jun 2027 02:49:54.680           243.651
                       3     1 Jun 2027 04:20:47.205     1 Jun 2027 04:27:53.961           426.756
                       4     1 Jun 2027 05:57:06.403     1 Jun 2027 06:03:31.450           385.047
                       5     1 Jun 2027 07:35:21.950     1 Jun 2027 07:39:15.064           233.114
                       6     1 Jun 2027 09:10:42.542     1 Jun 2027 09:14:53.554           251.011
                       7     1 Jun 2027 09:15:14.442     1 Jun 2027 09:16:13.032            58.590
                       8     1 Jun 2027 14:17:31.114     1 Jun 2027 14:19:08.855            97.741
                       9     1 Jun 2027 15:53:25.605     1 Jun 2027 15:56:35.454           189.849
                      10     1 Jun 2027 17:29:58.924     1 Jun 2027 17:35:10.029           311.105
                      11     1 Jun 2027 19:06:08.181     1 Jun 2027 19:12:56.624           408.443
                      12     1 Jun 2027 20:41:37.318     1 Jun 2027 20:48:45.197           427.879
                      13     1 Jun 2027 22:20:55.376     1 Jun 2027 22:26:29.857           334.481
                      14     1 Jun 2027 22:27:01.069     1 Jun 2027 22:28:34.675            93.606
                      15     1 Jun 2027 23:46:42.714     1 Jun 2027 23:47:38.175            55.462
                      16     1 Jun 2027 23:57:57.179     1 Jun 2027 23:59:38.701           101.522
                      17     1 Jun 2027 23:59:59.801     2 Jun 2027 00:01:07.433            67.633
                      18     2 Jun 2027 01:20:33.482     2 Jun 2027 01:25:12.357           278.875
                      19     2 Jun 2027 02:56:09.180     2 Jun 2027 02:56:49.543            40.363
                      20     2 Jun 2027 02:57:35.410     2 Jun 2027 03:02:09.186           273.775
                      21     2 Jun 2027 04:32:20.446     2 Jun 2027 04:39:54.565           454.119
                      22     2 Jun 2027 06:09:26.207     2 Jun 2027 06:15:48.531           382.324
                      23     2 Jun 2027 07:47:24.465     2 Jun 2027 07:51:19.843           235.378
                      24     2 Jun 2027 09:20:33.309     2 Jun 2027 09:26:47.500           374.191
                      25     2 Jun 2027 09:26:53.970     2 Jun 2027 09:28:29.342            95.372
                      26     2 Jun 2027 14:29:08.685     2 Jun 2027 14:31:41.495           152.809
                      27     2 Jun 2027 16:05:26.065     2 Jun 2027 16:08:53.353           207.288
                      28     2 Jun 2027 17:42:08.210     2 Jun 2027 17:48:20.654           372.445
                      29     2 Jun 2027 19:18:15.708     2 Jun 2027 19:24:53.217           397.508
                      30     2 Jun 2027 20:54:17.173     2 Jun 2027 21:00:41.515           384.343
                      31     2 Jun 2027 22:33:21.543     2 Jun 2027 22:40:31.964           430.421
                      32     2 Jun 2027 23:58:16.146     2 Jun 2027 23:59:49.691            93.545
                      33     3 Jun 2027 00:09:59.591     3 Jun 2027 00:11:16.302            76.711
                      34     3 Jun 2027 01:32:12.903     3 Jun 2027 01:33:22.575            69.672
                      35     3 Jun 2027 01:34:12.829     3 Jun 2027 01:37:25.382           192.553
                      36     3 Jun 2027 03:07:15.603     3 Jun 2027 03:08:59.478           103.875
                      37     3 Jun 2027 03:09:19.614     3 Jun 2027 03:14:30.651           311.037
                      38     3 Jun 2027 03:15:11.037     3 Jun 2027 03:15:33.145            22.107
                      39     3 Jun 2027 04:44:39.681     3 Jun 2027 04:51:58.718           439.037
                      40     3 Jun 2027 06:21:27.645     3 Jun 2027 06:27:55.943           388.297
                      41     3 Jun 2027 07:59:24.682     3 Jun 2027 08:03:23.351           238.669
                      42     3 Jun 2027 09:33:00.372     3 Jun 2027 09:40:27.970           447.599
                      43     3 Jun 2027 14:41:09.463     3 Jun 2027 14:43:49.051           159.588
                      44     3 Jun 2027 16:17:35.997     3 Jun 2027 16:20:57.933           201.937
                      45     3 Jun 2027 16:22:28.036     3 Jun 2027 16:24:53.240           145.203
                      46     3 Jun 2027 17:54:22.487     3 Jun 2027 18:00:18.271           355.784
                      47     3 Jun 2027 19:29:55.734     3 Jun 2027 19:29:58.663             2.929
                      48     3 Jun 2027 19:30:16.873     3 Jun 2027 19:37:08.521           411.648
                      49     3 Jun 2027 21:06:34.829     3 Jun 2027 21:12:36.903           362.074
                      50     3 Jun 2027 22:45:34.395     3 Jun 2027 22:52:32.475           418.081
                      51     4 Jun 2027 00:09:47.672     4 Jun 2027 00:11:59.404           131.732
                      52     4 Jun 2027 00:21:56.536     4 Jun 2027 00:22:33.120            36.583
                      53     4 Jun 2027 01:43:55.773     4 Jun 2027 01:45:09.556            73.783
                      54     4 Jun 2027 01:45:58.550     4 Jun 2027 01:49:37.630           219.080
                      55     4 Jun 2027 03:18:44.073     4 Jun 2027 03:26:42.414           478.341
                      56     4 Jun 2027 03:27:03.811     4 Jun 2027 03:27:47.097            43.286
                      57     4 Jun 2027 04:56:33.703     4 Jun 2027 05:03:59.166           445.463
                      58     4 Jun 2027 06:33:18.110     4 Jun 2027 06:39:11.741           353.631
                      59     4 Jun 2027 06:39:17.873     4 Jun 2027 06:40:03.083            45.210
                      60     4 Jun 2027 08:11:26.711     4 Jun 2027 08:15:32.828           246.117
                      61     4 Jun 2027 09:45:17.331     4 Jun 2027 09:51:34.331           377.000
                      62     4 Jun 2027 14:53:14.822     4 Jun 2027 14:56:10.108           175.286
                      63     4 Jun 2027 14:56:58.351     4 Jun 2027 14:57:11.571            13.220
                      64     4 Jun 2027 16:29:37.810     4 Jun 2027 16:33:45.156           247.347
                      65     4 Jun 2027 16:34:27.420     4 Jun 2027 16:37:42.160           194.741
                      66     4 Jun 2027 18:06:13.784     4 Jun 2027 18:12:42.103           388.319
                      67     4 Jun 2027 19:41:44.159     4 Jun 2027 19:49:30.617           466.458
                      68     4 Jun 2027 21:19:20.650     4 Jun 2027 21:21:04.978           104.328
                      69     4 Jun 2027 21:21:09.436     4 Jun 2027 21:24:54.958           225.522
                      70     4 Jun 2027 22:57:44.047     4 Jun 2027 23:02:57.824           313.777
                      71     5 Jun 2027 00:21:45.610     5 Jun 2027 00:24:02.058           136.447
                      72     5 Jun 2027 01:57:42.509     5 Jun 2027 02:01:38.717           236.209
                      73     5 Jun 2027 03:31:32.540     5 Jun 2027 03:38:50.735           438.195
                      74     5 Jun 2027 03:39:03.203     5 Jun 2027 03:40:03.445            60.242
                      75     5 Jun 2027 05:08:40.356     5 Jun 2027 05:15:59.770           439.414
                      76     5 Jun 2027 06:45:43.374     5 Jun 2027 06:50:31.627           288.253
                      77     5 Jun 2027 06:50:38.683     5 Jun 2027 06:51:49.651            70.968
                      78     5 Jun 2027 08:22:40.626     5 Jun 2027 08:27:32.931           292.305
                      79     5 Jun 2027 09:57:44.314     5 Jun 2027 09:58:08.915            24.602
                      80     5 Jun 2027 09:59:24.098     5 Jun 2027 10:02:35.640           191.542
                      81     5 Jun 2027 15:05:18.843     5 Jun 2027 15:07:48.229           149.386
                      82     5 Jun 2027 15:08:02.822     5 Jun 2027 15:10:40.491           157.669
                      83     5 Jun 2027 16:41:31.614     5 Jun 2027 16:48:28.104           416.489
                      84     5 Jun 2027 18:18:15.995     5 Jun 2027 18:24:46.446           390.451
                      85     5 Jun 2027 19:53:43.697     5 Jun 2027 20:01:23.032           459.335
                      86     5 Jun 2027 21:31:54.780     5 Jun 2027 21:32:44.035            49.255
                      87     5 Jun 2027 21:32:53.855     5 Jun 2027 21:33:36.411            42.556
                      88     5 Jun 2027 21:33:37.268     5 Jun 2027 21:37:25.673           228.405
                      89     5 Jun 2027 23:10:17.743     5 Jun 2027 23:14:56.514           278.771
                      90     6 Jun 2027 00:33:38.790     6 Jun 2027 00:36:07.245           148.455
                      91     6 Jun 2027 02:10:03.866     6 Jun 2027 02:13:29.662           205.795
                      92     6 Jun 2027 03:43:47.020     6 Jun 2027 03:51:00.360           433.340
                      93     6 Jun 2027 03:51:01.449     6 Jun 2027 03:52:02.199            60.750
                      94     6 Jun 2027 05:21:06.639     6 Jun 2027 05:27:47.969           401.330
                      95     6 Jun 2027 06:58:03.385     6 Jun 2027 07:02:24.935           261.549
                      96     6 Jun 2027 07:02:26.943     6 Jun 2027 07:03:33.849            66.906
                      97     6 Jun 2027 08:34:53.779     6 Jun 2027 08:39:21.862           268.083
                      98     6 Jun 2027 10:12:35.064     6 Jun 2027 10:14:10.557            95.494
                      99     6 Jun 2027 15:17:32.236     6 Jun 2027 15:19:53.625           141.389
                     100     6 Jun 2027 15:20:53.174     6 Jun 2027 15:21:58.389            65.215
                     101     6 Jun 2027 16:53:35.129     6 Jun 2027 17:00:07.156           392.027
                     102     6 Jun 2027 18:30:15.949     6 Jun 2027 18:36:38.711           382.762
                     103     6 Jun 2027 20:05:48.632     6 Jun 2027 20:13:22.387           453.755
                     104     6 Jun 2027 21:43:52.339     6 Jun 2027 21:43:59.822             7.483
                     105     6 Jun 2027 21:44:07.986     6 Jun 2027 21:50:08.495           360.509
                     106     6 Jun 2027 23:21:55.838     6 Jun 2027 23:26:32.712           276.874
                     107     7 Jun 2027 00:45:26.838     7 Jun 2027 00:48:13.976           167.138
                     108     7 Jun 2027 02:22:06.596     7 Jun 2027 02:25:37.349           210.753
                     109     7 Jun 2027 03:57:06.178     7 Jun 2027 04:02:56.327           350.149
                     110     7 Jun 2027 04:02:59.763     7 Jun 2027 04:03:59.094            59.331
                     111     7 Jun 2027 05:33:14.408     7 Jun 2027 05:39:54.037           399.629
                     112     7 Jun 2027 07:10:58.629     7 Jun 2027 07:15:22.638           264.009
                     113     7 Jun 2027 08:47:04.053     7 Jun 2027 08:51:23.327           259.274
                     114     7 Jun 2027 15:29:42.573     7 Jun 2027 15:32:10.365           147.792
                     115     7 Jun 2027 17:05:38.214     7 Jun 2027 17:11:49.412           371.198
                     116     7 Jun 2027 18:42:20.175     7 Jun 2027 18:48:46.911           386.736
                     117     7 Jun 2027 20:17:50.997     7 Jun 2027 20:25:09.639           438.642
                     118     7 Jun 2027 21:56:00.412     7 Jun 2027 21:57:00.063            59.651
                     119     7 Jun 2027 21:57:09.743     7 Jun 2027 22:02:18.352           308.609
                     120     7 Jun 2027 23:34:19.213     7 Jun 2027 23:34:49.016            29.803
                     121     7 Jun 2027 23:35:07.893     7 Jun 2027 23:38:11.155           183.262
                     122     8 Jun 2027 00:57:41.076     8 Jun 2027 01:00:49.517           188.441
                     123     8 Jun 2027 02:34:13.288     8 Jun 2027 02:37:44.206           210.918
                     124     8 Jun 2027 04:09:23.632     8 Jun 2027 04:15:59.717           396.085
                     125     8 Jun 2027 05:45:46.650     8 Jun 2027 05:51:55.854           369.204
                     126     8 Jun 2027 07:23:03.841     8 Jun 2027 07:27:40.486           276.645
                     127     8 Jun 2027 08:59:16.798     8 Jun 2027 09:04:00.854           284.056
                     128     8 Jun 2027 15:41:53.110     8 Jun 2027 15:44:57.024           183.913
                     129     8 Jun 2027 17:17:43.741     8 Jun 2027 17:23:21.536           337.796
                     130     8 Jun 2027 18:54:18.514     8 Jun 2027 19:00:33.161           374.647
                     131     8 Jun 2027 20:29:48.186     8 Jun 2027 20:36:46.987           418.801
                     132     8 Jun 2027 22:08:04.881     8 Jun 2027 22:08:18.201            13.320
                     133     8 Jun 2027 22:08:35.100     8 Jun 2027 22:08:42.250             7.150
                     134     8 Jun 2027 22:09:07.107     8 Jun 2027 22:14:14.357           307.250
                     135     8 Jun 2027 22:15:40.416     8 Jun 2027 22:17:03.627            83.211
                     136     8 Jun 2027 23:46:15.748     8 Jun 2027 23:46:54.305            38.557
                     137     8 Jun 2027 23:47:20.595     8 Jun 2027 23:49:52.041           151.447
                     138     9 Jun 2027 01:10:10.477     9 Jun 2027 01:12:53.975           163.498
                     139     9 Jun 2027 02:46:05.527     9 Jun 2027 02:50:09.473           243.947
                     140     9 Jun 2027 04:21:01.360     9 Jun 2027 04:28:08.669           427.308
                     141     9 Jun 2027 05:57:20.896     9 Jun 2027 06:03:46.271           385.375
                     142     9 Jun 2027 07:35:36.883     9 Jun 2027 07:39:29.767           232.884
                     143     9 Jun 2027 09:10:57.477     9 Jun 2027 09:15:08.214           250.738
                     144     9 Jun 2027 09:15:29.117     9 Jun 2027 09:16:27.642            58.525
                     145     9 Jun 2027 14:17:45.197     9 Jun 2027 14:19:23.781            98.584
                     146     9 Jun 2027 15:53:40.178     9 Jun 2027 15:56:50.213           190.035
                     147     9 Jun 2027 17:30:13.576     9 Jun 2027 17:35:24.682           311.107
                     148     9 Jun 2027 19:06:22.903     9 Jun 2027 19:13:11.156           408.254
                     149     9 Jun 2027 20:41:52.176     9 Jun 2027 20:49:00.444           428.268
                     150     9 Jun 2027 22:21:10.060     9 Jun 2027 22:26:44.143           334.082
                     151     9 Jun 2027 22:27:13.950     9 Jun 2027 22:28:49.063            95.112
                     152     9 Jun 2027 23:46:56.795     9 Jun 2027 23:47:53.086            56.291
                     153     9 Jun 2027 23:58:11.832     9 Jun 2027 23:59:53.230           101.398
                     154    10 Jun 2027 00:00:15.430    10 Jun 2027 00:01:21.423            65.994
                     155    10 Jun 2027 01:20:47.972    10 Jun 2027 01:25:27.159           279.186
                     156    10 Jun 2027 02:56:23.425    10 Jun 2027 02:57:04.388            40.964
                     157    10 Jun 2027 02:57:50.043    10 Jun 2027 03:02:23.863           273.820
                     158    10 Jun 2027 04:32:34.929    10 Jun 2027 04:40:09.226           454.297
                     159    10 Jun 2027 06:09:40.837    10 Jun 2027 06:16:03.222           382.384
                     160    10 Jun 2027 07:47:39.074    10 Jun 2027 07:51:34.676           235.602
                     161    10 Jun 2027 09:20:47.934    10 Jun 2027 09:27:01.914           373.980
                     162    10 Jun 2027 09:27:08.958    10 Jun 2027 09:28:44.281            95.323
                     163    10 Jun 2027 14:29:23.256    10 Jun 2027 14:31:56.380           153.124
                     164    10 Jun 2027 16:05:40.789    10 Jun 2027 16:09:08.133           207.344
                     165    10 Jun 2027 17:42:22.854    10 Jun 2027 17:48:35.408           372.555
                     166    10 Jun 2027 19:18:30.251    10 Jun 2027 19:25:07.832           397.581
                     167    10 Jun 2027 20:54:31.890    10 Jun 2027 21:00:55.806           383.916
                     168    10 Jun 2027 22:33:36.521    10 Jun 2027 22:40:46.333           429.812
                     169    10 Jun 2027 23:58:30.689    11 Jun 2027 00:00:04.366            93.677
                     170    11 Jun 2027 00:10:14.303    11 Jun 2027 00:11:30.427            76.124
                     171    11 Jun 2027 01:32:27.800    11 Jun 2027 01:33:36.987            69.188
                     172    11 Jun 2027 01:34:27.211    11 Jun 2027 01:37:40.168           192.957
                     173    11 Jun 2027 03:07:29.986    11 Jun 2027 03:09:21.578           111.592
                     174    11 Jun 2027 03:09:34.064    11 Jun 2027 03:14:45.979           311.915
                     175    11 Jun 2027 03:15:25.606    11 Jun 2027 03:15:47.906            22.301
                     176    11 Jun 2027 04:44:54.525    11 Jun 2027 04:52:13.409           438.884
                     177    11 Jun 2027 06:21:42.223    11 Jun 2027 06:28:10.758           388.535
                     178    11 Jun 2027 07:59:39.316    11 Jun 2027 08:03:37.952           238.636
                     179    11 Jun 2027 09:33:15.075    11 Jun 2027 09:40:41.982           446.907
                     180    11 Jun 2027 14:41:24.070    11 Jun 2027 14:44:03.909           159.839
                     181    11 Jun 2027 16:17:50.811    11 Jun 2027 16:21:12.697           201.886
                     182    11 Jun 2027 16:22:41.497    11 Jun 2027 16:25:08.807           147.310
                     183    11 Jun 2027 17:54:37.149    11 Jun 2027 18:00:33.071           355.922
                     184    11 Jun 2027 19:30:10.022    11 Jun 2027 19:30:14.628             4.607
                     185    11 Jun 2027 19:30:31.638    11 Jun 2027 19:37:23.543           411.905
                     186    11 Jun 2027 21:06:49.524    11 Jun 2027 21:12:51.803           362.279
                     187    11 Jun 2027 22:45:48.829    11 Jun 2027 22:52:46.867           418.038
                     188    12 Jun 2027 00:10:02.434    12 Jun 2027 00:12:12.087           129.653
                     189    12 Jun 2027 00:22:13.457    12 Jun 2027 00:22:47.580            34.123
                     190    12 Jun 2027 01:44:10.124    12 Jun 2027 01:45:23.852            73.728
                     191    12 Jun 2027 01:46:13.002    12 Jun 2027 01:49:52.707           219.705
                     192    12 Jun 2027 03:18:58.544    12 Jun 2027 03:26:57.171           478.628
                     193    12 Jun 2027 03:27:18.421    12 Jun 2027 03:28:01.809            43.389
                     194    12 Jun 2027 04:56:48.341    12 Jun 2027 05:04:13.761           445.420
                     195    12 Jun 2027 06:33:32.817    12 Jun 2027 06:39:26.127           353.310
                     196    12 Jun 2027 06:39:32.405    12 Jun 2027 06:40:17.497            45.093
                     197    12 Jun 2027 08:11:41.408    12 Jun 2027 08:15:47.480           246.072
                     198    12 Jun 2027 09:45:32.110    12 Jun 2027 09:51:48.969           376.859
                     199    12 Jun 2027 14:53:29.405    12 Jun 2027 14:56:24.606           175.201
                     200    12 Jun 2027 14:57:13.168    12 Jun 2027 14:57:25.975            12.807
                     201    12 Jun 2027 16:29:52.414    12 Jun 2027 16:33:59.978           247.564
                     202    12 Jun 2027 16:34:42.408    12 Jun 2027 16:37:56.841           194.433
                     203    12 Jun 2027 18:06:28.317    12 Jun 2027 18:12:57.355           389.039
                     204    12 Jun 2027 19:41:58.745    12 Jun 2027 19:49:45.070           466.325
                     205    12 Jun 2027 21:19:35.383    12 Jun 2027 21:21:19.020           103.637
                     206    12 Jun 2027 21:21:24.616    12 Jun 2027 21:25:09.332           224.716
                     207    12 Jun 2027 22:57:58.744    12 Jun 2027 23:03:12.416           313.672
                     208    13 Jun 2027 00:22:00.237    13 Jun 2027 00:24:16.666           136.429
                     209    13 Jun 2027 01:57:57.260    13 Jun 2027 02:01:53.294           236.033
                     210    13 Jun 2027 03:31:46.728    13 Jun 2027 03:39:05.429           438.701
                     211    13 Jun 2027 03:39:17.839    13 Jun 2027 03:40:18.066            60.227
                     212    13 Jun 2027 05:08:55.187    13 Jun 2027 05:16:14.455           439.269
                     213    13 Jun 2027 06:45:58.095    13 Jun 2027 06:50:45.003           286.909
                     214    13 Jun 2027 06:50:53.163    13 Jun 2027 06:52:04.190            71.026
                     215    13 Jun 2027 08:22:54.788    13 Jun 2027 08:27:47.683           292.895
                     216    13 Jun 2027 09:57:59.211    13 Jun 2027 09:58:23.372            24.160
                     217    13 Jun 2027 09:59:38.808    13 Jun 2027 10:02:50.051           191.243
                     218    13 Jun 2027 15:05:33.527    13 Jun 2027 15:08:02.603           149.076
                     219    13 Jun 2027 15:08:17.748    13 Jun 2027 15:10:55.672           157.924
                     220    13 Jun 2027 16:41:46.212    13 Jun 2027 16:48:42.876           416.664
                     221    13 Jun 2027 18:18:30.821    13 Jun 2027 18:25:00.846           390.025
                     222    13 Jun 2027 19:53:58.313    13 Jun 2027 20:01:37.528           459.216
                     223    13 Jun 2027 21:32:09.492    13 Jun 2027 21:32:58.587            49.095
                     224    13 Jun 2027 21:33:08.228    13 Jun 2027 21:33:50.924            42.696
                     225    13 Jun 2027 21:33:51.857    13 Jun 2027 21:37:40.350           228.493
                     226    13 Jun 2027 23:10:32.715    13 Jun 2027 23:15:11.280           278.565

Min Duration          47     3 Jun 2027 19:29:55.734     3 Jun 2027 19:29:58.663             2.929
Max Duration         192    12 Jun 2027 03:18:58.544    12 Jun 2027 03:26:57.171           478.628
Mean Duration                                                                              238.511
Total Duration                                                                           53903.378


Russia-To-KinoSat_110403
------------------------
                  Access        Start Time (UTCG)           Stop Time (UTCG)        Duration (sec)
                  ------    ------------------------    ------------------------    --------------
                       1     1 Jun 2027 00:59:49.012     1 Jun 2027 01:03:01.995           192.983
                       2     1 Jun 2027 02:36:24.973     1 Jun 2027 02:39:51.943           206.970
                       3     1 Jun 2027 04:11:35.238     1 Jun 2027 04:18:10.905           395.667
                       4     1 Jun 2027 05:47:55.073     1 Jun 2027 05:53:39.037           343.963
                       5     1 Jun 2027 05:53:46.590     1 Jun 2027 05:53:58.435            11.846
                       6     1 Jun 2027 07:25:21.588     1 Jun 2027 07:29:54.261           272.674
                       7     1 Jun 2027 09:01:25.239     1 Jun 2027 09:05:35.723           250.484
                       8     1 Jun 2027 09:05:40.741     1 Jun 2027 09:06:17.564            36.822
                       9     1 Jun 2027 14:08:33.656     1 Jun 2027 14:08:36.272             2.616
                      10     1 Jun 2027 15:44:02.604     1 Jun 2027 15:47:09.839           187.235
                      11     1 Jun 2027 17:19:54.237     1 Jun 2027 17:25:32.392           338.155
                      12     1 Jun 2027 18:56:29.239     1 Jun 2027 19:02:42.788           373.549
                      13     1 Jun 2027 20:31:59.901     1 Jun 2027 20:38:54.566           414.664
                      14     1 Jun 2027 22:10:17.729     1 Jun 2027 22:10:19.417             1.688
                      15     1 Jun 2027 22:11:17.902     1 Jun 2027 22:16:23.458           305.556
                      16     1 Jun 2027 22:17:47.210     1 Jun 2027 22:19:14.550            87.340
                      17     1 Jun 2027 23:37:40.320     1 Jun 2027 23:37:45.301             4.981
                      18     1 Jun 2027 23:48:26.274     1 Jun 2027 23:49:05.752            39.477
                      19     1 Jun 2027 23:49:25.784     1 Jun 2027 23:52:01.110           155.326
                      20     2 Jun 2027 01:12:23.200     2 Jun 2027 01:15:05.918           162.718
                      21     2 Jun 2027 02:48:11.269     2 Jun 2027 02:52:21.652           250.383
                      22     2 Jun 2027 04:23:04.517     2 Jun 2027 04:30:20.228           435.711
                      23     2 Jun 2027 05:59:34.806     2 Jun 2027 06:05:58.650           383.843
                      24     2 Jun 2027 07:37:52.696     2 Jun 2027 07:41:36.002           223.306
                      25     2 Jun 2027 09:13:18.249     2 Jun 2027 09:17:21.405           243.156
                      26     2 Jun 2027 09:17:41.792     2 Jun 2027 09:18:41.095            59.303
                      27     2 Jun 2027 14:19:48.398     2 Jun 2027 14:21:39.655           111.257
                      28     2 Jun 2027 15:55:50.161     2 Jun 2027 15:59:11.129           200.968
                      29     2 Jun 2027 17:32:24.786     2 Jun 2027 17:37:38.931           314.145
                      30     2 Jun 2027 19:08:34.889     2 Jun 2027 19:15:23.108           408.219
                      31     2 Jun 2027 20:44:29.176     2 Jun 2027 20:51:05.116           395.940
                      32     2 Jun 2027 22:23:21.404     2 Jun 2027 22:28:59.153           337.750
                      33     2 Jun 2027 22:29:23.314     2 Jun 2027 22:30:59.652            96.338
                      34     2 Jun 2027 23:48:58.936     2 Jun 2027 23:50:08.155            69.219
                      35     3 Jun 2027 00:00:22.185     3 Jun 2027 00:02:02.840           100.655
                      36     3 Jun 2027 00:03:01.786     3 Jun 2027 00:03:06.910             5.124
                      37     3 Jun 2027 01:22:57.560     3 Jun 2027 01:24:00.696            63.135
                      38     3 Jun 2027 01:24:14.256     3 Jun 2027 01:27:40.012           205.756
                      39     3 Jun 2027 02:58:28.356     3 Jun 2027 02:59:19.154            50.798
                      40     3 Jun 2027 02:59:56.845     3 Jun 2027 03:04:36.941           280.096
                      41     3 Jun 2027 04:34:48.430     3 Jun 2027 04:42:20.881           452.451
                      42     3 Jun 2027 06:11:54.561     3 Jun 2027 06:17:58.366           363.805
                      43     3 Jun 2027 07:49:50.029     3 Jun 2027 07:53:48.209           238.180
                      44     3 Jun 2027 09:22:55.496     3 Jun 2027 09:29:16.362           380.867
                      45     3 Jun 2027 09:29:57.643     3 Jun 2027 09:30:57.185            59.542
                      46     3 Jun 2027 14:31:33.725     3 Jun 2027 14:34:19.539           165.813
                      47     3 Jun 2027 16:07:52.785     3 Jun 2027 16:11:18.305           205.520
                      48     3 Jun 2027 17:44:33.045     3 Jun 2027 17:50:45.406           372.361
                      49     3 Jun 2027 19:20:39.640     3 Jun 2027 19:27:19.751           400.111
                      50     3 Jun 2027 20:56:44.348     3 Jun 2027 21:02:52.591           368.243
                      51     3 Jun 2027 22:35:50.420     3 Jun 2027 22:42:59.010           428.589
                      52     4 Jun 2027 00:00:41.001     4 Jun 2027 00:02:17.145            96.144
                      53     4 Jun 2027 00:12:24.703     4 Jun 2027 00:13:25.458            60.755
                      54     4 Jun 2027 01:34:39.515     4 Jun 2027 01:35:45.637            66.122
                      55     4 Jun 2027 01:36:33.092     4 Jun 2027 01:39:53.573           200.481
                      56     4 Jun 2027 03:09:36.263     4 Jun 2027 03:11:33.285           117.022
                      57     4 Jun 2027 03:11:41.347     4 Jun 2027 03:16:59.355           318.008
                      58     4 Jun 2027 03:17:34.838     4 Jun 2027 03:17:59.968            25.130
                      59     4 Jun 2027 04:47:05.932     4 Jun 2027 04:54:24.538           438.607
                      60     4 Jun 2027 06:23:50.609     4 Jun 2027 06:29:08.687           318.078
                      61     4 Jun 2027 06:29:09.850     4 Jun 2027 06:30:03.033            53.183
                      62     4 Jun 2027 06:30:06.856     4 Jun 2027 06:30:23.948            17.093
                      63     4 Jun 2027 08:01:49.326     4 Jun 2027 08:06:00.181           250.855
                      64     4 Jun 2027 09:35:26.854     4 Jun 2027 09:42:51.456           444.602
                      65     4 Jun 2027 14:43:33.898     4 Jun 2027 14:46:18.707           164.809
                      66     4 Jun 2027 16:20:04.530     4 Jun 2027 16:23:27.635           203.105
                      67     4 Jun 2027 16:24:49.045     4 Jun 2027 16:27:32.551           163.506
                      68     4 Jun 2027 17:56:46.618     4 Jun 2027 18:02:47.925           361.307
                      69     4 Jun 2027 19:32:17.657     4 Jun 2027 19:32:35.733            18.076
                      70     4 Jun 2027 19:32:44.931     4 Jun 2027 19:39:43.791           418.860
                      71     4 Jun 2027 21:09:02.998     4 Jun 2027 21:10:13.184            70.186
                      72     4 Jun 2027 21:10:15.216     4 Jun 2027 21:11:14.413            59.197
                      73     4 Jun 2027 21:11:15.669     4 Jun 2027 21:15:06.008           230.339
                      74     4 Jun 2027 22:47:51.815     4 Jun 2027 22:54:53.400           421.584
                      75     5 Jun 2027 00:12:14.335     5 Jun 2027 00:14:19.880           125.545
                      76     5 Jun 2027 00:24:26.479     5 Jun 2027 00:24:57.887            31.409
                      77     5 Jun 2027 01:46:11.369     5 Jun 2027 01:47:31.019            79.651
                      78     5 Jun 2027 01:48:19.320     5 Jun 2027 01:52:05.937           226.616
                      79     5 Jun 2027 03:21:05.198     5 Jun 2027 03:29:09.189           483.992
                      80     5 Jun 2027 03:29:29.282     5 Jun 2027 03:30:27.549            58.266
                      81     5 Jun 2027 04:58:59.732     5 Jun 2027 05:06:25.120           445.389
                      82     5 Jun 2027 06:35:43.911     5 Jun 2027 06:41:28.572           344.662
                      83     5 Jun 2027 06:41:30.024     5 Jun 2027 06:42:27.082            57.058
                      84     5 Jun 2027 08:13:37.440     5 Jun 2027 08:17:59.451           262.012
                      85     5 Jun 2027 09:49:35.332     5 Jun 2027 09:53:54.930           259.598
                      86     5 Jun 2027 14:55:40.388     5 Jun 2027 14:58:36.078           175.690
                      87     5 Jun 2027 14:59:06.867     5 Jun 2027 15:00:05.669            58.802
                      88     5 Jun 2027 16:32:03.566     5 Jun 2027 16:36:25.549           261.983
                      89     5 Jun 2027 16:36:57.412     5 Jun 2027 16:40:06.026           188.614
                      90     5 Jun 2027 18:08:38.178     5 Jun 2027 18:15:10.911           392.733
                      91     5 Jun 2027 19:44:09.458     5 Jun 2027 19:51:51.897           462.439
                      92     5 Jun 2027 21:21:47.493     5 Jun 2027 21:23:26.146            98.653
                      93     5 Jun 2027 21:23:51.402     5 Jun 2027 21:27:22.486           211.084
                      94     5 Jun 2027 23:00:14.006     5 Jun 2027 23:05:22.536           308.530
                      95     6 Jun 2027 00:24:09.839     6 Jun 2027 00:26:26.265           136.426
                      96     6 Jun 2027 02:00:09.889     6 Jun 2027 02:04:02.842           232.953
                      97     6 Jun 2027 03:33:58.207     6 Jun 2027 03:42:28.875           510.668
                      98     6 Jun 2027 05:11:08.397     6 Jun 2027 05:18:24.464           436.067
                      99     6 Jun 2027 06:48:22.619     6 Jun 2027 06:52:52.860           270.241
                     100     6 Jun 2027 06:53:03.135     6 Jun 2027 06:54:13.872            70.737
                     101     6 Jun 2027 08:25:03.300     6 Jun 2027 08:29:55.797           292.497
                     102     6 Jun 2027 10:00:15.965     6 Jun 2027 10:00:29.737            13.771
                     103     6 Jun 2027 10:02:01.554     6 Jun 2027 10:04:58.109           176.555
                     104     6 Jun 2027 15:07:45.067     6 Jun 2027 15:10:17.631           152.563
                     105     6 Jun 2027 15:10:38.971     6 Jun 2027 15:13:13.435           154.463
                     106     6 Jun 2027 16:43:57.011     6 Jun 2027 16:50:55.063           418.052
                     107     6 Jun 2027 18:20:41.539     6 Jun 2027 18:27:06.074           384.536
                     108     6 Jun 2027 19:56:08.963     6 Jun 2027 20:03:41.918           452.955
                     109     6 Jun 2027 21:34:25.127     6 Jun 2027 21:35:03.511            38.384
                     110     6 Jun 2027 21:35:11.296     6 Jun 2027 21:36:00.367            49.071
                     111     6 Jun 2027 21:36:02.599     6 Jun 2027 21:40:34.209           271.611
                     112     6 Jun 2027 23:12:42.413     6 Jun 2027 23:17:22.919           280.505
                     113     7 Jun 2027 00:36:02.086     7 Jun 2027 00:38:37.143           155.057
                     114     7 Jun 2027 02:12:23.143     7 Jun 2027 02:15:54.782           211.639
                     115     7 Jun 2027 03:46:25.068     7 Jun 2027 03:53:22.253           417.184
                     116     7 Jun 2027 03:53:26.141     7 Jun 2027 03:54:27.170            61.029
                     117     7 Jun 2027 05:23:32.871     7 Jun 2027 05:30:14.881           402.010
                     118     7 Jun 2027 07:00:30.769     7 Jun 2027 07:05:29.236           298.467
                     119     7 Jun 2027 08:37:18.024     7 Jun 2027 08:41:48.883           270.859
                     120     7 Jun 2027 10:15:28.465     7 Jun 2027 10:16:29.042            60.577
                     121     7 Jun 2027 15:20:03.779     7 Jun 2027 15:22:20.259           136.480
                     122     7 Jun 2027 15:23:35.252     7 Jun 2027 15:24:12.002            36.750
                     123     7 Jun 2027 16:56:01.495     7 Jun 2027 17:02:32.906           391.411
                     124     7 Jun 2027 18:32:42.975     7 Jun 2027 18:39:06.573           383.598
                     125     7 Jun 2027 20:08:16.213     7 Jun 2027 20:15:45.581           449.368
                     126     7 Jun 2027 21:46:17.775     7 Jun 2027 21:46:22.560             4.785
                     127     7 Jun 2027 21:46:47.313     7 Jun 2027 21:52:33.803           346.490
                     128     7 Jun 2027 23:24:58.670     7 Jun 2027 23:29:00.034           241.364
                     129     8 Jun 2027 00:48:03.146     8 Jun 2027 00:50:42.957           159.811
                     130     8 Jun 2027 02:24:29.307     8 Jun 2027 02:28:02.224           212.917
                     131     8 Jun 2027 03:59:37.879     8 Jun 2027 04:05:23.586           345.707
                     132     8 Jun 2027 04:05:23.730     8 Jun 2027 04:06:27.135            63.405
                     133     8 Jun 2027 05:35:58.395     8 Jun 2027 05:42:20.857           382.462
                     134     8 Jun 2027 07:13:32.438     8 Jun 2027 07:17:55.022           262.585
                     135     8 Jun 2027 08:49:35.805     8 Jun 2027 08:53:47.630           251.825
                     136     8 Jun 2027 15:32:07.288     8 Jun 2027 15:34:48.309           161.021
                     137     8 Jun 2027 17:08:04.311     8 Jun 2027 17:14:06.004           361.694
                     138     8 Jun 2027 18:44:46.780     8 Jun 2027 18:51:06.672           379.892
                     139     8 Jun 2027 20:20:17.349     8 Jun 2027 20:27:28.878           431.529
