DATA_Files/Russia2Constellation/AreaTarget-Russia-To-Satellite-KinoSat_13_plane.txt

                                                                                                                                                                                                                                                                                           10 May 2023 22:27:53
Civil Air Patrol Use Only
AreaTarget-Russia-To-Satellite-KinoSat_111301, Satellite-KinoSat_111302, Satellite-KinoSat_111303, Satellite-KinoSat_111304, Satellite-KinoSat_111305, Satellite-KinoSat_111306, Satellite-KinoSat_111307, Satellite-KinoSat_111308, Satellite-KinoSat_111309, Satellite-KinoSat_111310:  Access Summary Report


Russia-To-KinoSat_111301
------------------------
                  Access        Start Time (UTCG)           Stop Time (UTCG)        Duration (sec)
                  ------    ------------------------    ------------------------    --------------
                       1     1 Jun 2027 00:49:59.080     1 Jun 2027 00:57:17.740           438.661
                       2     1 Jun 2027 02:28:08.312     1 Jun 2027 02:29:08.102            59.791
                       3     1 Jun 2027 02:29:17.570     1 Jun 2027 02:34:27.527           309.956
                       4     1 Jun 2027 04:06:26.890     1 Jun 2027 04:06:57.256            30.366
                       5     1 Jun 2027 04:07:15.819     1 Jun 2027 04:10:19.042           183.223
                       6     1 Jun 2027 05:29:49.379     1 Jun 2027 05:32:56.586           187.207
                       7     1 Jun 2027 07:06:21.317     1 Jun 2027 07:09:54.130           212.812
                       8     1 Jun 2027 08:41:31.077     1 Jun 2027 08:48:07.736           396.659
                       9     1 Jun 2027 10:17:56.216     1 Jun 2027 10:24:05.869           369.653
                      10     1 Jun 2027 11:55:09.708     1 Jun 2027 11:59:47.120           277.412
                      11     1 Jun 2027 13:31:25.707     1 Jun 2027 13:36:07.915           282.207
                      12     1 Jun 2027 20:14:00.301     1 Jun 2027 20:17:05.085           184.785
                      13     1 Jun 2027 21:49:51.768     1 Jun 2027 21:55:29.469           337.701
                      14     1 Jun 2027 23:26:26.211     1 Jun 2027 23:32:41.152           374.942
                      15     2 Jun 2027 01:01:56.386     2 Jun 2027 01:08:55.017           418.631
                      16     2 Jun 2027 02:40:13.227     2 Jun 2027 02:40:23.993            10.767
                      17     2 Jun 2027 02:41:15.025     2 Jun 2027 02:46:22.384           307.359
                      18     2 Jun 2027 02:47:48.591     2 Jun 2027 02:48:05.469            16.878
                      19     2 Jun 2027 04:18:23.636     2 Jun 2027 04:19:02.456            38.820
                      20     2 Jun 2027 04:19:27.565     2 Jun 2027 04:22:00.037           152.472
                      21     2 Jun 2027 05:42:25.021     2 Jun 2027 05:45:02.196           157.176
                      22     2 Jun 2027 07:18:14.267     2 Jun 2027 07:22:15.871           241.604
                      23     2 Jun 2027 08:53:10.914     2 Jun 2027 09:00:15.090           424.176
                      24     2 Jun 2027 10:29:28.919     2 Jun 2027 10:35:53.512           384.593
                      25     2 Jun 2027 12:07:44.946     2 Jun 2027 12:11:36.711           231.764
                      26     2 Jun 2027 13:43:04.806     2 Jun 2027 13:47:15.313           250.506
                      27     2 Jun 2027 13:47:37.121     2 Jun 2027 13:48:35.243            58.122
                      28     2 Jun 2027 18:49:51.842     2 Jun 2027 18:51:32.243           100.401
                      29     2 Jun 2027 20:25:47.995     2 Jun 2027 20:28:58.474           190.479
                      30     2 Jun 2027 22:02:21.811     2 Jun 2027 22:07:32.846           311.035
                      31     2 Jun 2027 23:38:31.603     2 Jun 2027 23:45:19.370           407.768
                      32     3 Jun 2027 01:14:16.660     3 Jun 2027 01:21:08.741           412.081
                      33     3 Jun 2027 02:53:18.485     3 Jun 2027 02:58:52.400           333.915
                      34     3 Jun 2027 02:59:22.446     3 Jun 2027 03:00:57.487            95.041
                      35     3 Jun 2027 04:19:09.916     3 Jun 2027 04:19:58.385            48.469
                      36     3 Jun 2027 04:30:20.015     3 Jun 2027 04:32:01.231           101.215
                      37     3 Jun 2027 04:32:25.378     3 Jun 2027 04:33:37.711            72.334
                      38     3 Jun 2027 05:53:03.413     3 Jun 2027 05:57:33.462           270.049
                      39     3 Jun 2027 07:28:33.145     3 Jun 2027 07:29:06.384            33.238
                      40     3 Jun 2027 07:29:58.345     3 Jun 2027 07:34:31.083           272.739
                      41     3 Jun 2027 09:04:44.105     3 Jun 2027 09:12:19.788           455.683
                      42     3 Jun 2027 10:41:48.400     3 Jun 2027 10:48:09.335           380.935
                      43     3 Jun 2027 12:19:47.576     3 Jun 2027 12:23:43.645           236.069
                      44     3 Jun 2027 13:52:56.727     3 Jun 2027 13:59:31.069           394.342
                      45     3 Jun 2027 13:59:50.217     3 Jun 2027 14:00:53.191            62.974
                      46     3 Jun 2027 19:01:31.387     3 Jun 2027 19:04:04.979           153.592
                      47     3 Jun 2027 20:37:49.383     3 Jun 2027 20:41:16.748           207.365
                      48     3 Jun 2027 22:14:31.038     3 Jun 2027 22:20:43.758           372.719
                      49     3 Jun 2027 23:50:37.849     3 Jun 2027 23:57:16.179           398.329
                      50     4 Jun 2027 01:26:41.517     4 Jun 2027 01:33:03.705           382.188
                      51     4 Jun 2027 03:05:48.207     4 Jun 2027 03:12:54.833           426.625
                      52     4 Jun 2027 04:30:39.839     4 Jun 2027 04:32:11.919            92.080
                      53     4 Jun 2027 04:42:22.945     4 Jun 2027 04:43:36.197            73.252
                      54     4 Jun 2027 06:04:35.651     4 Jun 2027 06:05:46.663            71.011
                      55     4 Jun 2027 06:06:36.438     4 Jun 2027 06:09:47.208           190.770
                      56     4 Jun 2027 07:39:39.977     4 Jun 2027 07:41:23.246           103.269
                      57     4 Jun 2027 07:41:43.074     4 Jun 2027 07:46:43.556           300.481
                      58     4 Jun 2027 07:47:35.564     4 Jun 2027 07:47:54.968            19.404
                      59     4 Jun 2027 09:17:01.369     4 Jun 2027 09:24:21.302           439.933
                      60     4 Jun 2027 10:53:50.299     4 Jun 2027 11:00:01.298           370.999
                      61     4 Jun 2027 12:31:47.234     4 Jun 2027 12:35:46.000           238.765
                      62     4 Jun 2027 14:05:24.224     4 Jun 2027 14:12:52.198           447.975
                      63     4 Jun 2027 19:13:32.463     4 Jun 2027 19:16:12.814           160.351
                      64     4 Jun 2027 20:50:00.432     4 Jun 2027 20:53:21.775           201.343
                      65     4 Jun 2027 20:54:49.150     4 Jun 2027 20:57:17.302           148.152
                      66     4 Jun 2027 22:26:45.703     4 Jun 2027 22:32:41.654           355.950
                      67     5 Jun 2027 00:02:16.184     5 Jun 2027 00:02:27.766            11.582
                      68     5 Jun 2027 00:02:41.315     5 Jun 2027 00:09:32.186           410.871
                      69     5 Jun 2027 01:38:58.938     5 Jun 2027 01:45:00.505           361.567
                      70     5 Jun 2027 03:17:56.785     5 Jun 2027 03:24:55.434           418.649
                      71     5 Jun 2027 04:42:10.095     5 Jun 2027 04:44:23.385           133.290
                      72     5 Jun 2027 04:54:23.690     5 Jun 2027 04:54:55.503            31.813
                      73     5 Jun 2027 06:16:19.958     5 Jun 2027 06:17:34.934            74.976
                      74     5 Jun 2027 06:18:22.646     5 Jun 2027 06:21:58.268           215.622
                      75     5 Jun 2027 07:51:08.198     5 Jun 2027 07:59:04.430           476.232
                      76     5 Jun 2027 07:59:28.010     5 Jun 2027 08:00:06.225            38.215
                      77     5 Jun 2027 09:28:57.042     5 Jun 2027 09:36:23.064           446.022
                      78     5 Jun 2027 11:05:41.456     5 Jun 2027 11:11:37.695           356.240
                      79     5 Jun 2027 11:11:44.805     5 Jun 2027 11:12:27.761            42.956
                      80     5 Jun 2027 12:43:48.996     5 Jun 2027 12:47:56.804           247.808
                      81     5 Jun 2027 14:17:40.212     5 Jun 2027 14:24:18.196           397.984
                      82     5 Jun 2027 19:25:37.793     5 Jun 2027 19:28:32.803           175.010
                      83     5 Jun 2027 19:29:22.104     5 Jun 2027 19:29:34.232            12.129
                      84     5 Jun 2027 21:02:00.983     5 Jun 2027 21:06:08.948           247.966
                      85     5 Jun 2027 21:06:51.013     5 Jun 2027 21:10:05.520           194.508
                      86     5 Jun 2027 22:38:36.359     5 Jun 2027 22:45:06.470           390.111
                      87     6 Jun 2027 00:14:06.999     6 Jun 2027 00:21:53.584           466.585
                      88     6 Jun 2027 01:51:44.615     6 Jun 2027 01:53:26.349           101.734
                      89     6 Jun 2027 01:53:44.993     6 Jun 2027 01:57:18.466           213.472
                      90     6 Jun 2027 03:30:07.456     6 Jun 2027 03:35:21.046           313.590
                      91     6 Jun 2027 04:54:09.176     6 Jun 2027 04:56:25.381           136.205
                      92     6 Jun 2027 06:30:06.000     6 Jun 2027 06:34:02.363           236.364
                      93     6 Jun 2027 08:03:56.830     6 Jun 2027 08:11:16.783           439.953
                      94     6 Jun 2027 08:11:27.181     6 Jun 2027 08:12:26.904            59.723
                      95     6 Jun 2027 09:41:03.616     6 Jun 2027 09:48:21.906           438.290
                      96     6 Jun 2027 11:18:06.160     6 Jun 2027 11:22:56.621           290.461
                      97     6 Jun 2027 11:23:03.421     6 Jun 2027 11:24:14.137            70.716
                      98     6 Jun 2027 12:55:03.506     6 Jun 2027 12:59:54.524           291.018
                      99     6 Jun 2027 14:30:07.153     6 Jun 2027 14:30:34.264            27.111
                     100     6 Jun 2027 14:31:46.126     6 Jun 2027 14:35:00.257           194.131
                     101     6 Jun 2027 19:37:42.639     6 Jun 2027 19:40:11.562           148.923
                     102     6 Jun 2027 19:40:27.263     6 Jun 2027 19:43:04.843           157.580
                     103     6 Jun 2027 21:13:54.878     6 Jun 2027 21:20:51.819           416.942
                     104     6 Jun 2027 22:50:39.758     6 Jun 2027 22:57:09.557           389.799
                     105     7 Jun 2027 00:26:06.712     7 Jun 2027 00:33:46.194           459.482
                     106     7 Jun 2027 02:04:19.749     7 Jun 2027 02:05:06.759            47.010
                     107     7 Jun 2027 02:05:15.684     7 Jun 2027 02:05:58.681            42.997
                     108     7 Jun 2027 02:06:00.511     7 Jun 2027 02:10:27.234           266.722
                     109     7 Jun 2027 03:42:42.201     7 Jun 2027 03:47:20.339           278.138
                     110     7 Jun 2027 05:06:03.546     7 Jun 2027 05:08:30.167           146.621
                     111     7 Jun 2027 06:42:27.865     7 Jun 2027 06:45:53.810           205.945
                     112     7 Jun 2027 08:16:08.350     7 Jun 2027 08:23:24.611           436.262
                     113     7 Jun 2027 08:23:24.941     7 Jun 2027 08:24:26.363            61.422
                     114     7 Jun 2027 09:53:29.775     7 Jun 2027 10:00:11.739           401.964
                     115     7 Jun 2027 11:30:26.851     7 Jun 2027 11:34:47.532           260.681
                     116     7 Jun 2027 11:34:50.205     7 Jun 2027 11:35:59.927            69.722
                     117     7 Jun 2027 13:07:17.267     7 Jun 2027 13:11:45.502           268.236
                     118     7 Jun 2027 14:44:57.145     7 Jun 2027 14:46:34.124            96.980
                     119     7 Jun 2027 19:49:58.286     7 Jun 2027 19:52:17.747           139.460
                     120     7 Jun 2027 19:53:17.315     7 Jun 2027 19:54:20.172            62.857
                     121     7 Jun 2027 21:25:59.543     7 Jun 2027 21:32:31.346           391.802
                     122     7 Jun 2027 23:02:40.274     7 Jun 2027 23:09:02.445           382.171
                     123     8 Jun 2027 00:38:13.620     8 Jun 2027 00:45:46.122           452.502
                     124     8 Jun 2027 02:16:15.800     8 Jun 2027 02:16:21.688             5.888
                     125     8 Jun 2027 02:16:33.263     8 Jun 2027 02:22:31.849           358.585
                     126     8 Jun 2027 03:54:20.014     8 Jun 2027 03:58:56.891           276.877
                     127     8 Jun 2027 05:17:50.931     8 Jun 2027 05:20:37.949           167.018
                     128     8 Jun 2027 06:54:29.645     8 Jun 2027 06:58:01.268           211.623
                     129     8 Jun 2027 08:29:24.923     8 Jun 2027 08:35:20.444           355.521
                     130     8 Jun 2027 08:35:24.284     8 Jun 2027 08:36:22.268            57.984
                     131     8 Jun 2027 10:05:37.396     8 Jun 2027 10:12:17.037           399.641
                     132     8 Jun 2027 11:43:21.058     8 Jun 2027 11:47:44.849           263.790
                     133     8 Jun 2027 13:19:27.454     8 Jun 2027 13:23:50.281           262.827
                     134     8 Jun 2027 20:02:05.652     8 Jun 2027 20:04:36.586           150.934
                     135     8 Jun 2027 21:38:02.164     8 Jun 2027 21:44:12.455           370.291
                     136     8 Jun 2027 23:14:44.873     8 Jun 2027 23:21:09.729           384.855
                     137     9 Jun 2027 00:50:15.259     9 Jun 2027 00:57:32.302           437.043
                     138     9 Jun 2027 02:28:24.436     9 Jun 2027 02:29:25.751            61.315
                     139     9 Jun 2027 02:29:33.554     9 Jun 2027 02:34:39.968           306.414
                     140     9 Jun 2027 04:06:42.846     9 Jun 2027 04:07:13.826            30.980
                     141     9 Jun 2027 04:07:32.378     9 Jun 2027 04:10:34.800           182.422
                     142     9 Jun 2027 05:30:05.392     9 Jun 2027 05:33:13.030           187.639
                     143     9 Jun 2027 07:06:37.167     9 Jun 2027 07:10:09.475           212.308
                     144     9 Jun 2027 08:41:47.317     9 Jun 2027 08:48:23.847           396.530
                     145     9 Jun 2027 10:18:11.716     9 Jun 2027 10:24:20.961           369.244
                     146     9 Jun 2027 11:55:27.572     9 Jun 2027 12:00:03.798           276.226
                     147     9 Jun 2027 13:31:41.840     9 Jun 2027 13:36:23.796           281.956
                     148     9 Jun 2027 20:14:15.762     9 Jun 2027 20:17:21.676           185.914
                     149     9 Jun 2027 21:50:07.813     9 Jun 2027 21:55:45.763           337.951
                     150     9 Jun 2027 23:26:42.179     9 Jun 2027 23:32:57.325           375.146
                     151    10 Jun 2027 01:02:12.681    10 Jun 2027 01:09:10.585           417.904
                     152    10 Jun 2027 02:40:29.540    10 Jun 2027 02:40:38.325             8.785
                     153    10 Jun 2027 02:41:30.978    10 Jun 2027 02:46:39.019           308.041
                     154    10 Jun 2027 02:48:04.602    10 Jun 2027 02:48:24.760            20.158
                     155    10 Jun 2027 04:18:39.618    10 Jun 2027 04:19:18.652            39.034
                     156    10 Jun 2027 04:19:41.684    10 Jun 2027 04:22:14.969           153.285
                     157    10 Jun 2027 05:42:07.913    10 Jun 2027 05:45:18.170           190.258
                     158    10 Jun 2027 07:18:30.123    10 Jun 2027 07:22:32.273           242.150
                     159    10 Jun 2027 08:53:26.071    10 Jun 2027 09:00:31.909           425.838
                     160    10 Jun 2027 10:29:45.372    10 Jun 2027 10:36:09.798           384.426
                     161    10 Jun 2027 12:08:00.569    10 Jun 2027 12:11:53.192           232.624
                     162    10 Jun 2027 13:43:21.133    10 Jun 2027 13:47:32.179           251.046
                     163    10 Jun 2027 13:47:53.200    10 Jun 2027 13:48:51.725            58.524
                     164    10 Jun 2027 18:50:06.143    10 Jun 2027 18:51:49.116           102.973
                     165    10 Jun 2027 20:26:03.805    10 Jun 2027 20:29:19.818           196.013
                     166    10 Jun 2027 22:02:37.704    10 Jun 2027 22:07:49.437           311.733
                     167    10 Jun 2027 23:38:47.894    10 Jun 2027 23:45:34.726           406.832
                     168    11 Jun 2027 01:14:48.923    11 Jun 2027 01:21:26.015           397.092
                     169    11 Jun 2027 02:53:34.662    11 Jun 2027 02:59:07.259           332.597
                     170    11 Jun 2027 02:59:37.120    11 Jun 2027 03:01:12.087            94.967
                     171    11 Jun 2027 04:19:23.592    11 Jun 2027 04:20:15.226            51.634
                     172    11 Jun 2027 04:30:35.992    11 Jun 2027 04:32:16.853           100.860
                     173    11 Jun 2027 04:32:44.550    11 Jun 2027 04:33:44.246            59.696
                     174    11 Jun 2027 05:53:12.676    11 Jun 2027 05:57:50.075           277.399
                     175    11 Jun 2027 07:28:48.436    11 Jun 2027 07:29:28.109            39.673
                     176    11 Jun 2027 07:30:14.367    11 Jun 2027 07:34:47.738           273.371
                     177    11 Jun 2027 09:04:59.510    11 Jun 2027 09:12:35.299           455.789
                     178    11 Jun 2027 10:42:05.207    11 Jun 2027 10:48:26.893           381.686
                     179    11 Jun 2027 12:20:03.611    11 Jun 2027 12:23:58.906           235.295
                     180    11 Jun 2027 13:53:12.296    11 Jun 2027 13:59:44.955           392.659
                     181    11 Jun 2027 14:00:06.798    11 Jun 2027 14:01:08.843            62.045
                     182    11 Jun 2027 19:01:47.283    11 Jun 2027 19:04:21.715           154.432
                     183    11 Jun 2027 20:38:05.644    11 Jun 2027 20:41:33.272           207.628
                     184    11 Jun 2027 22:14:46.911    11 Jun 2027 22:20:59.845           372.935
                     185    11 Jun 2027 23:50:53.416    11 Jun 2027 23:57:32.394           398.977
                     186    12 Jun 2027 01:26:57.587    12 Jun 2027 01:33:17.795           380.208
                     187    12 Jun 2027 03:06:04.278    12 Jun 2027 03:13:10.788           426.509
                     188    12 Jun 2027 04:30:55.568    12 Jun 2027 04:32:28.629            93.061
                     189    12 Jun 2027 04:42:38.717    12 Jun 2027 04:43:48.367            69.650
                     190    12 Jun 2027 06:04:51.868    12 Jun 2027 06:06:01.988            70.119
                     191    12 Jun 2027 06:06:52.280    12 Jun 2027 06:10:03.826           191.546
                     192    12 Jun 2027 07:39:54.783    12 Jun 2027 07:41:38.724           103.941
                     193    12 Jun 2027 07:41:58.800    12 Jun 2027 07:47:00.106           301.306
                     194    12 Jun 2027 07:47:51.073    12 Jun 2027 07:48:11.634            20.561
                     195    12 Jun 2027 09:17:18.732    12 Jun 2027 09:24:37.483           438.751
                     196    12 Jun 2027 10:54:06.817    12 Jun 2027 11:00:33.869           387.052
                     197    12 Jun 2027 12:32:03.849    12 Jun 2027 12:36:02.474           238.625
                     198    12 Jun 2027 14:05:39.536    12 Jun 2027 14:13:08.005           448.469
                     199    12 Jun 2027 19:13:48.234    12 Jun 2027 19:16:29.777           161.543
                     200    12 Jun 2027 20:50:17.295    12 Jun 2027 20:53:38.687           201.391
                     201    12 Jun 2027 20:55:03.712    12 Jun 2027 20:57:36.896           153.184
                     202    12 Jun 2027 22:27:00.975    12 Jun 2027 22:32:57.869           356.895
                     203    13 Jun 2027 00:02:31.695    13 Jun 2027 00:02:48.770            17.075
                     204    13 Jun 2027 00:02:58.364    13 Jun 2027 00:09:50.518           412.155
                     205    13 Jun 2027 01:39:16.146    13 Jun 2027 01:45:17.087           360.941
                     206    13 Jun 2027 03:18:04.535    13 Jun 2027 03:25:10.514           425.979
                     207    13 Jun 2027 04:42:26.709    13 Jun 2027 04:44:39.277           132.567
                     208    13 Jun 2027 04:54:39.824    13 Jun 2027 04:55:11.509            31.685
                     209    13 Jun 2027 06:16:35.159    13 Jun 2027 06:17:49.152            73.993
                     210    13 Jun 2027 06:18:38.103    13 Jun 2027 06:22:14.848           216.745
                     211    13 Jun 2027 07:51:23.297    13 Jun 2027 07:59:21.072           477.775
                     212    13 Jun 2027 07:59:43.677    13 Jun 2027 08:00:19.308            35.631
                     213    13 Jun 2027 09:29:13.007    13 Jun 2027 09:36:38.888           445.881
                     214    13 Jun 2027 11:05:57.428    13 Jun 2027 11:11:53.075           355.647
                     215    13 Jun 2027 11:11:58.344    13 Jun 2027 11:12:43.505            45.161
                     216    13 Jun 2027 12:44:06.024    13 Jun 2027 12:48:12.172           246.148
                     217    13 Jun 2027 14:17:56.747    13 Jun 2027 14:24:13.717           376.970
                     218    13 Jun 2027 19:25:53.645    13 Jun 2027 19:28:46.983           173.338
                     219    13 Jun 2027 19:29:21.212    13 Jun 2027 19:29:50.217            29.005
                     220    13 Jun 2027 21:02:17.203    13 Jun 2027 21:06:28.564           251.360
                     221    13 Jun 2027 21:07:07.314    13 Jun 2027 21:10:21.001           193.688
                     222    13 Jun 2027 22:38:52.182    13 Jun 2027 22:45:23.695           391.512

Min Duration         124     8 Jun 2027 02:16:15.800     8 Jun 2027 02:16:21.688             5.888
Max Duration         211    13 Jun 2027 07:51:23.297    13 Jun 2027 07:59:21.072           477.775
Mean Duration                                                                              238.288
Total Duration                                                                           52900.029


Russia-To-KinoSat_111302
------------------------
                  Access        Start Time (UTCG)           Stop Time (UTCG)        Duration (sec)
                  ------    ------------------------    ------------------------    --------------
                       1     1 Jun 2027 00:40:24.606     1 Jun 2027 00:47:53.537           448.931
                       2     1 Jun 2027 02:18:26.050     1 Jun 2027 02:18:29.888             3.838
                       3     1 Jun 2027 02:18:54.803     1 Jun 2027 02:19:41.825            47.022
                       4     1 Jun 2027 02:19:44.726     1 Jun 2027 02:24:41.373           296.648
                       5     1 Jun 2027 03:57:06.523     1 Jun 2027 04:01:07.667           241.144
                       6     1 Jun 2027 05:20:02.073     1 Jun 2027 05:22:47.226           165.153
                       7     1 Jun 2027 06:56:37.080     1 Jun 2027 07:00:10.752           213.672
                       8     1 Jun 2027 08:31:45.488     1 Jun 2027 08:37:30.297           344.809
                       9     1 Jun 2027 08:37:33.056     1 Jun 2027 08:38:32.844            59.788
                      10     1 Jun 2027 10:08:05.606     1 Jun 2027 10:14:27.936           382.330
                      11     1 Jun 2027 11:45:38.560     1 Jun 2027 11:49:59.312           260.752
                      12     1 Jun 2027 13:21:43.216     1 Jun 2027 13:25:55.519           252.303
                      13     1 Jun 2027 20:04:15.678     1 Jun 2027 20:06:56.586           160.908
                      14     1 Jun 2027 21:40:12.535     1 Jun 2027 21:46:14.290           361.755
                      15     1 Jun 2027 23:16:55.141     1 Jun 2027 23:23:14.847           379.706
                      16     2 Jun 2027 00:52:26.151     2 Jun 2027 00:59:36.996           430.845
                      17     2 Jun 2027 02:30:34.268     2 Jun 2027 02:31:35.947            61.679
                      18     2 Jun 2027 02:31:42.622     2 Jun 2027 02:36:46.362           303.740
                      19     2 Jun 2027 04:08:52.092     2 Jun 2027 04:09:25.694            33.602
                      20     2 Jun 2027 04:09:40.559     2 Jun 2027 04:12:40.515           179.956
                      21     2 Jun 2027 05:32:13.130     2 Jun 2027 05:35:23.857           190.727
                      22     2 Jun 2027 07:08:47.920     2 Jun 2027 07:12:16.729           208.809
                      23     2 Jun 2027 08:43:57.626     2 Jun 2027 08:50:33.543           395.917
                      24     2 Jun 2027 10:20:18.853     2 Jun 2027 10:26:29.204           370.351
                      25     2 Jun 2027 11:57:35.975     2 Jun 2027 12:02:15.719           279.744
                      26     2 Jun 2027 13:33:48.127     2 Jun 2027 13:38:38.244           290.117
                      27     2 Jun 2027 18:40:54.407     2 Jun 2027 18:41:00.308             5.901
                      28     2 Jun 2027 20:16:25.511     2 Jun 2027 20:19:33.147           187.636
                      29     2 Jun 2027 21:52:17.086     2 Jun 2027 21:57:55.067           337.980
                      30     2 Jun 2027 23:28:52.348     2 Jun 2027 23:35:05.616           373.268
                      31     3 Jun 2027 01:04:23.583     3 Jun 2027 01:11:16.907           413.324
                      32     3 Jun 2027 02:43:40.736     3 Jun 2027 02:48:46.369           305.633
                      33     3 Jun 2027 02:50:09.983     3 Jun 2027 02:51:37.380            87.397
                      34     3 Jun 2027 04:20:48.794     3 Jun 2027 04:21:28.674            39.880
                      35     3 Jun 2027 04:21:47.603     3 Jun 2027 04:24:24.060           156.457
                      36     3 Jun 2027 05:44:44.196     3 Jun 2027 05:47:28.172           163.976
                      37     3 Jun 2027 07:20:36.626     3 Jun 2027 07:24:44.084           247.458
                      38     3 Jun 2027 08:55:30.225     3 Jun 2027 09:02:42.733           432.508
                      39     3 Jun 2027 10:31:56.542     3 Jun 2027 10:38:21.176           384.634
                      40     3 Jun 2027 12:10:14.810     3 Jun 2027 12:14:09.155           234.344
                      41     3 Jun 2027 13:45:41.466     3 Jun 2027 13:49:42.116           240.650
                      42     3 Jun 2027 13:50:03.919     3 Jun 2027 13:51:02.089            58.169
                      43     3 Jun 2027 18:52:09.186     3 Jun 2027 18:54:02.850           113.664
                      44     3 Jun 2027 20:28:12.907     3 Jun 2027 20:31:34.475           201.569
                      45     3 Jun 2027 22:04:47.751     3 Jun 2027 22:10:02.399           314.648
                      46     3 Jun 2027 23:40:58.216     3 Jun 2027 23:47:46.447           408.231
                      47     4 Jun 2027 01:17:02.449     4 Jun 2027 01:23:28.124           385.675
                      48     4 Jun 2027 02:55:44.610     4 Jun 2027 03:01:22.942           338.332
                      49     4 Jun 2027 03:01:46.294     4 Jun 2027 03:03:22.588            96.294
                      50     4 Jun 2027 04:21:26.051     4 Jun 2027 04:22:30.359            64.309
                      51     4 Jun 2027 04:32:44.964     4 Jun 2027 04:34:25.730           100.766
                      52     4 Jun 2027 04:35:25.252     4 Jun 2027 04:35:29.104             3.853
                      53     4 Jun 2027 05:55:20.170     4 Jun 2027 05:56:24.761            64.590
                      54     4 Jun 2027 05:56:38.173     4 Jun 2027 06:00:02.155           203.982
                      55     4 Jun 2027 07:30:52.614     4 Jun 2027 07:31:42.868            50.254
                      56     4 Jun 2027 07:32:21.002     4 Jun 2027 07:36:58.217           277.215
                      57     4 Jun 2027 09:07:10.600     4 Jun 2027 09:14:43.568           452.968
                      58     4 Jun 2027 10:44:16.369     4 Jun 2027 10:50:37.315           380.946
                      59     4 Jun 2027 12:22:13.491     4 Jun 2027 12:26:11.067           237.576
                      60     4 Jun 2027 13:55:18.366     4 Jun 2027 14:01:38.173           379.808
                      61     4 Jun 2027 14:02:20.992     4 Jun 2027 14:03:19.616            58.624
                      62     4 Jun 2027 19:03:56.777     4 Jun 2027 19:06:42.629           165.853
                      63     4 Jun 2027 20:40:16.468     4 Jun 2027 20:43:39.655           203.187
                      64     4 Jun 2027 22:16:55.454     4 Jun 2027 22:23:08.367           372.913
                      65     4 Jun 2027 23:53:02.272     4 Jun 2027 23:59:42.604           400.332
                      66     5 Jun 2027 01:29:08.283     5 Jun 2027 01:35:15.207           366.924
                      67     5 Jun 2027 03:08:13.812     5 Jun 2027 03:15:22.253           428.441
                      68     5 Jun 2027 04:33:04.231     5 Jun 2027 04:34:38.694            94.463
                      69     5 Jun 2027 04:44:48.178     5 Jun 2027 04:45:47.494            59.316
                      70     5 Jun 2027 06:07:03.444     5 Jun 2027 06:08:09.360            65.916
                      71     5 Jun 2027 06:09:00.442     5 Jun 2027 06:12:15.244           194.802
                      72     5 Jun 2027 07:42:01.264     5 Jun 2027 07:43:55.924           114.660
                      73     5 Jun 2027 07:44:04.993     5 Jun 2027 07:49:21.566           316.573
                      74     5 Jun 2027 07:49:59.518     5 Jun 2027 07:50:22.560            23.042
                      75     5 Jun 2027 09:19:29.772     5 Jun 2027 09:26:47.856           438.084
                      76     5 Jun 2027 10:56:14.579     5 Jun 2027 11:02:26.968           372.389
                      77     5 Jun 2027 11:02:31.700     5 Jun 2027 11:02:46.616            14.917
                      78     5 Jun 2027 12:34:13.026     5 Jun 2027 12:38:23.719           250.694
                      79     5 Jun 2027 14:07:50.708     5 Jun 2027 14:15:14.927           444.219
                      80     5 Jun 2027 19:15:57.226     5 Jun 2027 19:18:43.088           165.861
                      81     5 Jun 2027 20:52:28.494     5 Jun 2027 20:55:52.062           203.568
                      82     5 Jun 2027 20:57:11.081     5 Jun 2027 20:59:56.235           165.154
                      83     5 Jun 2027 22:29:09.664     5 Jun 2027 22:35:11.497           361.833
                      84     6 Jun 2027 00:04:38.631     6 Jun 2027 00:05:01.649            23.018
                      85     6 Jun 2027 00:05:08.524     6 Jun 2027 00:12:08.136           419.613
                      86     6 Jun 2027 01:41:27.856     6 Jun 2027 01:41:55.865            28.009
                      87     6 Jun 2027 01:42:00.653     6 Jun 2027 01:42:35.964            35.310
                      88     6 Jun 2027 01:42:39.315     6 Jun 2027 01:47:29.619           290.304
                      89     6 Jun 2027 03:20:15.865     6 Jun 2027 03:27:16.457           420.591
                      90     6 Jun 2027 04:44:37.586     6 Jun 2027 04:46:43.762           126.176
                      91     6 Jun 2027 04:56:53.705     6 Jun 2027 04:57:21.220            27.515
                      92     6 Jun 2027 06:18:36.758     6 Jun 2027 06:19:56.251            79.493
                      93     6 Jun 2027 06:20:29.862     6 Jun 2027 06:24:28.199           238.338
                      94     6 Jun 2027 07:53:29.279     6 Jun 2027 08:01:32.179           482.900
                      95     6 Jun 2027 08:01:52.777     6 Jun 2027 08:02:50.598            57.821
                      96     6 Jun 2027 09:31:22.973     6 Jun 2027 09:38:47.772           444.800
                      97     6 Jun 2027 11:08:06.918     6 Jun 2027 11:14:51.264           404.346
                      98     6 Jun 2027 12:46:13.325     6 Jun 2027 12:50:22.551           249.226
                      99     6 Jun 2027 14:21:57.604     6 Jun 2027 14:26:21.274           263.670
                     100     6 Jun 2027 19:28:04.903     6 Jun 2027 19:30:59.719           174.816
                     101     6 Jun 2027 19:31:29.985     6 Jun 2027 19:32:28.882            58.897
                     102     6 Jun 2027 21:04:27.285     6 Jun 2027 21:08:50.453           263.168
                     103     6 Jun 2027 21:09:18.602     6 Jun 2027 21:10:59.409           100.807
                     104     6 Jun 2027 22:41:01.119     6 Jun 2027 22:47:34.248           393.129
                     105     7 Jun 2027 00:16:33.173     7 Jun 2027 00:24:15.767           462.594
                     106     7 Jun 2027 01:54:11.711     7 Jun 2027 01:54:31.370            19.658
                     107     7 Jun 2027 01:54:36.706     7 Jun 2027 01:55:49.146            72.440
                     108     7 Jun 2027 01:56:16.359     7 Jun 2027 01:59:46.431           210.072
                     109     7 Jun 2027 03:32:39.768     7 Jun 2027 03:37:47.768           308.000
                     110     7 Jun 2027 04:56:33.612     7 Jun 2027 04:58:50.419           136.808
                     111     7 Jun 2027 06:32:34.512     7 Jun 2027 06:36:27.352           232.840
                     112     7 Jun 2027 08:06:21.965     7 Jun 2027 08:13:46.471           444.505
                     113     7 Jun 2027 08:13:52.566     7 Jun 2027 08:14:52.638            60.073
                     114     7 Jun 2027 09:43:30.791     7 Jun 2027 09:50:49.079           438.287
                     115     7 Jun 2027 11:20:45.359     7 Jun 2027 11:25:17.096           271.738
                     116     7 Jun 2027 11:25:26.720     7 Jun 2027 11:26:38.056            71.336
                     117     7 Jun 2027 12:57:27.225     7 Jun 2027 13:02:22.064           294.839
                     118     7 Jun 2027 14:32:39.176     7 Jun 2027 14:32:53.134            13.957
                     119     7 Jun 2027 14:34:14.022     7 Jun 2027 14:37:22.543           188.520
                     120     7 Jun 2027 19:40:09.389     7 Jun 2027 19:42:42.909           153.520
                     121     7 Jun 2027 19:43:06.780     7 Jun 2027 19:45:32.804           146.024
                     122     7 Jun 2027 21:16:20.564     7 Jun 2027 21:23:18.927           418.363
                     123     7 Jun 2027 22:53:04.946     7 Jun 2027 22:59:29.543           384.596
                     124     8 Jun 2027 00:28:32.581     8 Jun 2027 00:36:04.743           452.162
                     125     8 Jun 2027 02:06:56.735     8 Jun 2027 02:07:16.533            19.797
                     126     8 Jun 2027 02:07:31.755     8 Jun 2027 02:08:24.530            52.775
                     127     8 Jun 2027 02:08:26.205     8 Jun 2027 02:12:58.290           272.085
                     128     8 Jun 2027 03:45:04.483     8 Jun 2027 03:49:45.851           281.367
                     129     8 Jun 2027 05:08:26.662     8 Jun 2027 05:11:00.555           153.893
                     130     8 Jun 2027 06:44:47.661     8 Jun 2027 06:48:17.471           209.810
                     131     8 Jun 2027 08:18:47.053     8 Jun 2027 08:25:49.392           422.339
                     132     8 Jun 2027 08:25:50.560     8 Jun 2027 08:26:51.278            60.718
                     133     8 Jun 2027 09:55:56.294     8 Jun 2027 10:02:37.379           401.085
                     134     8 Jun 2027 11:32:55.388     8 Jun 2027 11:38:20.756           325.368
                     135     8 Jun 2027 13:09:42.101     8 Jun 2027 13:14:12.779           270.678
                     136     8 Jun 2027 14:47:52.514     8 Jun 2027 14:48:58.098            65.583
                     137     8 Jun 2027 19:52:28.109     8 Jun 2027 19:54:42.428           134.320
                     138     8 Jun 2027 19:55:59.822     8 Jun 2027 19:56:32.950            33.127
                     139     8 Jun 2027 21:28:25.317     8 Jun 2027 21:34:55.897           390.580
                     140     8 Jun 2027 23:05:06.998     8 Jun 2027 23:11:31.010           384.012
                     141     9 Jun 2027 00:40:40.734     9 Jun 2027 00:48:06.048           445.315
                     142     9 Jun 2027 02:18:43.200     9 Jun 2027 02:18:44.886             1.685
                     143     9 Jun 2027 02:19:05.235     9 Jun 2027 02:19:55.991            50.756
                     144     9 Jun 2027 02:20:02.129     9 Jun 2027 02:24:58.035           295.906
                     145     9 Jun 2027 03:57:22.758     9 Jun 2027 04:01:25.408           242.650
                     146     9 Jun 2027 05:20:20.333     9 Jun 2027 05:23:02.880           162.547
                     147     9 Jun 2027 06:56:53.325     9 Jun 2027 07:00:26.418           213.093
                     148     9 Jun 2027 08:32:02.164     9 Jun 2027 08:37:46.562           344.398
                     149     9 Jun 2027 08:37:48.600     9 Jun 2027 08:38:49.508            60.908
                     150     9 Jun 2027 10:08:22.492     9 Jun 2027 10:14:44.244           381.752
                     151     9 Jun 2027 11:45:56.588     9 Jun 2027 11:50:17.185           260.597
                     152     9 Jun 2027 13:21:59.752     9 Jun 2027 13:26:10.537           250.785
                     153     9 Jun 2027 20:04:32.966     9 Jun 2027 20:07:14.040           161.073
                     154     9 Jun 2027 21:40:28.831     9 Jun 2027 21:46:27.571           358.740
                     155     9 Jun 2027 23:17:11.345     9 Jun 2027 23:23:27.338           375.993
                     156    10 Jun 2027 00:52:42.314    10 Jun 2027 00:59:51.651           429.336
                     157    10 Jun 2027 02:30:50.239    10 Jun 2027 02:31:51.565            61.326
                     158    10 Jun 2027 02:31:58.228    10 Jun 2027 02:37:02.363           304.134
                     159    10 Jun 2027 04:09:07.605    10 Jun 2027 04:09:42.087            34.482
                     160    10 Jun 2027 04:09:56.235    10 Jun 2027 04:12:56.207           179.972
                     161    10 Jun 2027 05:32:28.319    10 Jun 2027 05:35:40.285           191.966
                     162    10 Jun 2027 07:09:03.799    10 Jun 2027 07:12:31.911           208.111
                     163    10 Jun 2027 08:44:14.046    10 Jun 2027 08:50:49.650           395.604
                     164    10 Jun 2027 10:20:34.519    10 Jun 2027 10:26:44.728           370.210
                     165    10 Jun 2027 11:58:00.126    10 Jun 2027 12:02:32.393           272.267
                     166    10 Jun 2027 13:34:04.047    10 Jun 2027 13:38:55.342           291.295
                     167    10 Jun 2027 18:41:08.139    10 Jun 2027 18:41:19.354            11.214
                     168    10 Jun 2027 20:16:41.618    10 Jun 2027 20:19:40.190           178.572
                     169    10 Jun 2027 21:52:33.281    10 Jun 2027 21:58:10.144           336.863
                     170    10 Jun 2027 23:29:08.608    10 Jun 2027 23:35:21.578           372.970
                     171    11 Jun 2027 01:04:39.703    11 Jun 2027 01:11:31.531           411.829
                     172    11 Jun 2027 02:43:56.740    11 Jun 2027 02:49:04.357           307.618
                     173    11 Jun 2027 02:50:20.100    11 Jun 2027 02:51:52.652            92.552
                     174    11 Jun 2027 04:10:21.178    11 Jun 2027 04:10:22.097             0.919
                     175    11 Jun 2027 04:21:04.475    11 Jun 2027 04:21:44.828            40.353
                     176    11 Jun 2027 04:22:02.297    11 Jun 2027 04:24:40.131           157.834
                     177    11 Jun 2027 05:45:01.762    11 Jun 2027 05:47:44.569           162.806
                     178    11 Jun 2027 07:20:50.965    11 Jun 2027 07:25:00.391           249.426
                     179    11 Jun 2027 08:55:43.767    11 Jun 2027 09:02:58.773           435.006
                     180    11 Jun 2027 10:32:13.943    11 Jun 2027 10:38:37.481           383.538
                     181    11 Jun 2027 12:10:31.530    11 Jun 2027 12:14:25.633           234.104
                     182    11 Jun 2027 13:45:57.463    11 Jun 2027 13:49:59.495           242.032
                     183    11 Jun 2027 13:50:20.407    11 Jun 2027 13:51:19.285            58.877
                     184    11 Jun 2027 18:52:23.475    11 Jun 2027 18:54:18.968           115.493
                     185    11 Jun 2027 20:28:28.837    11 Jun 2027 20:31:50.682           201.845
                     186    11 Jun 2027 22:05:03.808    11 Jun 2027 22:10:42.188           338.380
                     187    11 Jun 2027 23:41:14.484    11 Jun 2027 23:48:03.312           408.828
                     188    12 Jun 2027 01:17:19.233    12 Jun 2027 01:23:44.133           384.900
                     189    12 Jun 2027 02:56:00.634    12 Jun 2027 03:01:39.935           339.301
                     190    12 Jun 2027 03:01:47.220    12 Jun 2027 03:03:37.792           110.572
                     191    12 Jun 2027 04:21:39.781    12 Jun 2027 04:22:46.826            67.045
                     192    12 Jun 2027 04:33:00.948    12 Jun 2027 04:34:41.407           100.459
                     193    12 Jun 2027 05:55:36.508    12 Jun 2027 05:56:40.096            63.588
                     194    12 Jun 2027 05:56:53.523    12 Jun 2027 06:00:18.597           205.074
                     195    12 Jun 2027 07:31:07.540    12 Jun 2027 07:31:58.321            50.782
                     196    12 Jun 2027 07:32:36.265    12 Jun 2027 07:37:15.303           279.038
                     197    12 Jun 2027 09:07:27.544    12 Jun 2027 09:14:59.712           452.168
                     198    12 Jun 2027 10:44:33.738    12 Jun 2027 10:50:53.176           379.438
                     199    12 Jun 2027 12:22:29.201    12 Jun 2027 12:26:27.333           238.132
                     200    12 Jun 2027 13:55:34.800    12 Jun 2027 14:01:55.043           380.243
                     201    12 Jun 2027 14:02:36.872    12 Jun 2027 14:03:36.200            59.328
                     202    12 Jun 2027 19:04:12.892    12 Jun 2027 19:06:58.164           165.273
                     203    12 Jun 2027 20:40:32.884    12 Jun 2027 20:43:56.260           203.377
                     204    12 Jun 2027 22:17:10.903    12 Jun 2027 22:23:23.861           372.957
                     205    12 Jun 2027 23:53:18.119    12 Jun 2027 23:59:58.030           399.912
                     206    13 Jun 2027 01:29:25.213    13 Jun 2027 01:35:30.711           365.497
                     207    13 Jun 2027 03:08:30.364    13 Jun 2027 03:15:38.422           428.058
                     208    13 Jun 2027 04:33:20.179    13 Jun 2027 04:34:55.529            95.349
                     209    13 Jun 2027 04:45:04.620    13 Jun 2027 04:46:02.922            58.302
                     210    13 Jun 2027 06:07:18.887    13 Jun 2027 06:08:24.989            66.102
                     211    13 Jun 2027 06:09:12.972    13 Jun 2027 06:12:32.051           199.079
                     212    13 Jun 2027 07:42:15.458    13 Jun 2027 07:44:12.499           117.041
                     213    13 Jun 2027 07:44:20.734    13 Jun 2027 07:49:38.096           317.362
                     214    13 Jun 2027 07:50:14.954    13 Jun 2027 07:50:38.942            23.988
                     215    13 Jun 2027 09:19:45.237    13 Jun 2027 09:27:03.994           438.758
                     216    13 Jun 2027 10:56:29.922    13 Jun 2027 11:02:42.842           372.920
                     217    13 Jun 2027 11:02:47.041    13 Jun 2027 11:03:02.964            15.923
                     218    13 Jun 2027 12:34:28.655    13 Jun 2027 12:38:39.665           251.010
                     219    13 Jun 2027 14:08:06.168    13 Jun 2027 14:15:30.945           444.777
                     220    13 Jun 2027 19:16:13.464    13 Jun 2027 19:18:59.925           166.461
                     221    13 Jun 2027 20:52:45.269    13 Jun 2027 20:56:09.896           204.628
                     222    13 Jun 2027 20:57:26.626    13 Jun 2027 21:00:15.661           169.036
                     223    13 Jun 2027 22:29:24.981    13 Jun 2027 22:35:28.576           363.595

Min Duration         174    11 Jun 2027 04:10:21.178    11 Jun 2027 04:10:22.097             0.919
Max Duration          94     6 Jun 2027 07:53:29.279     6 Jun 2027 08:01:32.179           482.900
Mean Duration                                                                              231.682
Total Duration                                                                           51665.153


Russia-To-KinoSat_111303
------------------------
                  Access        Start Time (UTCG)           Stop Time (UTCG)        Duration (sec)
                  ------    ------------------------    ------------------------    --------------
                       1     1 Jun 2027 00:30:43.009     1 Jun 2027 00:38:12.247           449.238
                       2     1 Jun 2027 02:09:02.181     1 Jun 2027 02:09:24.806            22.626
                       3     1 Jun 2027 02:09:37.945     1 Jun 2027 02:15:06.071           328.126
                       4     1 Jun 2027 03:47:13.558     1 Jun 2027 03:51:47.776           274.218
                       5     1 Jun 2027 05:10:35.330     1 Jun 2027 05:13:10.385           155.055
                       6     1 Jun 2027 06:46:57.533     1 Jun 2027 06:50:30.683           213.150
                       7     1 Jun 2027 08:19:14.558     1 Jun 2027 08:19:33.816            19.258
                       8     1 Jun 2027 08:21:01.616     1 Jun 2027 08:27:56.379           414.763
                       9     1 Jun 2027 08:27:59.288     1 Jun 2027 08:29:00.738            61.450
                      10     1 Jun 2027 09:58:05.965     1 Jun 2027 10:04:48.712           402.746
                      11     1 Jun 2027 11:35:02.455     1 Jun 2027 11:40:01.803           299.348
                      12     1 Jun 2027 13:11:49.005     1 Jun 2027 13:16:29.516           280.511
                      13     1 Jun 2027 14:50:00.835     1 Jun 2027 14:50:59.993            59.158
                      14     1 Jun 2027 19:54:38.598     1 Jun 2027 19:56:53.856           135.258
                      15     1 Jun 2027 21:30:35.111     1 Jun 2027 21:37:07.284           392.173
                      16     1 Jun 2027 23:07:16.806     1 Jun 2027 23:13:45.097           388.291
                      17     2 Jun 2027 00:42:55.786     2 Jun 2027 00:50:21.476           445.690
                      18     2 Jun 2027 02:21:04.979     2 Jun 2027 02:22:05.620            60.641
                      19     2 Jun 2027 02:22:11.284     2 Jun 2027 02:27:13.998           302.714
                      20     2 Jun 2027 03:59:41.877     2 Jun 2027 04:03:35.601           233.723
                      21     2 Jun 2027 05:22:38.941     2 Jun 2027 05:25:39.189           180.248
                      22     2 Jun 2027 06:59:08.214     2 Jun 2027 07:02:36.700           208.486
                      23     2 Jun 2027 08:34:13.070     2 Jun 2027 08:41:01.012           407.942
                      24     2 Jun 2027 10:10:34.634     2 Jun 2027 10:16:54.972           380.337
                      25     2 Jun 2027 11:48:05.442     2 Jun 2027 11:52:30.408           264.966
                      26     2 Jun 2027 13:24:10.010     2 Jun 2027 13:28:24.303           254.292
                      27     2 Jun 2027 20:06:43.670     2 Jun 2027 20:09:48.576           184.906
                      28     2 Jun 2027 21:42:39.135     2 Jun 2027 21:48:31.396           352.261
                      29     2 Jun 2027 23:19:21.795     2 Jun 2027 23:25:32.348           370.553
                      30     3 Jun 2027 00:54:48.519     3 Jun 2027 01:01:56.867           428.348
                      31     3 Jun 2027 02:33:00.924     3 Jun 2027 02:33:55.526            54.602
                      32     3 Jun 2027 02:34:07.828     3 Jun 2027 02:39:08.658           300.830
                      33     3 Jun 2027 04:11:16.272     3 Jun 2027 04:11:52.604            36.332
                      34     3 Jun 2027 04:12:05.366     3 Jun 2027 04:14:55.660           170.294
                      35     3 Jun 2027 05:34:35.410     3 Jun 2027 05:37:50.976           195.567
                      36     3 Jun 2027 07:11:13.241     3 Jun 2027 07:14:39.473           206.231
                      37     3 Jun 2027 08:46:23.288     3 Jun 2027 08:52:59.677           396.389
                      38     3 Jun 2027 10:22:39.262     3 Jun 2027 10:28:27.788           348.526
                      39     3 Jun 2027 10:28:36.218     3 Jun 2027 10:28:46.024             9.806
                      40     3 Jun 2027 12:00:11.116     3 Jun 2027 12:04:43.041           271.924
                      41     3 Jun 2027 13:36:12.380     3 Jun 2027 13:40:24.573           252.192
                      42     3 Jun 2027 13:40:28.767     3 Jun 2027 13:41:11.415            42.648
                      43     3 Jun 2027 18:43:09.729     3 Jun 2027 18:43:32.553            22.823
                      44     3 Jun 2027 20:18:51.702     3 Jun 2027 20:21:48.150           176.448
                      45     3 Jun 2027 21:54:51.154     3 Jun 2027 22:00:18.087           326.933
                      46     3 Jun 2027 23:31:19.417     3 Jun 2027 23:37:31.539           372.122
                      47     4 Jun 2027 01:06:48.782     4 Jun 2027 01:13:44.990           416.208
                      48     4 Jun 2027 02:46:06.570     4 Jun 2027 02:51:20.527           313.957
                      49     4 Jun 2027 02:52:23.918     4 Jun 2027 02:53:57.322            93.404
                      50     4 Jun 2027 04:12:25.192     4 Jun 2027 04:12:38.480            13.288
                      51     4 Jun 2027 04:23:12.828     4 Jun 2027 04:23:54.915            42.087
                      52     4 Jun 2027 04:24:01.009     4 Jun 2027 04:26:49.446           168.437
                      53     4 Jun 2027 05:47:11.557     4 Jun 2027 05:49:54.865           163.308
                      54     4 Jun 2027 07:22:56.864     4 Jun 2027 07:27:10.371           253.507
                      55     4 Jun 2027 08:57:48.140     4 Jun 2027 09:05:09.498           441.358
                      56     4 Jun 2027 10:34:23.750     4 Jun 2027 10:40:47.521           383.771
                      57     4 Jun 2027 12:12:41.395     4 Jun 2027 12:16:36.162           234.767
                      58     4 Jun 2027 13:46:02.080     4 Jun 2027 13:46:10.444             8.363
                      59     4 Jun 2027 13:48:01.262     4 Jun 2027 13:52:12.272           251.010
                      60     4 Jun 2027 13:52:32.191     4 Jun 2027 13:53:30.816            58.625
                      61     4 Jun 2027 18:54:27.024     4 Jun 2027 18:56:33.604           126.580
                      62     4 Jun 2027 20:30:38.583     4 Jun 2027 20:33:59.122           200.538
                      63     4 Jun 2027 22:07:14.483     4 Jun 2027 22:13:11.930           357.447
                      64     4 Jun 2027 23:43:25.668     4 Jun 2027 23:50:13.142           407.474
                      65     5 Jun 2027 01:19:29.950     5 Jun 2027 01:25:56.149           386.199
                      66     5 Jun 2027 02:58:27.246     5 Jun 2027 03:05:51.282           444.037
                      67     5 Jun 2027 04:23:41.796     5 Jun 2027 04:24:57.557            75.760
                      68     5 Jun 2027 04:35:10.813     5 Jun 2027 04:36:49.317            98.503
                      69     5 Jun 2027 05:57:50.136     5 Jun 2027 05:58:49.132            58.996
                      70     5 Jun 2027 05:59:25.877     5 Jun 2027 06:02:29.599           183.722
                      71     5 Jun 2027 07:33:10.116     5 Jun 2027 07:34:08.859            58.743
                      72     5 Jun 2027 07:34:42.064     5 Jun 2027 07:39:27.853           285.789
                      73     5 Jun 2027 09:09:40.282     5 Jun 2027 09:17:09.916           449.635
                      74     5 Jun 2027 10:46:44.951     5 Jun 2027 10:52:34.819           349.869
                      75     5 Jun 2027 10:52:36.244     5 Jun 2027 10:52:57.952            21.708
                      76     5 Jun 2027 12:24:39.201     5 Jun 2027 12:28:38.721           239.519
                      77     5 Jun 2027 13:57:48.518     5 Jun 2027 14:04:11.055           382.537
                      78     5 Jun 2027 14:04:49.835     5 Jun 2027 14:05:42.997            53.161
                      79     5 Jun 2027 19:06:23.469     5 Jun 2027 19:09:05.146           161.677
                      80     5 Jun 2027 20:42:43.645     5 Jun 2027 20:46:07.635           203.990
                      81     5 Jun 2027 20:48:34.722     5 Jun 2027 20:49:15.832            41.110
                      82     5 Jun 2027 22:19:18.138     5 Jun 2027 22:25:31.737           373.599
                      83     5 Jun 2027 23:55:33.313     6 Jun 2027 00:02:08.518           395.205
                      84     6 Jun 2027 01:31:36.117     6 Jun 2027 01:37:43.494           367.377
                      85     6 Jun 2027 03:10:40.684     6 Jun 2027 03:17:46.996           426.313
                      86     6 Jun 2027 04:34:57.758     6 Jun 2027 04:37:07.221           129.464
                      87     6 Jun 2027 04:47:10.105     6 Jun 2027 04:48:09.329            59.224
                      88     6 Jun 2027 06:09:26.087     6 Jun 2027 06:10:32.717            66.629
                      89     6 Jun 2027 06:11:21.643     6 Jun 2027 06:14:43.629           201.987
                      90     6 Jun 2027 07:44:19.692     6 Jun 2027 07:46:22.755           123.063
                      91     6 Jun 2027 07:46:29.223     6 Jun 2027 07:51:40.812           311.589
                      92     6 Jun 2027 07:52:22.397     6 Jun 2027 07:52:49.225            26.829
                      93     6 Jun 2027 09:21:53.524     6 Jun 2027 09:29:13.517           439.992
                      94     6 Jun 2027 10:58:36.083     6 Jun 2027 11:03:50.572           314.489
                      95     6 Jun 2027 11:03:52.302     6 Jun 2027 11:04:49.933            57.630
                      96     6 Jun 2027 11:04:54.309     6 Jun 2027 11:05:13.829            19.520
                      97     6 Jun 2027 12:36:39.222     6 Jun 2027 12:40:48.817           249.595
                      98     6 Jun 2027 14:10:16.768     6 Jun 2027 14:17:40.120           443.351
                      99     6 Jun 2027 19:18:24.539     6 Jun 2027 19:21:18.740           174.201
                     100     6 Jun 2027 20:54:56.310     6 Jun 2027 20:58:29.807           213.497
                     101     6 Jun 2027 20:59:39.378     6 Jun 2027 21:02:39.113           179.735
                     102     6 Jun 2027 22:31:29.360     6 Jun 2027 22:37:47.309           377.949
                     103     7 Jun 2027 00:07:00.887     7 Jun 2027 00:07:37.933            37.046
                     104     7 Jun 2027 00:07:49.027     7 Jun 2027 00:14:37.842           408.814
                     105     7 Jun 2027 01:43:57.735     7 Jun 2027 01:44:22.356            24.621
                     106     7 Jun 2027 01:44:29.317     7 Jun 2027 01:44:59.241            29.924
                     107     7 Jun 2027 01:45:04.425     7 Jun 2027 01:45:58.438            54.013
                     108     7 Jun 2027 01:46:00.629     7 Jun 2027 01:49:58.445           237.816
                     109     7 Jun 2027 03:22:44.912     7 Jun 2027 03:29:39.009           414.097
                     110     7 Jun 2027 04:47:03.523     7 Jun 2027 04:48:57.002           113.479
                     111     7 Jun 2027 04:59:24.668     7 Jun 2027 04:59:43.831            19.163
                     112     7 Jun 2027 06:20:55.270     7 Jun 2027 06:22:18.516            83.246
                     113     7 Jun 2027 06:22:55.514     7 Jun 2027 06:26:56.010           240.496
                     114     7 Jun 2027 07:55:50.395     7 Jun 2027 08:03:58.448           488.053
                     115     7 Jun 2027 08:04:18.715     7 Jun 2027 08:05:16.865            58.150
                     116     7 Jun 2027 09:33:47.565     7 Jun 2027 09:41:15.309           447.744
                     117     7 Jun 2027 11:10:42.021     7 Jun 2027 11:16:05.042           323.020
                     118     7 Jun 2027 11:16:23.647     7 Jun 2027 11:17:14.677            51.030
                     119     7 Jun 2027 12:48:25.660     7 Jun 2027 12:52:47.587           261.927
                     120     7 Jun 2027 14:24:25.162     7 Jun 2027 14:28:00.750           215.588
                     121     7 Jun 2027 19:30:31.388     7 Jun 2027 19:33:44.776           193.388
                     122     7 Jun 2027 19:33:58.662     7 Jun 2027 19:35:19.156            80.494
                     123     7 Jun 2027 21:06:52.334     7 Jun 2027 21:11:25.067           272.734
                     124     7 Jun 2027 21:11:40.718     7 Jun 2027 21:13:30.894           110.177
                     125     7 Jun 2027 21:14:17.394     7 Jun 2027 21:14:53.700            36.306
                     126     7 Jun 2027 22:43:25.905     7 Jun 2027 22:50:01.257           395.352
                     127     8 Jun 2027 00:18:58.581     8 Jun 2027 00:26:43.977           465.396
                     128     8 Jun 2027 01:56:39.227     8 Jun 2027 01:56:52.576            13.349
                     129     8 Jun 2027 01:57:02.431     8 Jun 2027 01:58:03.277            60.846
                     130     8 Jun 2027 01:58:12.061     8 Jun 2027 01:58:34.596            22.535
                     131     8 Jun 2027 01:58:48.742     8 Jun 2027 02:02:15.823           207.080
                     132     8 Jun 2027 03:35:10.934     8 Jun 2027 03:40:11.334           300.400
                     133     8 Jun 2027 04:58:59.392     8 Jun 2027 05:01:15.100           135.708
                     134     8 Jun 2027 06:34:59.214     8 Jun 2027 06:38:50.805           231.591
                     135     8 Jun 2027 08:08:43.820     8 Jun 2027 08:17:18.379           514.559
                     136     8 Jun 2027 09:46:08.654     8 Jun 2027 09:53:13.564           424.910
                     137     8 Jun 2027 11:23:12.364     8 Jun 2027 11:27:41.745           269.381
                     138     8 Jun 2027 11:27:49.614     8 Jun 2027 11:29:02.921            73.307
                     139     8 Jun 2027 12:59:57.284     8 Jun 2027 13:04:45.555           288.272
