DATA_Files/Russia2Constellation/AreaTarget-Russia-To-Satellite-KinoSat_07_plane.txt

                                                                                                                                                                                                                                                                                           10 May 2023 21:11:34
Civil Air Patrol Use Only
AreaTarget-Russia-To-Satellite-KinoSat_110701, Satellite-KinoSat_110702, Satellite-KinoSat_110703, Satellite-KinoSat_110704, Satellite-KinoSat_110705, Satellite-KinoSat_110706, Satellite-KinoSat_110707, Satellite-KinoSat_110708, Satellite-KinoSat_110709, Satellite-KinoSat_110710:  Access Summary Report


Russia-To-KinoSat_110701
------------------------
                  Access        Start Time (UTCG)           Stop Time (UTCG)        Duration (sec)
                  ------    ------------------------    ------------------------    --------------
                       1     1 Jun 2027 01:19:12.512     1 Jun 2027 01:22:19.475           186.963
                       2     1 Jun 2027 02:41:45.591     1 Jun 2027 02:44:53.325           187.735
                       3     1 Jun 2027 04:18:17.478     1 Jun 2027 04:21:49.516           212.038
                       4     1 Jun 2027 05:53:27.386     1 Jun 2027 06:00:04.064           396.678
                       5     1 Jun 2027 07:29:52.621     1 Jun 2027 07:36:00.653           368.032
                       6     1 Jun 2027 09:07:07.151     1 Jun 2027 09:11:43.995           276.844
                       7     1 Jun 2027 10:43:21.900     1 Jun 2027 10:48:04.015           282.115
                       8     1 Jun 2027 17:25:58.820     1 Jun 2027 17:28:58.618           179.798
                       9     1 Jun 2027 19:01:47.690     1 Jun 2027 19:07:24.187           336.497
                      10     1 Jun 2027 20:38:28.019     1 Jun 2027 20:44:36.991           368.972
                      11     1 Jun 2027 22:13:52.526     1 Jun 2027 22:20:51.921           419.395
                      12     1 Jun 2027 23:52:08.993     1 Jun 2027 23:52:25.159            16.166
                      13     1 Jun 2027 23:52:37.570     1 Jun 2027 23:52:48.608            11.038
                      14     1 Jun 2027 23:53:11.487     1 Jun 2027 23:58:18.478           306.990
                      15     1 Jun 2027 23:59:45.417     1 Jun 2027 23:59:57.016            11.599
                      16     2 Jun 2027 01:30:20.183     2 Jun 2027 01:30:58.083            37.900
                      17     2 Jun 2027 01:31:27.533     2 Jun 2027 01:33:56.823           149.290
                      18     2 Jun 2027 02:53:48.310     2 Jun 2027 02:56:58.226           189.917
                      19     2 Jun 2027 04:30:10.377     2 Jun 2027 04:34:12.407           242.030
                      20     2 Jun 2027 06:05:06.950     2 Jun 2027 06:12:12.407           425.456
                      21     2 Jun 2027 07:41:24.998     2 Jun 2027 07:47:49.882           384.884
                      22     2 Jun 2027 09:19:40.866     2 Jun 2027 09:23:32.987           232.121
                      23     2 Jun 2027 10:55:00.873     2 Jun 2027 10:59:11.889           251.016
                      24     2 Jun 2027 10:59:33.181     2 Jun 2027 11:00:31.687            58.506
                      25     2 Jun 2027 16:01:52.248     2 Jun 2027 16:03:25.461            93.213
                      26     2 Jun 2027 17:37:44.870     2 Jun 2027 17:40:54.298           189.428
                      27     2 Jun 2027 19:14:17.956     2 Jun 2027 19:19:28.140           310.184
                      28     2 Jun 2027 20:50:26.853     2 Jun 2027 20:57:15.078           408.225
                      29     2 Jun 2027 22:25:55.734     2 Jun 2027 22:33:01.895           426.161
                      30     3 Jun 2027 00:05:14.118     3 Jun 2027 00:10:51.268           337.150
                      31     3 Jun 2027 00:11:23.807     3 Jun 2027 00:12:53.406            89.598
                      32     3 Jun 2027 01:31:04.300     3 Jun 2027 01:31:55.036            50.736
                      33     3 Jun 2027 01:42:16.186     3 Jun 2027 01:43:58.334           102.148
                      34     3 Jun 2027 01:44:14.906     3 Jun 2027 01:45:34.957            80.050
                      35     3 Jun 2027 03:04:55.631     3 Jun 2027 03:09:30.071           274.440
                      36     3 Jun 2027 04:40:29.083     3 Jun 2027 04:41:02.367            33.284
                      37     3 Jun 2027 04:41:54.246     3 Jun 2027 04:46:27.716           273.471
                      38     3 Jun 2027 06:16:40.100     3 Jun 2027 06:24:14.727           454.627
                      39     3 Jun 2027 07:53:44.292     3 Jun 2027 08:00:06.906           382.614
                      40     3 Jun 2027 09:31:43.493     3 Jun 2027 09:35:39.045           235.552
                      41     3 Jun 2027 11:04:52.817     3 Jun 2027 11:11:07.083           374.266
                      42     3 Jun 2027 11:11:11.631     3 Jun 2027 11:12:48.756            97.124
                      43     3 Jun 2027 16:13:27.996     3 Jun 2027 16:15:58.519           150.523
                      44     3 Jun 2027 17:49:44.648     3 Jun 2027 17:53:11.660           207.012
                      45     3 Jun 2027 19:26:27.070     3 Jun 2027 19:32:39.529           372.459
                      46     3 Jun 2027 21:02:34.970     3 Jun 2027 21:09:11.880           396.910
                      47     3 Jun 2027 22:38:35.863     3 Jun 2027 22:45:01.547           385.684
                      48     4 Jun 2027 00:17:39.792     4 Jun 2027 00:24:51.348           431.556
                      49     4 Jun 2027 01:42:35.524     4 Jun 2027 01:44:08.308            92.785
                      50     4 Jun 2027 01:54:18.182     4 Jun 2027 01:55:36.810            78.628
                      51     4 Jun 2027 03:16:31.437     4 Jun 2027 03:17:42.364            70.926
                      52     4 Jun 2027 03:18:32.193     4 Jun 2027 03:21:43.621           191.427
                      53     4 Jun 2027 04:51:35.961     4 Jun 2027 04:53:19.039           103.078
                      54     4 Jun 2027 04:53:38.846     4 Jun 2027 04:58:39.915           301.069
                      55     4 Jun 2027 04:59:30.439     4 Jun 2027 04:59:51.699            21.259
                      56     4 Jun 2027 06:28:56.862     4 Jun 2027 06:36:17.376           440.514
                      57     4 Jun 2027 08:05:46.038     4 Jun 2027 08:12:13.668           387.631
                      58     4 Jun 2027 09:43:42.941     4 Jun 2027 09:47:42.088           239.147
                      59     4 Jun 2027 11:17:19.408     4 Jun 2027 11:24:47.799           448.391
                      60     4 Jun 2027 16:25:28.565     4 Jun 2027 16:28:07.356           158.790
                      61     4 Jun 2027 18:01:54.227     4 Jun 2027 18:05:17.020           202.793
                      62     4 Jun 2027 18:06:47.526     4 Jun 2027 18:09:08.903           141.377
                      63     4 Jun 2027 19:38:41.548     4 Jun 2027 19:44:36.786           355.238
                      64     4 Jun 2027 21:14:35.337     4 Jun 2027 21:21:25.665           410.328
                      65     4 Jun 2027 22:50:53.651     4 Jun 2027 22:56:51.822           358.171
                      66     5 Jun 2027 00:29:54.676     5 Jun 2027 00:36:52.412           417.736
                      67     5 Jun 2027 01:54:05.831     5 Jun 2027 01:56:18.923           133.093
                      68     5 Jun 2027 02:06:14.797     5 Jun 2027 02:06:52.817            38.019
                      69     5 Jun 2027 03:28:15.694     5 Jun 2027 03:29:30.631            74.937
                      70     5 Jun 2027 03:30:18.219     5 Jun 2027 03:33:54.457           216.238
                      71     5 Jun 2027 05:03:04.160     5 Jun 2027 05:11:00.739           476.579
                      72     5 Jun 2027 05:11:23.061     5 Jun 2027 05:12:05.448            42.387
                      73     5 Jun 2027 06:40:52.673     5 Jun 2027 06:48:18.313           445.640
                      74     5 Jun 2027 08:17:37.181     5 Jun 2027 08:23:32.822           355.641
                      75     5 Jun 2027 08:23:38.247     5 Jun 2027 08:24:23.004            44.757
                      76     5 Jun 2027 09:55:44.492     5 Jun 2027 09:59:52.112           247.620
                      77     5 Jun 2027 11:29:35.569     5 Jun 2027 11:35:56.327           380.758
                      78     5 Jun 2027 16:37:32.986     5 Jun 2027 16:40:28.920           175.934
                      79     5 Jun 2027 16:41:16.911     5 Jun 2027 16:41:31.202            14.291
                      80     5 Jun 2027 18:13:56.881     5 Jun 2027 18:18:01.981           245.099
                      81     5 Jun 2027 18:18:51.717     5 Jun 2027 18:22:00.507           188.790
                      82     5 Jun 2027 19:50:33.387     5 Jun 2027 19:56:59.586           386.199
                      83     5 Jun 2027 21:26:03.330     5 Jun 2027 21:33:49.684           466.354
                      84     5 Jun 2027 23:03:17.358     5 Jun 2027 23:03:21.367             4.009
                      85     5 Jun 2027 23:03:39.085     5 Jun 2027 23:09:14.382           335.297
                      86     6 Jun 2027 00:42:02.057     6 Jun 2027 00:47:17.503           315.446
                      87     6 Jun 2027 02:06:04.625     6 Jun 2027 02:08:20.946           136.320
                      88     6 Jun 2027 03:42:01.487     6 Jun 2027 03:45:57.830           236.343
                      89     6 Jun 2027 05:15:52.450     6 Jun 2027 05:23:11.387           438.937
                      90     6 Jun 2027 05:23:22.268     6 Jun 2027 05:24:22.366            60.098
                      91     6 Jun 2027 06:52:59.076     6 Jun 2027 07:00:18.235           439.159
                      92     6 Jun 2027 08:30:01.260     6 Jun 2027 08:34:51.737           290.476
                      93     6 Jun 2027 08:34:58.647     6 Jun 2027 08:36:09.104            70.457
                      94     6 Jun 2027 10:06:58.473     6 Jun 2027 10:11:50.082           291.608
                      95     6 Jun 2027 11:42:02.310     6 Jun 2027 11:42:31.102            28.792
                      96     6 Jun 2027 11:43:40.455     6 Jun 2027 11:46:55.611           195.156
                      97     6 Jun 2027 16:49:37.550     6 Jun 2027 16:52:07.612           150.062
                      98     6 Jun 2027 16:52:20.265     6 Jun 2027 16:54:55.040           154.774
                      99     6 Jun 2027 18:25:50.917     6 Jun 2027 18:32:46.596           415.679
                     100     6 Jun 2027 20:02:33.851     6 Jun 2027 20:09:06.368           392.516
                     101     6 Jun 2027 21:38:02.576     6 Jun 2027 21:45:41.663           459.088
                     102     6 Jun 2027 23:16:11.179     6 Jun 2027 23:17:03.578            52.399
                     103     6 Jun 2027 23:17:13.583     6 Jun 2027 23:21:28.282           254.700
                     104     7 Jun 2027 00:54:35.970     7 Jun 2027 00:59:16.258           280.288
                     105     7 Jun 2027 02:17:58.860     7 Jun 2027 02:20:25.565           146.705
                     106     7 Jun 2027 03:54:23.136     7 Jun 2027 03:57:49.027           205.891
                     107     7 Jun 2027 05:27:50.890     7 Jun 2027 05:35:19.163           448.274
                     108     7 Jun 2027 05:35:20.322     7 Jun 2027 05:36:21.406            61.085
                     109     7 Jun 2027 07:05:24.810     7 Jun 2027 07:12:07.057           402.247
                     110     7 Jun 2027 08:42:18.704     7 Jun 2027 08:46:42.953           264.250
                     111     7 Jun 2027 08:46:45.507     7 Jun 2027 08:47:54.422            68.915
                     112     7 Jun 2027 10:19:12.438     7 Jun 2027 10:23:40.723           268.285
                     113     7 Jun 2027 11:56:51.968     7 Jun 2027 11:58:29.435            97.466
                     114     7 Jun 2027 17:01:50.751     7 Jun 2027 17:04:19.980           149.229
                     115     7 Jun 2027 17:05:11.960     7 Jun 2027 17:06:19.894            67.934
                     116     7 Jun 2027 18:37:53.649     7 Jun 2027 18:44:27.676           394.027
                     117     7 Jun 2027 20:14:34.789     7 Jun 2027 20:20:57.499           382.710
                     118     7 Jun 2027 21:50:07.230     7 Jun 2027 21:57:40.938           453.708
                     119     7 Jun 2027 23:28:25.805     7 Jun 2027 23:28:39.488            13.684
                     120     7 Jun 2027 23:28:41.622     7 Jun 2027 23:34:27.290           345.668
                     121     8 Jun 2027 01:06:14.482     8 Jun 2027 01:10:52.739           278.257
                     122     8 Jun 2027 02:29:46.174     8 Jun 2027 02:32:32.884           166.710
                     123     8 Jun 2027 04:06:24.554     8 Jun 2027 04:09:56.389           211.834
                     124     8 Jun 2027 05:41:19.568     8 Jun 2027 05:47:15.435           355.867
                     125     8 Jun 2027 05:47:19.054     8 Jun 2027 05:48:17.676            58.622
                     126     8 Jun 2027 07:17:32.180     8 Jun 2027 07:24:12.514           400.333
                     127     8 Jun 2027 08:55:15.348     8 Jun 2027 08:59:40.226           264.878
                     128     8 Jun 2027 10:31:21.654     8 Jun 2027 10:35:43.864           262.211
                     129     8 Jun 2027 17:14:01.721     8 Jun 2027 17:16:28.663           146.941
                     130     8 Jun 2027 18:49:56.899     8 Jun 2027 18:56:09.812           372.913
                     131     8 Jun 2027 20:26:38.475     8 Jun 2027 20:33:05.923           387.448
                     132     8 Jun 2027 22:02:09.691     8 Jun 2027 22:09:30.268           440.577
                     133     8 Jun 2027 23:40:19.275     8 Jun 2027 23:41:19.425            60.151
                     134     8 Jun 2027 23:41:28.378     8 Jun 2027 23:46:40.029           311.651
                     135     9 Jun 2027 01:19:27.049     9 Jun 2027 01:22:30.156           183.107
                     136     9 Jun 2027 02:42:00.338     9 Jun 2027 02:45:08.153           187.815
                     137     9 Jun 2027 04:18:32.165     9 Jun 2027 04:22:04.019           211.853
                     138     9 Jun 2027 05:53:42.177     9 Jun 2027 06:00:18.791           396.614
                     139     9 Jun 2027 07:30:07.673     9 Jun 2027 07:36:14.967           367.294
                     140     9 Jun 2027 09:07:22.136     9 Jun 2027 09:11:58.908           276.772
                     141     9 Jun 2027 10:43:36.641     9 Jun 2027 10:48:18.623           281.982
                     142     9 Jun 2027 17:26:14.281     9 Jun 2027 17:29:14.728           180.447
                     143     9 Jun 2027 19:02:02.479     9 Jun 2027 19:07:39.060           336.581
                     144     9 Jun 2027 20:38:42.743     9 Jun 2027 20:44:51.806           369.063
                     145     9 Jun 2027 22:14:07.211     9 Jun 2027 22:21:06.480           419.269
                     146     9 Jun 2027 23:52:23.706     9 Jun 2027 23:52:39.335            15.629
                     147     9 Jun 2027 23:52:52.844     9 Jun 2027 23:53:03.106            10.262
                     148     9 Jun 2027 23:53:26.179     9 Jun 2027 23:58:33.430           307.250
                     149     9 Jun 2027 23:59:59.982    10 Jun 2027 00:00:12.727            12.745
                     150    10 Jun 2027 01:30:34.867    10 Jun 2027 01:31:12.887            38.020
                     151    10 Jun 2027 01:31:42.141    10 Jun 2027 01:34:11.616           149.474
                     152    10 Jun 2027 02:54:02.885    10 Jun 2027 02:57:12.935           190.050
                     153    10 Jun 2027 04:30:25.116    10 Jun 2027 04:34:27.396           242.281
                     154    10 Jun 2027 06:05:21.283    10 Jun 2027 06:12:27.245           425.963
                     155    10 Jun 2027 07:41:39.932    10 Jun 2027 07:48:04.691           384.759
                     156    10 Jun 2027 09:19:55.390    10 Jun 2027 09:23:48.117           232.727
                     157    10 Jun 2027 10:55:15.528    10 Jun 2027 10:59:26.865           251.336
                     158    10 Jun 2027 10:59:47.942    10 Jun 2027 11:00:46.539            58.597
                     159    10 Jun 2027 16:02:06.396    10 Jun 2027 16:03:40.508            94.111
                     160    10 Jun 2027 17:37:59.471    10 Jun 2027 17:41:09.013           189.542
                     161    10 Jun 2027 19:14:32.613    10 Jun 2027 19:19:43.162           310.549
                     162    10 Jun 2027 20:50:41.620    10 Jun 2027 20:57:30.091           408.471
                     163    10 Jun 2027 22:26:10.546    10 Jun 2027 22:33:16.928           426.382
                     164    11 Jun 2027 00:05:28.876    11 Jun 2027 00:11:05.550           336.674
                     165    11 Jun 2027 00:11:39.394    11 Jun 2027 00:13:08.353            88.959
                     166    11 Jun 2027 01:31:18.340    11 Jun 2027 01:32:10.422            52.082
                     167    11 Jun 2027 01:42:30.851    11 Jun 2027 01:44:12.767           101.916
                     168    11 Jun 2027 01:44:30.559    11 Jun 2027 01:45:49.330            78.771
                     169    11 Jun 2027 03:05:08.787    11 Jun 2027 03:09:45.064           276.277
                     170    11 Jun 2027 04:40:43.781    11 Jun 2027 04:41:17.418            33.637
                     171    11 Jun 2027 04:42:08.966    11 Jun 2027 04:46:42.551           273.585
                     172    11 Jun 2027 06:16:54.607    11 Jun 2027 06:24:29.245           454.638
                     173    11 Jun 2027 07:53:59.189    11 Jun 2027 08:00:21.802           382.613
                     174    11 Jun 2027 09:31:58.318    11 Jun 2027 09:35:53.413           235.095
                     175    11 Jun 2027 11:05:07.330    11 Jun 2027 11:11:21.697           374.367
                     176    11 Jun 2027 11:11:26.520    11 Jun 2027 11:13:03.331            96.811
                     177    11 Jun 2027 16:13:42.654    11 Jun 2027 16:16:13.725           151.070
                     178    11 Jun 2027 17:49:59.448    11 Jun 2027 17:53:26.541           207.093
                     179    11 Jun 2027 19:26:41.804    11 Jun 2027 19:32:54.131           372.327
                     180    11 Jun 2027 21:02:49.595    11 Jun 2027 21:09:26.659           397.064
                     181    11 Jun 2027 22:38:50.630    11 Jun 2027 22:45:15.910           385.280
                     182    12 Jun 2027 00:17:54.620    12 Jun 2027 00:25:06.050           431.431
                     183    12 Jun 2027 01:42:50.160    12 Jun 2027 01:44:23.153            92.993
                     184    12 Jun 2027 01:54:32.977    12 Jun 2027 01:55:51.236            78.259
                     185    12 Jun 2027 03:16:46.147    12 Jun 2027 03:17:56.864            70.717
                     186    12 Jun 2027 03:18:46.890    12 Jun 2027 03:21:58.514           191.624
                     187    12 Jun 2027 04:51:50.368    12 Jun 2027 04:53:33.615           103.247
                     188    12 Jun 2027 04:53:53.421    12 Jun 2027 04:58:54.813           301.392
                     189    12 Jun 2027 04:59:45.012    12 Jun 2027 05:00:06.545            21.533
                     190    12 Jun 2027 06:29:12.123    12 Jun 2027 06:36:32.163           440.040
                     191    12 Jun 2027 08:06:00.806    12 Jun 2027 08:12:28.806           388.000
                     192    12 Jun 2027 09:43:57.870    12 Jun 2027 09:47:56.898           239.028
                     193    12 Jun 2027 11:17:34.652    12 Jun 2027 11:25:02.394           447.742
                     194    12 Jun 2027 16:25:43.230    12 Jun 2027 16:28:22.186           158.956
                     195    12 Jun 2027 18:02:09.114    12 Jun 2027 18:05:31.794           202.680
                     196    12 Jun 2027 18:07:02.141    12 Jun 2027 18:09:24.241           142.100
                     197    12 Jun 2027 19:38:56.185    12 Jun 2027 19:44:51.469           355.284
                     198    12 Jun 2027 21:14:50.144    12 Jun 2027 21:21:40.729           410.585
                     199    12 Jun 2027 22:51:08.376    12 Jun 2027 22:57:06.707           358.331
                     200    13 Jun 2027 00:30:09.007    13 Jun 2027 00:37:06.883           417.875
                     201    13 Jun 2027 01:54:20.752    13 Jun 2027 01:56:33.566           132.813
                     202    13 Jun 2027 02:06:29.610    13 Jun 2027 02:07:07.339            37.729
                     203    13 Jun 2027 03:28:30.194    13 Jun 2027 03:29:44.397            74.203
                     204    13 Jun 2027 03:30:32.806    13 Jun 2027 03:34:09.458           216.652
                     205    13 Jun 2027 05:03:18.565    13 Jun 2027 05:11:15.626           477.061
                     206    13 Jun 2027 05:11:37.668    13 Jun 2027 05:12:20.356            42.688
                     207    13 Jun 2027 06:41:07.383    13 Jun 2027 06:48:32.972           445.589
                     208    13 Jun 2027 08:17:51.764    13 Jun 2027 08:23:47.305           355.541
                     209    13 Jun 2027 08:23:52.493    13 Jun 2027 08:24:37.556            45.064
                     210    13 Jun 2027 09:55:59.427    13 Jun 2027 10:00:06.565           247.138
                     211    13 Jun 2027 11:29:50.461    13 Jun 2027 11:36:08.317           377.856
                     212    13 Jun 2027 16:37:47.851    13 Jun 2027 16:40:43.789           175.938
                     213    13 Jun 2027 16:41:31.719    13 Jun 2027 16:41:45.738            14.020
                     214    13 Jun 2027 18:14:11.564    13 Jun 2027 18:18:17.680           246.116
                     215    13 Jun 2027 18:19:00.707    13 Jun 2027 18:22:15.497           194.790
                     216    13 Jun 2027 19:50:47.899    13 Jun 2027 19:57:14.603           386.704
                     217    13 Jun 2027 21:26:17.983    13 Jun 2027 21:34:04.474           466.490
                     218    13 Jun 2027 23:03:32.248    13 Jun 2027 23:03:35.733             3.485
                     219    13 Jun 2027 23:03:53.968    13 Jun 2027 23:05:41.097           107.129
                     220    13 Jun 2027 23:05:41.107    13 Jun 2027 23:09:29.100           227.993

Min Duration         218    13 Jun 2027 23:03:32.248    13 Jun 2027 23:03:35.733             3.485
Max Duration         205    13 Jun 2027 05:03:18.565    13 Jun 2027 05:11:15.626           477.061
Mean Duration                                                                              240.519
Total Duration                                                                           52914.115


Russia-To-KinoSat_110702
------------------------
                  Access        Start Time (UTCG)           Stop Time (UTCG)        Duration (sec)
                  ------    ------------------------    ------------------------    --------------
                       1     1 Jun 2027 01:09:02.908     1 Jun 2027 01:13:03.427           240.519
                       2     1 Jun 2027 02:31:59.706     1 Jun 2027 02:34:43.099           163.393
                       3     1 Jun 2027 04:08:33.420     1 Jun 2027 04:12:06.531           213.111
                       4     1 Jun 2027 05:43:41.984     1 Jun 2027 05:49:27.079           345.095
                       5     1 Jun 2027 05:49:28.472     1 Jun 2027 05:50:30.714            62.242
                       6     1 Jun 2027 07:20:01.992     1 Jun 2027 07:26:24.588           382.596
                       7     1 Jun 2027 08:57:36.972     1 Jun 2027 09:01:57.372           260.401
                       8     1 Jun 2027 10:33:39.475     1 Jun 2027 10:37:51.031           251.556
                       9     1 Jun 2027 17:16:11.334     1 Jun 2027 17:18:50.012           158.678
                      10     1 Jun 2027 18:52:08.265     1 Jun 2027 18:58:14.676           366.411
                      11     1 Jun 2027 20:28:50.861     1 Jun 2027 20:35:14.670           383.809
                      12     1 Jun 2027 22:04:21.227     1 Jun 2027 22:11:35.186           433.960
                      13     1 Jun 2027 23:42:30.402     1 Jun 2027 23:43:32.480            62.078
                      14     1 Jun 2027 23:43:39.233     1 Jun 2027 23:48:43.323           304.090
                      15     2 Jun 2027 01:20:48.827     2 Jun 2027 01:21:20.559            31.732
                      16     2 Jun 2027 01:21:38.309     2 Jun 2027 01:24:39.588           181.278
                      17     2 Jun 2027 02:44:08.962     2 Jun 2027 02:47:20.386           191.425
                      18     2 Jun 2027 04:20:43.965     2 Jun 2027 04:24:11.826           207.861
                      19     2 Jun 2027 05:55:53.754     2 Jun 2027 06:02:29.612           395.858
                      20     2 Jun 2027 07:32:14.933     2 Jun 2027 07:38:24.193           369.261
                      21     2 Jun 2027 09:09:31.977     2 Jun 2027 09:14:12.365           280.388
                      22     2 Jun 2027 10:45:44.179     2 Jun 2027 10:50:35.221           291.042
                      23     2 Jun 2027 17:28:21.359     2 Jun 2027 17:31:28.480           187.121
                      24     2 Jun 2027 19:04:13.395     2 Jun 2027 19:09:51.395           338.000
                      25     2 Jun 2027 20:40:48.049     2 Jun 2027 20:47:01.899           373.850
                      26     2 Jun 2027 22:16:18.365     2 Jun 2027 22:23:09.094           410.729
                      27     2 Jun 2027 23:54:35.715     2 Jun 2027 23:54:43.003             7.289
                      28     2 Jun 2027 23:55:36.772     3 Jun 2027 00:00:44.243           307.471
                      29     3 Jun 2027 00:02:06.765     3 Jun 2027 00:03:33.816            87.052
                      30     3 Jun 2027 01:32:45.487     3 Jun 2027 01:33:24.506            39.020
                      31     3 Jun 2027 01:33:46.255     3 Jun 2027 01:36:18.356           152.101
                      32     3 Jun 2027 02:56:40.645     3 Jun 2027 02:59:24.467           163.822
                      33     3 Jun 2027 04:32:32.307     3 Jun 2027 04:36:40.298           247.992
                      34     3 Jun 2027 06:07:26.422     3 Jun 2027 06:14:38.683           432.262
                      35     3 Jun 2027 07:43:52.321     3 Jun 2027 07:50:17.360           385.039
                      36     3 Jun 2027 09:22:10.789     3 Jun 2027 09:26:05.410           234.620
                      37     3 Jun 2027 10:57:37.134     3 Jun 2027 11:01:38.668           241.535
                      38     3 Jun 2027 11:02:00.052     3 Jun 2027 11:02:58.854            58.802
                      39     3 Jun 2027 16:04:09.443     3 Jun 2027 16:05:57.508           108.065
                      40     3 Jun 2027 17:40:09.276     3 Jun 2027 17:43:29.729           200.454
                      41     3 Jun 2027 19:16:43.377     3 Jun 2027 19:21:56.973           313.596
                      42     3 Jun 2027 20:52:53.613     3 Jun 2027 20:59:41.309           407.696
                      43     3 Jun 2027 22:28:47.885     3 Jun 2027 22:35:30.363           402.478
                      44     4 Jun 2027 00:07:40.228     4 Jun 2027 00:13:11.012           330.784
                      45     4 Jun 2027 00:13:42.388     4 Jun 2027 00:15:18.079            95.691
                      46     4 Jun 2027 01:33:20.666     4 Jun 2027 01:34:26.503            65.837
                      47     4 Jun 2027 01:44:41.350     4 Jun 2027 01:46:21.951           100.600
                      48     4 Jun 2027 01:47:20.747     4 Jun 2027 01:47:44.732            23.985
                      49     4 Jun 2027 03:07:15.953     4 Jun 2027 03:08:20.431            64.478
                      50     4 Jun 2027 03:08:51.205     4 Jun 2027 03:11:58.369           187.164
                      51     4 Jun 2027 04:42:48.742     4 Jun 2027 04:43:38.656            49.915
                      52     4 Jun 2027 04:44:16.753     4 Jun 2027 04:48:55.119           278.366
                      53     4 Jun 2027 06:19:06.133     4 Jun 2027 06:26:39.454           453.321
                      54     4 Jun 2027 07:56:11.872     4 Jun 2027 08:02:32.853           380.981
                      55     4 Jun 2027 09:34:09.218     4 Jun 2027 09:38:06.996           237.778
                      56     4 Jun 2027 11:07:14.101     4 Jun 2027 11:13:34.074           379.972
                      57     4 Jun 2027 11:14:16.635     4 Jun 2027 11:15:15.775            59.140
                      58     4 Jun 2027 16:15:52.701     4 Jun 2027 16:18:37.428           164.727
                      59     4 Jun 2027 17:52:11.368     4 Jun 2027 17:55:38.147           206.780
                      60     4 Jun 2027 19:28:52.252     4 Jun 2027 19:35:04.822           372.571
                      61     4 Jun 2027 21:04:58.803     4 Jun 2027 21:11:38.683           399.879
                      62     4 Jun 2027 22:41:03.093     4 Jun 2027 22:47:15.554           372.461
                      63     5 Jun 2027 00:20:09.477     5 Jun 2027 00:27:17.714           428.237
                      64     5 Jun 2027 01:44:59.810     5 Jun 2027 01:46:34.805            94.995
                      65     5 Jun 2027 01:56:43.782     5 Jun 2027 01:57:45.702            61.921
                      66     5 Jun 2027 03:18:59.143     5 Jun 2027 03:20:04.969            65.826
                      67     5 Jun 2027 03:20:55.864     5 Jun 2027 03:24:11.655           195.791
                      68     5 Jun 2027 04:53:57.302     5 Jun 2027 04:55:51.482           114.180
                      69     5 Jun 2027 04:56:00.649     5 Jun 2027 05:01:17.733           317.084
                      70     5 Jun 2027 05:01:54.125     5 Jun 2027 05:02:18.665            24.541
                      71     5 Jun 2027 06:31:25.471     5 Jun 2027 06:38:43.543           438.072
                      72     5 Jun 2027 08:08:10.662     5 Jun 2027 08:14:22.398           371.736
                      73     5 Jun 2027 08:14:26.612     5 Jun 2027 08:14:42.509            15.897
                      74     5 Jun 2027 09:46:08.744     5 Jun 2027 09:50:19.237           250.493
                      75     5 Jun 2027 11:19:46.500     5 Jun 2027 11:27:10.491           443.992
                      76     5 Jun 2027 16:27:53.223     5 Jun 2027 16:30:36.684           163.460
                      77     5 Jun 2027 18:04:23.073     5 Jun 2027 18:07:45.302           202.228
                      78     5 Jun 2027 18:09:08.617     5 Jun 2027 18:11:49.801           161.184
                      79     5 Jun 2027 19:41:05.931     5 Jun 2027 19:47:04.518           358.587
                      80     5 Jun 2027 21:16:37.075     5 Jun 2027 21:16:54.227            17.152
                      81     5 Jun 2027 21:17:03.715     5 Jun 2027 21:24:01.276           417.561
                      82     5 Jun 2027 22:53:21.358     5 Jun 2027 22:53:52.291            30.933
                      83     5 Jun 2027 22:53:54.379     5 Jun 2027 22:54:32.503            38.124
                      84     5 Jun 2027 22:54:33.302     5 Jun 2027 22:55:33.985            60.682
                      85     5 Jun 2027 22:55:35.576     5 Jun 2027 22:59:23.908           228.331
                      86     6 Jun 2027 00:32:10.190     6 Jun 2027 00:39:13.406           423.215
                      87     6 Jun 2027 01:56:33.052     6 Jun 2027 01:58:39.164           126.112
                      88     6 Jun 2027 02:08:45.229     6 Jun 2027 02:09:16.792            31.563
                      89     6 Jun 2027 03:30:34.066     6 Jun 2027 03:31:51.889            77.822
                      90     6 Jun 2027 03:32:40.283     6 Jun 2027 03:36:24.156           223.873
                      91     6 Jun 2027 05:05:25.170     6 Jun 2027 05:13:27.862           482.693
                      92     6 Jun 2027 05:13:48.152     6 Jun 2027 05:14:46.397            58.245
                      93     6 Jun 2027 06:43:18.475     6 Jun 2027 06:50:43.250           444.774
                      94     6 Jun 2027 08:20:02.342     6 Jun 2027 08:25:53.593           351.251
                      95     6 Jun 2027 08:25:59.498     6 Jun 2027 08:26:46.464            46.966
                      96     6 Jun 2027 09:58:09.041     6 Jun 2027 10:02:18.208           249.166
                      97     6 Jun 2027 11:33:52.577     6 Jun 2027 11:38:16.461           263.884
                      98     6 Jun 2027 16:39:58.871     6 Jun 2027 16:42:51.875           173.005
                      99     6 Jun 2027 16:43:25.607     6 Jun 2027 16:44:01.427            35.820
                     100     6 Jun 2027 18:16:22.572     6 Jun 2027 18:20:40.964           258.393
                     101     6 Jun 2027 18:21:14.619     6 Jun 2027 18:24:24.990           190.371
                     102     6 Jun 2027 19:52:57.283     6 Jun 2027 19:59:29.981           392.698
                     103     6 Jun 2027 21:28:28.238     6 Jun 2027 21:36:11.672           463.434
                     104     6 Jun 2027 23:06:06.109     6 Jun 2027 23:07:45.672            99.563
                     105     6 Jun 2027 23:08:08.655     6 Jun 2027 23:11:40.766           212.111
                     106     7 Jun 2027 00:44:31.228     7 Jun 2027 00:49:41.845           310.617
                     107     7 Jun 2027 02:08:28.911     7 Jun 2027 02:10:45.520           136.610
                     108     7 Jun 2027 03:44:29.687     7 Jun 2027 03:48:22.271           232.583
                     109     7 Jun 2027 05:18:17.027     7 Jun 2027 05:25:42.366           445.339
                     110     7 Jun 2027 05:25:47.713     7 Jun 2027 05:26:47.612            59.899
                     111     7 Jun 2027 06:55:25.813     7 Jun 2027 07:02:44.003           438.190
                     112     7 Jun 2027 08:32:40.114     7 Jun 2027 08:37:12.258           272.144
                     113     7 Jun 2027 08:37:21.938     7 Jun 2027 08:38:33.029            71.091
                     114     7 Jun 2027 10:09:22.705     7 Jun 2027 10:14:16.772           294.067
                     115     7 Jun 2027 11:44:34.072     7 Jun 2027 11:44:48.202            14.129
                     116     7 Jun 2027 11:46:08.525     7 Jun 2027 11:49:17.805           189.281
                     117     7 Jun 2027 16:52:03.941     7 Jun 2027 16:54:33.130           149.188
                     118     7 Jun 2027 16:54:55.879     7 Jun 2027 16:57:31.839           155.959
                     119     7 Jun 2027 18:28:15.895     7 Jun 2027 18:35:12.646           416.750
                     120     7 Jun 2027 20:05:00.739     7 Jun 2027 20:11:28.712           387.973
                     121     7 Jun 2027 21:40:27.784     7 Jun 2027 21:48:01.608           453.824
                     122     7 Jun 2027 23:18:43.424     7 Jun 2027 23:19:26.525            43.101
                     123     7 Jun 2027 23:19:31.887     7 Jun 2027 23:20:18.901            47.015
                     124     7 Jun 2027 23:20:21.307     7 Jun 2027 23:24:51.931           270.624
                     125     8 Jun 2027 00:57:02.386     8 Jun 2027 01:01:42.990           280.604
                     126     8 Jun 2027 02:20:21.851     8 Jun 2027 02:22:55.885           154.034
                     127     8 Jun 2027 03:56:43.338     8 Jun 2027 04:00:12.394           209.057
                     128     8 Jun 2027 05:30:40.272     8 Jun 2027 05:37:39.211           418.938
                     129     8 Jun 2027 05:37:39.921     8 Jun 2027 05:38:46.322            66.401
                     130     8 Jun 2027 07:07:51.281     8 Jun 2027 07:14:33.322           402.041
                     131     8 Jun 2027 08:44:51.984     8 Jun 2027 08:50:14.901           322.917
                     132     8 Jun 2027 10:21:37.677     8 Jun 2027 10:26:07.825           270.148
                     133     8 Jun 2027 11:59:47.451     8 Jun 2027 12:00:53.713            66.263
                     134     8 Jun 2027 17:04:22.304     8 Jun 2027 17:06:39.957           137.653
                     135     8 Jun 2027 17:07:42.054     8 Jun 2027 17:08:34.469            52.416
                     136     8 Jun 2027 18:40:20.349     8 Jun 2027 18:46:52.665           392.316
                     137     8 Jun 2027 20:17:01.953     8 Jun 2027 20:23:25.202           383.248
                     138     8 Jun 2027 21:52:34.616     8 Jun 2027 22:00:04.547           449.931
                     139     8 Jun 2027 23:30:36.564     8 Jun 2027 23:30:41.911             5.347
                     140     8 Jun 2027 23:31:06.467     8 Jun 2027 23:36:51.118           344.652
                     141     9 Jun 2027 01:09:17.617     9 Jun 2027 01:13:18.096           240.479
                     142     9 Jun 2027 02:32:14.802     9 Jun 2027 02:34:57.674           162.872
                     143     9 Jun 2027 04:08:48.217     9 Jun 2027 04:12:21.134           212.917
                     144     9 Jun 2027 05:43:57.062     9 Jun 2027 05:49:42.001           344.939
                     145     9 Jun 2027 05:49:43.032     9 Jun 2027 05:50:45.635            62.603
                     146     9 Jun 2027 07:20:17.005     9 Jun 2027 07:26:39.422           382.417
                     147     9 Jun 2027 08:57:51.644     9 Jun 2027 09:02:12.508           260.864
                     148     9 Jun 2027 10:33:54.360     9 Jun 2027 10:38:05.372           251.012
                     149     9 Jun 2027 17:16:26.069     9 Jun 2027 17:19:04.999           158.930
                     150     9 Jun 2027 18:52:23.050     9 Jun 2027 18:58:28.783           365.733
                     151     9 Jun 2027 20:29:05.599     9 Jun 2027 20:35:28.881           383.282
                     152     9 Jun 2027 22:04:36.010     9 Jun 2027 22:11:49.482           433.472
                     153     9 Jun 2027 23:42:45.093     9 Jun 2027 23:43:47.266            62.173
                     154     9 Jun 2027 23:43:53.886     9 Jun 2027 23:48:57.600           303.713
                     155    10 Jun 2027 01:21:03.529    10 Jun 2027 01:21:35.489            31.960
                     156    10 Jun 2027 01:21:52.932    10 Jun 2027 01:24:53.947           181.015
                     157    10 Jun 2027 02:44:23.410    10 Jun 2027 02:47:35.231           191.820
                     158    10 Jun 2027 04:20:58.646    10 Jun 2027 04:24:26.314           207.668
                     159    10 Jun 2027 05:56:08.693    10 Jun 2027 06:02:44.320           395.628
                     160    10 Jun 2027 07:32:29.625    10 Jun 2027 07:38:38.031           368.406
                     161    10 Jun 2027 09:09:46.471    10 Jun 2027 09:14:27.383           280.912
                     162    10 Jun 2027 10:45:58.828    10 Jun 2027 10:50:50.166           291.338
                     163    10 Jun 2027 17:28:36.100    10 Jun 2027 17:31:43.308           187.209
                     164    10 Jun 2027 19:04:28.021    10 Jun 2027 19:10:06.165           338.144
                     165    10 Jun 2027 20:41:02.791    10 Jun 2027 20:47:16.313           373.521
                     166    10 Jun 2027 22:16:33.180    10 Jun 2027 22:23:29.670           416.490
                     167    10 Jun 2027 23:54:50.618    10 Jun 2027 23:54:54.258             3.640
                     168    10 Jun 2027 23:55:51.499    11 Jun 2027 00:00:58.455           306.955
                     169    11 Jun 2027 00:02:21.319    11 Jun 2027 00:03:48.453            87.135
                     170    11 Jun 2027 01:22:15.592    11 Jun 2027 01:22:16.976             1.384
                     171    11 Jun 2027 01:33:00.108    11 Jun 2027 01:33:39.239            39.131
                     172    11 Jun 2027 01:34:00.455    11 Jun 2027 01:36:33.456           153.001
                     173    11 Jun 2027 02:56:56.316    11 Jun 2027 02:59:39.283           162.968
                     174    11 Jun 2027 04:32:46.460    11 Jun 2027 04:36:55.086           248.625
                     175    11 Jun 2027 06:07:39.954    11 Jun 2027 06:14:53.459           433.504
                     176    11 Jun 2027 07:44:07.708    11 Jun 2027 07:50:32.099           384.391
                     177    11 Jun 2027 09:22:25.856    11 Jun 2027 09:26:20.262           234.406
                     178    11 Jun 2027 10:57:52.618    11 Jun 2027 11:01:53.819           241.201
                     179    11 Jun 2027 11:02:14.940    11 Jun 2027 11:03:14.013            59.072
                     180    11 Jun 2027 16:04:23.624    11 Jun 2027 16:06:12.531           108.907
                     181    11 Jun 2027 17:40:23.937    11 Jun 2027 17:43:44.347           200.409
                     182    11 Jun 2027 19:16:58.135    11 Jun 2027 19:22:11.926           313.791
                     183    11 Jun 2027 20:53:08.365    11 Jun 2027 20:59:55.809           407.445
                     184    11 Jun 2027 22:29:09.433    11 Jun 2027 22:35:44.594           395.161
                     185    12 Jun 2027 00:07:54.944    12 Jun 2027 00:13:25.492           330.547
                     186    12 Jun 2027 00:13:57.064    12 Jun 2027 00:15:33.173            96.109
                     187    12 Jun 2027 01:33:34.669    12 Jun 2027 01:34:41.368            66.698
                     188    12 Jun 2027 01:44:56.003    12 Jun 2027 01:46:36.580           100.577
                     189    12 Jun 2027 01:47:35.357    12 Jun 2027 01:47:58.732            23.375
                     190    12 Jun 2027 03:07:30.673    12 Jun 2027 03:08:34.939            64.266
                     191    12 Jun 2027 03:08:48.238    12 Jun 2027 03:12:13.233           204.995
                     192    12 Jun 2027 04:43:02.679    12 Jun 2027 04:43:53.275            50.595
                     193    12 Jun 2027 04:44:31.340    12 Jun 2027 04:49:10.037           278.697
                     194    12 Jun 2027 06:19:21.290    12 Jun 2027 06:26:54.276           452.986
                     195    12 Jun 2027 07:56:27.421    12 Jun 2027 08:02:47.525           380.104
                     196    12 Jun 2027 09:34:23.964    12 Jun 2027 09:38:21.762           237.798
                     197    12 Jun 2027 11:07:28.830    12 Jun 2027 11:13:49.184           380.354
                     198    12 Jun 2027 11:14:31.317    12 Jun 2027 11:15:30.649            59.332
                     199    12 Jun 2027 16:16:07.400    12 Jun 2027 16:18:52.490           165.090
                     200    12 Jun 2027 17:52:26.174    12 Jun 2027 17:55:52.650           206.477
                     201    12 Jun 2027 19:29:06.914    12 Jun 2027 19:35:19.459           372.544
                     202    12 Jun 2027 21:05:13.467    12 Jun 2027 21:11:53.448           399.981
                     203    12 Jun 2027 22:41:17.845    12 Jun 2027 22:47:29.640           371.795
                     204    13 Jun 2027 00:20:24.145    13 Jun 2027 00:27:32.481           428.335
                     205    13 Jun 2027 01:45:14.494    13 Jun 2027 01:46:49.913            95.418
                     206    13 Jun 2027 01:56:58.425    13 Jun 2027 01:58:00.096            61.671
                     207    13 Jun 2027 03:19:13.679    13 Jun 2027 03:20:19.493            65.814
                     208    13 Jun 2027 03:21:09.129    13 Jun 2027 03:24:26.616           197.487
                     209    13 Jun 2027 04:54:11.569    13 Jun 2027 04:56:06.362           114.793
                     210    13 Jun 2027 04:56:15.278    13 Jun 2027 05:01:32.615           317.338
                     211    13 Jun 2027 05:02:08.702    13 Jun 2027 05:02:33.443            24.741
                     212    13 Jun 2027 06:31:40.062    13 Jun 2027 06:38:58.263           438.201
                     213    13 Jun 2027 08:08:24.813    13 Jun 2027 08:14:57.310           392.496
                     214    13 Jun 2027 09:46:23.174    13 Jun 2027 09:50:33.934           250.760
                     215    13 Jun 2027 11:20:01.065    13 Jun 2027 11:27:25.205           444.140
                     216    13 Jun 2027 16:28:07.827    13 Jun 2027 16:30:51.686           163.860
                     217    13 Jun 2027 18:04:37.890    13 Jun 2027 18:08:00.275           202.385
                     218    13 Jun 2027 18:09:23.191    13 Jun 2027 18:12:05.086           161.895
                     219    13 Jun 2027 19:41:20.505    13 Jun 2027 19:47:19.780           359.275
                     220    13 Jun 2027 21:16:51.664    13 Jun 2027 21:17:09.092            17.429
                     221    13 Jun 2027 21:17:18.454    13 Jun 2027 21:24:16.402           417.948
                     222    13 Jun 2027 22:53:36.319    13 Jun 2027 22:54:06.916            30.597
                     223    13 Jun 2027 22:54:09.209    13 Jun 2027 22:54:47.143            37.934
                     224    13 Jun 2027 22:54:48.230    13 Jun 2027 22:55:48.380            60.150
                     225    13 Jun 2027 22:55:50.646    13 Jun 2027 22:59:38.896           228.250

Min Duration         170    11 Jun 2027 01:22:15.592    11 Jun 2027 01:22:16.976             1.384
Max Duration          91     6 Jun 2027 05:05:25.170     6 Jun 2027 05:13:27.862           482.693
Mean Duration                                                                              230.108
Total Duration                                                                           51774.405


Russia-To-KinoSat_110703
------------------------
                  Access        Start Time (UTCG)           Stop Time (UTCG)        Duration (sec)
                  ------    ------------------------    ------------------------    --------------
                       1     1 Jun 2027 00:59:10.043     1 Jun 2027 01:03:45.310           275.267
                       2     1 Jun 2027 02:22:31.753     1 Jun 2027 02:25:06.592           154.838
                       3     1 Jun 2027 03:58:53.809     1 Jun 2027 04:02:27.943           214.135
                       4     1 Jun 2027 05:31:10.876     1 Jun 2027 05:31:30.243            19.367
                       5     1 Jun 2027 05:32:57.859     1 Jun 2027 05:39:52.727           414.868
                       6     1 Jun 2027 05:39:54.843     1 Jun 2027 05:40:56.015            61.173
                       7     1 Jun 2027 07:10:02.246     1 Jun 2027 07:16:45.070           402.824
                       8     1 Jun 2027 08:46:58.597     1 Jun 2027 08:51:22.480           263.884
                       9     1 Jun 2027 08:51:22.963     1 Jun 2027 08:51:57.477            34.513
                      10     1 Jun 2027 10:23:45.176     1 Jun 2027 10:28:26.481           281.305
                      11     1 Jun 2027 12:01:57.019     1 Jun 2027 12:02:55.554            58.534
                      12     1 Jun 2027 17:06:34.673     1 Jun 2027 17:08:48.270           133.597
                      13     1 Jun 2027 17:10:11.105     1 Jun 2027 17:10:27.630            16.525
                      14     1 Jun 2027 18:42:31.276     1 Jun 2027 18:49:02.376           391.100
                      15     1 Jun 2027 20:19:13.137     1 Jun 2027 20:25:38.637           385.500
                      16     1 Jun 2027 21:54:46.725     1 Jun 2027 22:02:15.099           448.374
                      17     1 Jun 2027 23:33:10.105     1 Jun 2027 23:34:02.146            52.041
                      18     1 Jun 2027 23:34:07.875     1 Jun 2027 23:39:06.268           298.393
                      19     2 Jun 2027 01:11:32.252     2 Jun 2027 01:15:32.106           239.854
                      20     2 Jun 2027 02:34:35.162     2 Jun 2027 02:37:14.542           159.380
                      21     2 Jun 2027 04:11:04.313     2 Jun 2027 04:14:33.748           209.435
                      22     2 Jun 2027 05:46:09.177     2 Jun 2027 05:52:57.083           407.906
                      23     2 Jun 2027 07:22:30.761     2 Jun 2027 07:28:51.392           380.631
                      24     2 Jun 2027 09:00:01.515     2 Jun 2027 09:04:27.233           265.718
                      25     2 Jun 2027 10:36:06.074     2 Jun 2027 10:40:20.568           254.494
                      26     2 Jun 2027 17:18:39.412     2 Jun 2027 17:21:23.676           164.264
                      27     2 Jun 2027 18:54:34.952     2 Jun 2027 19:00:30.994           356.042
                      28     2 Jun 2027 20:31:17.306     2 Jun 2027 20:37:28.633           371.327
                      29     2 Jun 2027 22:06:48.116     2 Jun 2027 22:13:54.722           426.606
                      30     2 Jun 2027 23:44:56.051     2 Jun 2027 23:45:56.097            60.046
                      31     2 Jun 2027 23:46:03.642     2 Jun 2027 23:51:06.796           303.154
                      32     3 Jun 2027 01:23:13.139     3 Jun 2027 01:23:48.185            35.047
                      33     3 Jun 2027 01:24:01.639     3 Jun 2027 01:26:58.502           176.862
                      34     3 Jun 2027 02:46:31.261     3 Jun 2027 02:49:46.998           195.737
                      35     3 Jun 2027 04:23:09.075     3 Jun 2027 04:26:34.406           205.331
                      36     3 Jun 2027 05:58:19.217     3 Jun 2027 06:04:55.637           396.420
                      37     3 Jun 2027 07:34:35.320     3 Jun 2027 07:40:23.885           348.565
                      38     3 Jun 2027 07:40:32.542     3 Jun 2027 07:40:41.449             8.907
                      39     3 Jun 2027 09:12:07.024     3 Jun 2027 09:16:38.708           271.684
                      40     3 Jun 2027 10:48:08.259     3 Jun 2027 10:52:20.409           252.150
                      41     3 Jun 2027 10:52:24.568     3 Jun 2027 10:53:08.073            43.505
                      42     3 Jun 2027 15:55:10.571     3 Jun 2027 15:55:26.244            15.673
                      43     3 Jun 2027 17:30:47.396     3 Jun 2027 17:33:44.138           176.742
                      44     3 Jun 2027 19:06:39.078     3 Jun 2027 19:12:15.233           336.154
                      45     3 Jun 2027 20:43:14.459     3 Jun 2027 20:49:26.582           372.123
                      46     3 Jun 2027 22:18:45.328     3 Jun 2027 22:25:39.085           413.757
                      47     3 Jun 2027 23:58:02.377     4 Jun 2027 00:03:14.328           311.951
                      48     4 Jun 2027 00:04:22.847     4 Jun 2027 00:05:54.565            91.718
                      49     4 Jun 2027 01:24:19.518     4 Jun 2027 01:24:35.864            16.346
                      50     4 Jun 2027 01:35:09.551     4 Jun 2027 01:35:50.643            41.092
                      51     4 Jun 2027 01:35:59.129     4 Jun 2027 01:38:44.333           165.204
                      52     4 Jun 2027 02:59:07.167     4 Jun 2027 03:01:50.954           163.787
                      53     4 Jun 2027 04:34:52.615     4 Jun 2027 04:39:06.496           253.881
                      54     4 Jun 2027 06:09:44.037     4 Jun 2027 06:17:05.872           441.835
                      55     4 Jun 2027 07:46:19.556     4 Jun 2027 07:52:43.294           383.737
                      56     4 Jun 2027 09:24:37.144     4 Jun 2027 09:28:31.899           234.755
                      57     4 Jun 2027 10:58:37.022     4 Jun 2027 10:59:24.095            47.072
                      58     4 Jun 2027 10:59:57.051     4 Jun 2027 11:04:08.329           251.278
                      59     4 Jun 2027 11:04:28.258     4 Jun 2027 11:05:26.849            58.591
                      60     4 Jun 2027 16:06:27.114     4 Jun 2027 16:08:27.139           120.025
                      61     4 Jun 2027 17:42:34.396     4 Jun 2027 17:45:55.612           201.216
                      62     4 Jun 2027 19:19:09.367     4 Jun 2027 19:24:52.050           342.683
                      63     4 Jun 2027 20:55:20.110     4 Jun 2027 21:02:08.349           408.238
                      64     4 Jun 2027 22:31:24.583     4 Jun 2027 22:37:50.299           385.716
                      65     5 Jun 2027 00:10:06.348     5 Jun 2027 00:17:45.869           459.522
                      66     5 Jun 2027 01:35:36.522     5 Jun 2027 01:36:53.225            76.703
                      67     5 Jun 2027 01:47:06.458     5 Jun 2027 01:48:46.091            99.634
                      68     5 Jun 2027 03:09:45.769     5 Jun 2027 03:10:44.722            58.953
                      69     5 Jun 2027 03:11:21.370     5 Jun 2027 03:14:25.526           184.156
                      70     5 Jun 2027 04:45:06.294     5 Jun 2027 04:46:04.375            58.081
                      71     5 Jun 2027 04:46:37.701     5 Jun 2027 04:51:23.887           286.186
                      72     5 Jun 2027 06:21:35.534     5 Jun 2027 06:29:06.230           450.696
                      73     5 Jun 2027 07:58:40.654     5 Jun 2027 08:04:30.929           350.275
                      74     5 Jun 2027 08:04:32.640     5 Jun 2027 08:04:52.032            19.392
                      75     5 Jun 2027 09:36:34.798     5 Jun 2027 09:40:34.422           239.624
                      76     5 Jun 2027 11:09:42.899     5 Jun 2027 11:16:07.582           384.684
                      77     5 Jun 2027 11:16:28.090     5 Jun 2027 11:17:38.625            70.535
                      78     5 Jun 2027 16:18:18.415     5 Jun 2027 16:21:02.486           164.071
                      79     5 Jun 2027 17:54:38.448     5 Jun 2027 17:58:02.230           203.782
                      80     5 Jun 2027 18:00:40.391     5 Jun 2027 18:01:06.775            26.384
                      81     5 Jun 2027 19:31:16.035     5 Jun 2027 19:37:27.775           371.740
                      82     5 Jun 2027 21:07:23.454     5 Jun 2027 21:14:03.865           400.411
                      83     5 Jun 2027 22:43:30.151     5 Jun 2027 22:49:38.485           368.335
                      84     6 Jun 2027 00:22:36.283     6 Jun 2027 00:29:43.283           427.000
                      85     6 Jun 2027 01:46:53.203     6 Jun 2027 01:49:03.099           129.896
                      86     6 Jun 2027 01:59:06.448     6 Jun 2027 02:00:07.328            60.880
                      87     6 Jun 2027 03:21:21.629     6 Jun 2027 03:22:28.222            66.593
                      88     6 Jun 2027 03:23:17.123     6 Jun 2027 03:26:39.370           202.248
                      89     6 Jun 2027 04:56:15.621     6 Jun 2027 04:58:18.165           122.545
                      90     6 Jun 2027 04:58:24.620     6 Jun 2027 05:03:37.295           312.675
                      91     6 Jun 2027 05:04:16.921     6 Jun 2027 05:04:44.668            27.748
                      92     6 Jun 2027 06:33:49.104     6 Jun 2027 06:41:09.653           440.549
                      93     6 Jun 2027 08:10:31.566     6 Jun 2027 08:16:44.961           373.395
                      94     6 Jun 2027 08:16:49.150     6 Jun 2027 08:17:09.400            20.250
                      95     6 Jun 2027 09:48:34.684     6 Jun 2027 09:52:44.170           249.486
                      96     6 Jun 2027 11:22:11.806     6 Jun 2027 11:29:35.407           443.601
                      97     6 Jun 2027 16:30:18.877     6 Jun 2027 16:33:07.702           168.825
                      98     6 Jun 2027 18:06:50.699     6 Jun 2027 18:10:21.354           210.656
                      99     6 Jun 2027 18:11:32.959     6 Jun 2027 18:14:30.163           177.204
                     100     6 Jun 2027 19:43:29.688     6 Jun 2027 19:49:36.975           367.287
                     101     6 Jun 2027 21:18:58.728     6 Jun 2027 21:19:23.720            24.992
                     102     6 Jun 2027 21:19:29.957     6 Jun 2027 21:26:32.381           422.425
                     103     6 Jun 2027 22:55:50.720     6 Jun 2027 22:56:17.402            26.682
                     104     6 Jun 2027 22:56:22.376     6 Jun 2027 22:56:56.977            34.601
                     105     6 Jun 2027 22:57:00.787     6 Jun 2027 22:57:55.168            54.381
                     106     6 Jun 2027 22:57:56.717     6 Jun 2027 23:01:52.697           235.980
                     107     7 Jun 2027 00:34:38.044     7 Jun 2027 00:41:35.335           417.291
                     108     7 Jun 2027 01:58:58.810     7 Jun 2027 02:00:52.104           113.295
                     109     7 Jun 2027 02:11:14.471     7 Jun 2027 02:11:41.790            27.319
                     110     7 Jun 2027 03:32:50.957     7 Jun 2027 03:34:14.035            83.077
                     111     7 Jun 2027 03:34:50.725     7 Jun 2027 03:38:51.339           240.614
                     112     7 Jun 2027 05:07:46.223     7 Jun 2027 05:15:53.651           487.428
                     113     7 Jun 2027 05:16:13.988     7 Jun 2027 05:17:12.011            58.023
                     114     7 Jun 2027 06:45:43.024     7 Jun 2027 06:53:11.077           448.052
                     115     7 Jun 2027 08:22:35.609     7 Jun 2027 08:27:59.747           324.139
                     116     7 Jun 2027 08:28:18.503     7 Jun 2027 08:29:09.209            50.706
                     117     7 Jun 2027 10:00:21.120     7 Jun 2027 10:04:42.706           261.586
                     118     7 Jun 2027 11:36:20.647     7 Jun 2027 11:40:17.044           236.397
                     119     7 Jun 2027 16:42:26.337     7 Jun 2027 16:45:21.227           174.890
                     120     7 Jun 2027 16:45:50.605     7 Jun 2027 16:46:50.742            60.137
                     121     7 Jun 2027 18:18:47.696     7 Jun 2027 18:23:16.536           268.840
                     122     7 Jun 2027 18:23:34.530     7 Jun 2027 18:25:22.939           108.409
                     123     7 Jun 2027 19:55:21.661     7 Jun 2027 20:01:56.346           394.684
                     124     7 Jun 2027 21:30:54.166     7 Jun 2027 21:38:39.404           465.239
                     125     7 Jun 2027 23:08:33.203     7 Jun 2027 23:08:49.334            16.131
                     126     7 Jun 2027 23:08:57.456     7 Jun 2027 23:09:58.430            60.974
                     127     7 Jun 2027 23:10:40.282     7 Jun 2027 23:14:10.239           209.957
                     128     8 Jun 2027 00:47:03.458     8 Jun 2027 00:52:07.645           304.187
                     129     8 Jun 2027 02:10:54.622     8 Jun 2027 02:13:10.516           135.894
                     130     8 Jun 2027 03:46:54.319     8 Jun 2027 03:50:41.702           227.383
                     131     8 Jun 2027 05:20:40.069     8 Jun 2027 05:29:13.277           513.209
                     132     8 Jun 2027 06:58:03.448     8 Jun 2027 07:05:04.598           421.149
                     133     8 Jun 2027 08:35:07.674     8 Jun 2027 08:39:36.813           269.139
                     134     8 Jun 2027 08:39:44.487     8 Jun 2027 08:40:57.863            73.376
                     135     8 Jun 2027 10:11:52.100     8 Jun 2027 10:16:40.677           288.576
                     136     8 Jun 2027 11:47:08.085     8 Jun 2027 11:47:16.896             8.811
                     137     8 Jun 2027 11:48:49.071     8 Jun 2027 11:51:40.715           171.644
                     138     8 Jun 2027 16:54:47.279     8 Jun 2027 16:57:08.443           141.164
                     139     8 Jun 2027 16:57:31.560     8 Jun 2027 16:59:49.958           138.398
