DATA_Files/Russia2Constellation/AreaTarget-Russia-To-Satellite-KinoSat_16_plane.txt

                                                                                                                                                                                                                                                                                           10 May 2023 22:35:29
Civil Air Patrol Use Only
AreaTarget-Russia-To-Satellite-KinoSat_111601, Satellite-KinoSat_111602, Satellite-KinoSat_111603, Satellite-KinoSat_111604, Satellite-KinoSat_111605, Satellite-KinoSat_111606, Satellite-KinoSat_111607, Satellite-KinoSat_111608, Satellite-KinoSat_111609, Satellite-KinoSat_111610:  Access Summary Report


Russia-To-KinoSat_111601
------------------------
                  Access        Start Time (UTCG)           Stop Time (UTCG)        Duration (sec)
                  ------    ------------------------    ------------------------    --------------
                       1     1 Jun 2027 00:39:05.597     1 Jun 2027 00:45:20.466           374.868
                       2     1 Jun 2027 02:14:36.228     1 Jun 2027 02:21:34.757           418.529
                       3     1 Jun 2027 03:52:52.791     1 Jun 2027 03:53:02.871            10.080
                       4     1 Jun 2027 03:53:54.487     1 Jun 2027 03:59:02.109           307.622
                       5     1 Jun 2027 04:00:28.436     1 Jun 2027 04:00:42.269            13.833
                       6     1 Jun 2027 05:31:03.119     1 Jun 2027 05:31:41.905            38.787
                       7     1 Jun 2027 05:32:07.521     1 Jun 2027 05:34:39.960           152.439
                       8     1 Jun 2027 06:55:08.918     1 Jun 2027 06:57:41.430           152.512
                       9     1 Jun 2027 08:30:54.341     1 Jun 2027 08:34:34.684           220.343
                      10     1 Jun 2027 10:05:51.828     1 Jun 2027 10:12:54.249           422.421
                      11     1 Jun 2027 11:42:05.450     1 Jun 2027 11:48:31.731           386.281
                      12     1 Jun 2027 13:20:06.131     1 Jun 2027 13:24:16.699           250.568
                      13     1 Jun 2027 14:55:45.074     1 Jun 2027 15:00:09.287           264.213
                      14     1 Jun 2027 15:00:16.416     1 Jun 2027 15:01:13.215            56.799
                      15     1 Jun 2027 20:02:31.425     1 Jun 2027 20:04:11.535           100.110
                      16     1 Jun 2027 21:38:27.492     1 Jun 2027 21:41:37.888           190.396
                      17     1 Jun 2027 23:15:01.345     1 Jun 2027 23:20:12.368           311.023
                      18     2 Jun 2027 00:51:11.396     2 Jun 2027 00:57:59.111           407.715
                      19     2 Jun 2027 02:27:12.480     2 Jun 2027 02:33:47.227           394.748
                      20     2 Jun 2027 04:05:58.104     2 Jun 2027 04:11:33.438           335.334
                      21     2 Jun 2027 04:12:06.294     2 Jun 2027 04:13:37.364            91.070
                      22     2 Jun 2027 05:31:53.759     2 Jun 2027 05:32:37.052            43.293
                      23     2 Jun 2027 05:42:59.600     2 Jun 2027 05:44:40.929           101.329
                      24     2 Jun 2027 05:45:03.781     2 Jun 2027 05:46:17.663            73.882
                      25     2 Jun 2027 07:05:56.923     2 Jun 2027 07:10:11.102           254.179
                      26     2 Jun 2027 08:41:16.553     2 Jun 2027 08:41:42.154            25.601
                      27     2 Jun 2027 08:42:39.522     2 Jun 2027 08:47:08.011           268.489
                      28     2 Jun 2027 10:17:24.910     2 Jun 2027 10:25:00.211           455.301
                      29     2 Jun 2027 11:54:27.401     2 Jun 2027 12:00:34.442           367.042
                      30     2 Jun 2027 13:32:27.068     2 Jun 2027 13:36:24.308           237.240
                      31     2 Jun 2027 15:05:37.773     2 Jun 2027 15:11:50.636           372.863
                      32     2 Jun 2027 15:11:55.295     2 Jun 2027 15:13:34.181            98.885
                      33     2 Jun 2027 20:14:11.027     2 Jun 2027 20:16:44.429           153.402
                      34     2 Jun 2027 21:50:29.125     2 Jun 2027 21:53:56.146           207.021
                      35     2 Jun 2027 23:27:10.664     2 Jun 2027 23:33:23.250           372.586
                      36     3 Jun 2027 01:03:17.213     3 Jun 2027 01:09:55.884           398.671
                      37     3 Jun 2027 02:39:21.237     3 Jun 2027 02:45:44.247           383.010
                      38     3 Jun 2027 04:18:27.972     3 Jun 2027 04:25:34.984           427.012
                      39     3 Jun 2027 05:43:19.437     3 Jun 2027 05:44:50.036            90.599
                      40     3 Jun 2027 05:55:02.714     3 Jun 2027 05:56:15.958            73.244
                      41     3 Jun 2027 07:17:15.015     3 Jun 2027 07:18:27.634            72.618
                      42     3 Jun 2027 07:19:16.859     3 Jun 2027 07:22:25.010           188.151
                      43     3 Jun 2027 08:52:21.105     3 Jun 2027 08:53:50.776            89.670
                      44     3 Jun 2027 08:54:23.418     3 Jun 2027 08:59:21.815           298.397
                      45     3 Jun 2027 09:00:20.221     3 Jun 2027 09:00:24.294             4.072
                      46     3 Jun 2027 10:29:37.122     3 Jun 2027 10:37:01.050           443.928
                      47     3 Jun 2027 12:06:30.783     3 Jun 2027 12:12:41.081           370.299
                      48     3 Jun 2027 13:44:27.116     3 Jun 2027 13:48:26.843           239.727
                      49     3 Jun 2027 15:18:02.740     3 Jun 2027 15:25:31.976           449.237
                      50     3 Jun 2027 20:26:12.230     3 Jun 2027 20:28:52.391           160.160
                      51     3 Jun 2027 22:02:40.551     3 Jun 2027 22:06:01.218           200.666
                      52     3 Jun 2027 22:07:30.803     3 Jun 2027 22:09:54.972           144.169
                      53     3 Jun 2027 23:39:25.185     3 Jun 2027 23:45:21.199           356.014
                      54     4 Jun 2027 01:14:55.443     4 Jun 2027 01:15:12.429            16.986
                      55     4 Jun 2027 01:15:22.129     4 Jun 2027 01:22:11.418           409.288
                      56     4 Jun 2027 02:51:39.943     4 Jun 2027 02:52:10.903            30.960
                      57     4 Jun 2027 02:52:12.499     4 Jun 2027 02:57:40.102           327.603
                      58     4 Jun 2027 04:30:36.516     4 Jun 2027 04:37:35.816           419.300
                      59     4 Jun 2027 05:54:48.257     4 Jun 2027 05:57:02.538           134.281
                      60     4 Jun 2027 06:07:03.539     4 Jun 2027 06:07:35.327            31.788
                      61     4 Jun 2027 07:29:00.543     4 Jun 2027 07:30:21.137            80.594
                      62     4 Jun 2027 07:31:03.255     4 Jun 2027 07:34:37.091           213.835
                      63     4 Jun 2027 09:03:50.179     4 Jun 2027 09:11:43.329           473.150
                      64     4 Jun 2027 09:12:08.373     4 Jun 2027 09:12:41.519            33.147
                      65     4 Jun 2027 10:41:37.277     4 Jun 2027 10:49:03.268           445.992
                      66     4 Jun 2027 12:18:22.321     4 Jun 2027 12:24:18.597           356.276
                      67     4 Jun 2027 12:24:26.621     4 Jun 2027 12:25:07.647            41.026
                      68     4 Jun 2027 13:56:28.052     4 Jun 2027 14:00:36.683           248.632
                      69     4 Jun 2027 15:30:19.484     4 Jun 2027 15:36:59.802           400.318
                      70     4 Jun 2027 20:38:17.625     4 Jun 2027 20:41:12.933           175.308
                      71     4 Jun 2027 22:14:40.947     4 Jun 2027 22:18:48.661           247.714
                      72     4 Jun 2027 22:19:31.008     4 Jun 2027 22:22:45.370           194.362
                      73     4 Jun 2027 23:51:16.143     4 Jun 2027 23:57:45.439           389.296
                      74     5 Jun 2027 01:26:46.952     5 Jun 2027 01:34:33.887           466.935
                      75     5 Jun 2027 03:04:24.704     5 Jun 2027 03:06:06.044           101.340
                      76     5 Jun 2027 03:06:25.854     5 Jun 2027 03:09:57.958           212.104
                      77     5 Jun 2027 04:42:47.437     5 Jun 2027 04:48:01.124           313.687
                      78     5 Jun 2027 06:06:49.974     5 Jun 2027 06:08:54.746           124.771
                      79     5 Jun 2027 07:42:47.915     5 Jun 2027 07:46:41.773           233.858
                      80     5 Jun 2027 09:16:36.993     5 Jun 2027 09:23:57.061           440.068
                      81     5 Jun 2027 09:24:06.776     5 Jun 2027 09:25:07.280            60.505
                      82     5 Jun 2027 10:53:42.659     5 Jun 2027 11:01:01.265           438.605
                      83     5 Jun 2027 12:30:44.673     5 Jun 2027 12:35:37.782           293.109
                      84     5 Jun 2027 12:35:46.565     5 Jun 2027 12:36:55.798            69.233
                      85     5 Jun 2027 14:07:42.371     5 Jun 2027 14:12:34.657           292.287
                      86     5 Jun 2027 15:42:46.468     5 Jun 2027 15:43:16.932            30.464
                      87     5 Jun 2027 15:44:24.317     5 Jun 2027 15:47:41.577           197.260
                      88     5 Jun 2027 20:50:22.795     5 Jun 2027 20:52:35.328           132.533
                      89     5 Jun 2027 20:53:07.171     5 Jun 2027 20:55:44.510           157.339
                      90     5 Jun 2027 22:26:34.832     5 Jun 2027 22:33:31.694           416.863
                      91     6 Jun 2027 00:03:19.982     6 Jun 2027 00:09:49.807           389.825
                      92     6 Jun 2027 01:38:46.791     6 Jun 2027 01:46:26.486           459.695
                      93     6 Jun 2027 03:17:02.181     6 Jun 2027 03:17:46.558            44.376
                      94     6 Jun 2027 03:17:55.354     6 Jun 2027 03:18:38.689            43.335
                      95     6 Jun 2027 03:18:40.520     6 Jun 2027 03:23:07.409           266.889
                      96     6 Jun 2027 04:55:22.342     6 Jun 2027 05:00:00.246           277.904
                      97     6 Jun 2027 06:18:44.376     6 Jun 2027 06:21:09.791           145.415
                      98     6 Jun 2027 07:55:07.289     6 Jun 2027 07:58:33.767           206.478
                      99     6 Jun 2027 09:28:35.365     6 Jun 2027 09:37:06.795           511.430
                     100     6 Jun 2027 11:06:09.297     6 Jun 2027 11:12:51.633           402.336
                     101     6 Jun 2027 12:43:02.985     6 Jun 2027 12:47:26.071           263.086
                     102     6 Jun 2027 12:47:30.898     6 Jun 2027 12:48:49.595            78.697
                     103     6 Jun 2027 14:19:54.853     6 Jun 2027 14:24:25.832           270.979
                     104     6 Jun 2027 15:57:35.856     6 Jun 2027 15:59:14.760            98.905
                     105     6 Jun 2027 21:02:39.570     6 Jun 2027 21:04:57.886           138.316
                     106     6 Jun 2027 21:05:57.330     6 Jun 2027 21:07:00.855            63.524
                     107     6 Jun 2027 22:38:39.617     6 Jun 2027 22:45:11.253           391.636
                     108     7 Jun 2027 00:15:21.067     7 Jun 2027 00:21:42.596           381.529
                     109     7 Jun 2027 01:50:54.363     7 Jun 2027 01:58:26.325           451.963
                     110     7 Jun 2027 03:28:55.863     7 Jun 2027 03:29:01.417             5.554
                     111     7 Jun 2027 03:29:21.181     7 Jun 2027 03:35:12.208           351.028
                     112     7 Jun 2027 05:07:00.289     7 Jun 2027 05:11:36.782           276.493
                     113     7 Jun 2027 06:30:33.372     7 Jun 2027 06:33:18.772           165.399
                     114     7 Jun 2027 08:07:08.897     7 Jun 2027 08:10:41.334           212.437
                     115     7 Jun 2027 09:42:02.705     7 Jun 2027 09:48:01.022           358.317
                     116     7 Jun 2027 09:48:03.786     7 Jun 2027 09:49:01.525            57.739
                     117     7 Jun 2027 11:18:15.910     7 Jun 2027 11:24:56.410           400.500
                     118     7 Jun 2027 12:55:58.815     7 Jun 2027 13:00:23.977           265.161
                     119     7 Jun 2027 14:32:03.152     7 Jun 2027 14:36:42.923           279.771
                     120     7 Jun 2027 21:14:45.694     7 Jun 2027 21:17:16.932           151.238
                     121     7 Jun 2027 22:50:42.492     7 Jun 2027 22:56:52.979           370.487
                     122     8 Jun 2027 00:27:25.115     8 Jun 2027 00:33:50.503           385.388
                     123     8 Jun 2027 02:02:55.902     8 Jun 2027 02:10:12.870           436.968
                     124     8 Jun 2027 03:41:04.685     8 Jun 2027 03:42:06.466            61.781
                     125     8 Jun 2027 03:42:13.810     8 Jun 2027 03:47:20.348           306.538
                     126     8 Jun 2027 05:19:23.201     8 Jun 2027 05:19:54.265            31.064
                     127     8 Jun 2027 05:20:12.770     8 Jun 2027 05:23:15.159           182.389
                     128     8 Jun 2027 06:42:45.876     8 Jun 2027 06:45:52.563           186.688
                     129     8 Jun 2027 08:19:17.787     8 Jun 2027 08:22:51.134           213.347
                     130     8 Jun 2027 09:54:27.365     8 Jun 2027 10:01:03.798           396.433
                     131     8 Jun 2027 11:30:52.298     8 Jun 2027 11:37:02.707           370.409
                     132     8 Jun 2027 13:08:05.504     8 Jun 2027 13:12:43.070           277.567
                     133     8 Jun 2027 14:44:22.221     8 Jun 2027 14:49:04.125           281.904
                     134     8 Jun 2027 21:26:55.936     8 Jun 2027 21:30:02.064           186.129
                     135     8 Jun 2027 23:02:47.859     8 Jun 2027 23:08:26.183           338.323
                     136     9 Jun 2027 00:39:22.590     9 Jun 2027 00:45:37.719           375.129
                     137     9 Jun 2027 02:14:53.770     9 Jun 2027 02:21:51.044           417.274
                     138     9 Jun 2027 03:53:10.402     9 Jun 2027 03:53:17.428             7.026
                     139     9 Jun 2027 03:54:11.367     9 Jun 2027 03:59:19.386           308.020
                     140     9 Jun 2027 04:00:44.875     9 Jun 2027 04:01:04.366            19.490
                     141     9 Jun 2027 05:31:20.117     9 Jun 2027 05:31:59.088            38.971
                     142     9 Jun 2027 05:32:21.849     9 Jun 2027 05:34:55.438           153.589
                     143     9 Jun 2027 06:55:22.010     9 Jun 2027 06:57:58.601           156.591
                     144     9 Jun 2027 08:31:10.760     9 Jun 2027 08:35:11.163           240.403
                     145     9 Jun 2027 10:06:07.577     9 Jun 2027 10:13:11.579           424.002
                     146     9 Jun 2027 11:42:25.336     9 Jun 2027 11:48:49.638           384.302
                     147     9 Jun 2027 13:20:41.766     9 Jun 2027 13:24:33.106           231.340
                     148     9 Jun 2027 14:56:01.398     9 Jun 2027 15:00:11.294           249.896
                     149     9 Jun 2027 15:00:19.955     9 Jun 2027 15:01:31.312            71.356
                     150     9 Jun 2027 20:02:45.588     9 Jun 2027 20:04:29.741           104.153
                     151     9 Jun 2027 21:38:44.111     9 Jun 2027 21:42:00.324           196.213
                     152     9 Jun 2027 23:15:18.172     9 Jun 2027 23:20:29.905           311.732
                     153    10 Jun 2027 00:51:28.478    10 Jun 2027 00:58:15.267           406.789
                     154    10 Jun 2027 02:27:30.869    10 Jun 2027 02:34:06.525           395.656
                     155    10 Jun 2027 04:06:15.101    10 Jun 2027 04:11:47.887           332.786
                     156    10 Jun 2027 04:12:17.692    10 Jun 2027 04:13:52.906            95.214
                     157    10 Jun 2027 05:32:07.585    10 Jun 2027 05:32:54.679            47.094
                     158    10 Jun 2027 05:43:16.363    10 Jun 2027 05:44:57.272           100.909
                     159    10 Jun 2027 05:45:25.619    10 Jun 2027 05:46:24.692            59.073
                     160    10 Jun 2027 07:06:13.400    10 Jun 2027 07:10:29.487           256.087
                     161    10 Jun 2027 08:41:29.757    10 Jun 2027 08:42:02.713            32.957
                     162    10 Jun 2027 08:42:55.059    10 Jun 2027 08:47:26.871           271.812
                     163    10 Jun 2027 10:17:40.774    10 Jun 2027 10:25:17.038           456.264
                     164    10 Jun 2027 11:54:44.980    10 Jun 2027 12:00:52.002           367.023
                     165    10 Jun 2027 13:32:44.154    10 Jun 2027 13:36:40.672           236.518
                     166    10 Jun 2027 15:05:53.323    10 Jun 2027 15:12:28.234           394.910
                     167    10 Jun 2027 15:12:46.580    10 Jun 2027 15:13:50.116            63.535
                     168    10 Jun 2027 20:14:27.792    10 Jun 2027 20:17:02.570           154.779
                     169    10 Jun 2027 21:50:46.429    10 Jun 2027 21:54:13.899           207.469
                     170    10 Jun 2027 23:27:27.309    10 Jun 2027 23:33:40.471           373.162
                     171    11 Jun 2027 01:03:33.706    11 Jun 2027 01:10:12.997           399.290
                     172    11 Jun 2027 02:39:38.420    11 Jun 2027 02:45:52.793           374.372
                     173    11 Jun 2027 04:18:44.723    11 Jun 2027 04:25:51.393           426.671
                     174    11 Jun 2027 05:43:36.630    11 Jun 2027 05:45:07.507            90.877
                     175    11 Jun 2027 05:55:19.027    11 Jun 2027 05:56:21.798            62.771
                     176    11 Jun 2027 07:17:32.373    11 Jun 2027 07:18:43.531            71.157
                     177    11 Jun 2027 07:19:33.214    11 Jun 2027 07:22:43.306           190.091
                     178    11 Jun 2027 08:52:36.694    11 Jun 2027 08:54:20.025           103.331
                     179    11 Jun 2027 08:54:39.864    11 Jun 2027 08:59:39.966           300.102
                     180    11 Jun 2027 09:00:36.121    11 Jun 2027 09:00:46.270            10.149
                     181    11 Jun 2027 10:29:58.051    11 Jun 2027 10:37:18.084           440.033
                     182    11 Jun 2027 12:06:47.032    11 Jun 2027 12:12:58.001           370.970
                     183    11 Jun 2027 13:44:43.920    11 Jun 2027 13:48:42.781           238.861
                     184    11 Jun 2027 15:18:21.102    11 Jun 2027 15:25:48.991           447.890
                     185    11 Jun 2027 20:26:28.614    11 Jun 2027 20:29:10.752           162.138
                     186    11 Jun 2027 22:02:58.448    11 Jun 2027 22:06:19.613           201.165
                     187    11 Jun 2027 22:07:44.400    11 Jun 2027 22:10:17.273           152.873
                     188    11 Jun 2027 23:39:41.207    11 Jun 2027 23:45:38.603           357.397
                     189    12 Jun 2027 01:15:11.772    12 Jun 2027 01:15:29.968            18.196
                     190    12 Jun 2027 01:15:39.157    12 Jun 2027 01:22:31.294           412.136
                     191    12 Jun 2027 02:51:57.466    12 Jun 2027 02:54:09.742           132.277
                     192    12 Jun 2027 02:54:10.716    12 Jun 2027 02:57:57.872           227.157
                     193    12 Jun 2027 04:30:45.503    12 Jun 2027 04:37:51.353           425.851
                     194    12 Jun 2027 05:55:06.752    12 Jun 2027 05:57:20.165           133.412
                     195    12 Jun 2027 06:07:20.664    12 Jun 2027 06:07:52.248            31.584
                     196    12 Jun 2027 07:29:16.804    12 Jun 2027 07:30:32.484            75.681
                     197    12 Jun 2027 07:31:19.573    12 Jun 2027 07:34:54.682           215.109
                     198    12 Jun 2027 09:04:04.935    12 Jun 2027 09:12:00.653           475.718
                     199    12 Jun 2027 09:12:25.079    12 Jun 2027 09:12:58.868            33.789
                     200    12 Jun 2027 10:41:53.898    12 Jun 2027 10:49:20.118           446.221
                     201    12 Jun 2027 12:18:38.293    12 Jun 2027 12:24:34.868           356.574
                     202    12 Jun 2027 12:24:42.232    12 Jun 2027 12:25:24.754            42.522
                     203    12 Jun 2027 13:56:45.844    12 Jun 2027 14:00:53.821           247.978
                     204    12 Jun 2027 15:30:37.154    12 Jun 2027 15:37:15.612           398.458
                     205    12 Jun 2027 20:38:34.486    12 Jun 2027 20:41:27.391           172.905
                     206    12 Jun 2027 22:14:58.140    12 Jun 2027 22:19:10.400           252.260
                     207    12 Jun 2027 22:19:48.270    12 Jun 2027 22:23:01.817           193.547
                     208    12 Jun 2027 23:51:32.820    12 Jun 2027 23:58:04.602           391.781
                     209    13 Jun 2027 01:27:04.190    13 Jun 2027 01:34:49.415           465.225
                     210    13 Jun 2027 03:04:42.005    13 Jun 2027 03:06:21.532            99.528
                     211    13 Jun 2027 03:06:43.952    13 Jun 2027 03:10:16.216           212.264
                     212    13 Jun 2027 04:43:06.364    13 Jun 2027 04:48:17.469           311.106
                     213    13 Jun 2027 06:07:06.145    13 Jun 2027 06:09:22.104           135.959
                     214    13 Jun 2027 07:43:03.029    13 Jun 2027 07:46:59.180           236.151
                     215    13 Jun 2027 09:16:53.703    13 Jun 2027 09:24:14.046           440.343
                     216    13 Jun 2027 09:24:24.250    13 Jun 2027 09:25:24.146            59.896
                     217    13 Jun 2027 10:54:00.568    13 Jun 2027 11:01:17.507           436.939
                     218    13 Jun 2027 12:31:03.220    13 Jun 2027 12:35:53.901           290.681
                     219    13 Jun 2027 12:36:00.655    13 Jun 2027 12:37:11.514            70.859
                     220    13 Jun 2027 14:08:00.620    13 Jun 2027 14:12:51.477           290.857
                     221    13 Jun 2027 15:43:04.284    13 Jun 2027 15:43:30.485            26.201
                     222    13 Jun 2027 15:44:43.522    13 Jun 2027 15:47:57.390           193.867
                     223    13 Jun 2027 20:50:46.697    13 Jun 2027 20:53:08.479           141.781
                     224    13 Jun 2027 20:53:25.773    13 Jun 2027 20:56:04.274           158.501
                     225    13 Jun 2027 22:26:51.821    13 Jun 2027 22:33:48.746           416.925

Min Duration          45     3 Jun 2027 09:00:20.221     3 Jun 2027 09:00:24.294             4.072
Max Duration          99     6 Jun 2027 09:28:35.365     6 Jun 2027 09:37:06.795           511.430
Mean Duration                                                                              237.416
Total Duration                                                                           53418.536


Russia-To-KinoSat_111602
------------------------
                  Access        Start Time (UTCG)           Stop Time (UTCG)        Duration (sec)
                  ------    ------------------------    ------------------------    --------------
                       1     1 Jun 2027 00:29:34.651     1 Jun 2027 00:35:56.292           381.641
                       2     1 Jun 2027 02:05:05.746     1 Jun 2027 02:12:17.324           431.579
                       3     1 Jun 2027 03:43:13.705     1 Jun 2027 03:44:15.390            61.685
                       4     1 Jun 2027 03:44:22.091     1 Jun 2027 03:49:25.897           303.806
                       5     1 Jun 2027 05:21:31.599     1 Jun 2027 05:22:05.075            33.476
                       6     1 Jun 2027 05:22:20.142     1 Jun 2027 05:25:20.786           180.644
                       7     1 Jun 2027 06:44:53.998     1 Jun 2027 06:48:02.628           188.630
                       8     1 Jun 2027 08:21:26.752     1 Jun 2027 08:24:58.191           211.438
                       9     1 Jun 2027 09:56:37.240     1 Jun 2027 10:03:13.231           395.990
                      10     1 Jun 2027 11:32:58.787     1 Jun 2027 11:39:09.572           370.786
                      11     1 Jun 2027 13:10:17.091     1 Jun 2027 13:14:53.613           276.522
                      12     1 Jun 2027 14:46:29.513     1 Jun 2027 14:51:13.809           284.297
                      13     1 Jun 2027 19:53:34.329     1 Jun 2027 19:53:39.207             4.878
                      14     1 Jun 2027 21:29:05.088     1 Jun 2027 21:32:12.356           187.268
                      15     1 Jun 2027 23:04:56.716     1 Jun 2027 23:10:34.835           338.120
                      16     2 Jun 2027 00:41:32.024     2 Jun 2027 00:47:45.180           373.155
                      17     2 Jun 2027 02:17:03.139     2 Jun 2027 02:23:57.249           414.109
                      18     2 Jun 2027 03:56:20.334     2 Jun 2027 04:01:25.853           305.519
                      19     2 Jun 2027 04:02:49.953     2 Jun 2027 04:04:17.263            87.310
                      20     2 Jun 2027 05:33:28.373     2 Jun 2027 05:34:08.264            39.891
                      21     2 Jun 2027 05:34:27.551     2 Jun 2027 05:37:03.565           156.014
                      22     2 Jun 2027 06:57:23.744     2 Jun 2027 07:00:07.557           163.813
                      23     2 Jun 2027 08:33:18.502     2 Jun 2027 08:37:22.277           243.775
                      24     2 Jun 2027 10:08:12.039     2 Jun 2027 10:15:21.529           429.490
                      25     2 Jun 2027 11:44:35.164     2 Jun 2027 11:50:59.474           384.310
                      26     2 Jun 2027 13:22:51.691     2 Jun 2027 13:26:43.379           231.688
                      27     2 Jun 2027 14:58:14.555     2 Jun 2027 15:02:21.825           247.270
                      28     2 Jun 2027 15:02:42.816     2 Jun 2027 15:03:41.365            58.548
                      29     2 Jun 2027 20:04:48.699     2 Jun 2027 20:06:42.479           113.780
                      30     2 Jun 2027 21:40:52.543     2 Jun 2027 21:44:13.960           201.417
                      31     2 Jun 2027 23:17:27.418     2 Jun 2027 23:22:41.502           314.084
                      32     3 Jun 2027 00:53:38.040     3 Jun 2027 01:00:25.571           407.531
                      33     3 Jun 2027 02:29:43.007     3 Jun 2027 02:36:12.884           389.877
                      34     3 Jun 2027 04:08:24.289     3 Jun 2027 04:14:01.337           337.047
                      35     3 Jun 2027 04:14:11.991     3 Jun 2027 04:16:02.446           110.455
                      36     3 Jun 2027 05:34:10.218     3 Jun 2027 05:35:06.639            56.421
                      37     3 Jun 2027 05:45:24.666     3 Jun 2027 05:47:05.475           100.809
                      38     3 Jun 2027 05:48:04.713     3 Jun 2027 05:48:09.142             4.429
                      39     3 Jun 2027 07:08:01.240     3 Jun 2027 07:12:40.445           279.205
                      40     3 Jun 2027 08:43:35.884     3 Jun 2027 08:44:21.746            45.862
                      41     3 Jun 2027 08:45:02.373     3 Jun 2027 08:49:37.601           275.228
                      42     3 Jun 2027 10:19:48.694     3 Jun 2027 10:27:24.703           456.009
                      43     3 Jun 2027 11:56:55.066     3 Jun 2027 12:03:16.925           381.859
                      44     3 Jun 2027 13:34:52.993     3 Jun 2027 13:38:48.588           235.595
                      45     3 Jun 2027 15:07:58.745     3 Jun 2027 15:14:16.960           378.215
                      46     3 Jun 2027 15:14:24.114     3 Jun 2027 15:15:57.984            93.870
                      47     3 Jun 2027 20:16:36.556     3 Jun 2027 20:19:22.478           165.922
                      48     3 Jun 2027 21:52:56.423     3 Jun 2027 21:56:19.376           202.953
                      49     3 Jun 2027 23:29:34.977     3 Jun 2027 23:35:48.424           373.447
                      50     4 Jun 2027 01:05:41.908     4 Jun 2027 01:12:22.768           400.860
                      51     4 Jun 2027 02:41:49.103     4 Jun 2027 02:47:55.397           366.294
                      52     4 Jun 2027 04:20:53.700     4 Jun 2027 04:28:02.007           428.307
                      53     4 Jun 2027 05:45:44.631     4 Jun 2027 05:47:18.496            93.865
                      54     4 Jun 2027 05:57:28.061     4 Jun 2027 05:58:27.307            59.246
                      55     4 Jun 2027 07:19:43.540     4 Jun 2027 07:20:50.043            66.503
                      56     4 Jun 2027 07:21:40.698     4 Jun 2027 07:24:53.978           193.279
                      57     4 Jun 2027 08:54:42.609     4 Jun 2027 08:56:35.868           113.258
                      58     4 Jun 2027 08:56:46.279     4 Jun 2027 09:01:50.253           303.973
                      59     4 Jun 2027 09:02:40.557     4 Jun 2027 09:03:01.433            20.876
                      60     4 Jun 2027 10:32:08.923     4 Jun 2027 10:39:27.346           438.423
                      61     4 Jun 2027 12:08:55.551     4 Jun 2027 12:15:24.546           388.995
                      62     4 Jun 2027 13:46:53.740     4 Jun 2027 13:51:03.679           249.939
                      63     4 Jun 2027 15:20:31.195     4 Jun 2027 15:27:56.202           445.007
                      64     4 Jun 2027 20:28:37.190     4 Jun 2027 20:31:22.780           165.590
                      65     4 Jun 2027 22:05:08.721     4 Jun 2027 22:08:31.687           202.966
                      66     4 Jun 2027 22:09:51.683     4 Jun 2027 22:12:35.633           163.951
                      67     4 Jun 2027 23:41:49.302     4 Jun 2027 23:47:51.244           361.942
                      68     5 Jun 2027 01:17:17.051     5 Jun 2027 01:17:42.238            25.187
                      69     5 Jun 2027 01:17:48.553     5 Jun 2027 01:24:47.283           418.731
                      70     5 Jun 2027 02:54:09.567     5 Jun 2027 02:54:36.013            26.446
                      71     5 Jun 2027 02:54:40.907     5 Jun 2027 02:55:15.785            34.878
                      72     5 Jun 2027 02:55:19.393     5 Jun 2027 03:00:09.456           290.063
                      73     5 Jun 2027 04:32:55.939     5 Jun 2027 04:39:56.866           420.927
                      74     5 Jun 2027 05:57:17.053     5 Jun 2027 05:59:26.565           129.512
                      75     5 Jun 2027 06:09:33.549     5 Jun 2027 06:10:01.158            27.608
                      76     5 Jun 2027 07:31:22.320     5 Jun 2027 07:32:36.771            74.450
                      77     5 Jun 2027 07:33:26.431     5 Jun 2027 07:37:05.420           218.989
                      78     5 Jun 2027 09:06:10.649     5 Jun 2027 09:14:11.290           480.641
                      79     5 Jun 2027 09:14:33.260     5 Jun 2027 09:15:15.117            41.858
                      80     5 Jun 2027 10:44:03.329     5 Jun 2027 10:51:28.589           445.260
                      81     5 Jun 2027 12:20:47.496     5 Jun 2027 12:26:40.625           353.128
                      82     5 Jun 2027 12:26:46.937     5 Jun 2027 12:27:32.700            45.763
                      83     5 Jun 2027 13:58:57.309     5 Jun 2027 14:03:02.009           244.700
                      84     5 Jun 2027 15:34:35.608     5 Jun 2027 15:39:03.428           267.820
                      85     5 Jun 2027 20:40:45.344     5 Jun 2027 20:43:39.716           174.372
                      86     5 Jun 2027 20:44:10.080     5 Jun 2027 20:45:09.036            58.955
                      87     5 Jun 2027 22:17:07.195     5 Jun 2027 22:21:30.118           262.923
                      88     5 Jun 2027 22:21:59.664     5 Jun 2027 22:24:15.378           135.713
                      89     5 Jun 2027 23:53:40.893     6 Jun 2027 00:00:14.413           393.520
                      90     6 Jun 2027 01:29:12.980     6 Jun 2027 01:36:55.466           462.485
                      91     6 Jun 2027 03:06:52.081     6 Jun 2027 03:07:10.825            18.745
                      92     6 Jun 2027 03:07:16.592     6 Jun 2027 03:08:29.091            72.498
                      93     6 Jun 2027 03:08:56.514     6 Jun 2027 03:12:26.358           209.845
                      94     6 Jun 2027 04:45:20.092     6 Jun 2027 04:50:27.295           307.203
                      95     6 Jun 2027 06:09:14.660     6 Jun 2027 06:11:31.351           136.692
                      96     6 Jun 2027 07:45:12.834     6 Jun 2027 07:49:08.166           235.332
                      97     6 Jun 2027 09:19:01.273     6 Jun 2027 09:26:20.563           439.290
                      98     6 Jun 2027 09:26:32.699     6 Jun 2027 09:27:32.894            60.195
                      99     6 Jun 2027 10:56:10.450     6 Jun 2027 11:03:29.005           438.556
                     100     6 Jun 2027 12:33:21.210     6 Jun 2027 12:37:58.772           277.562
                     101     6 Jun 2027 12:38:07.760     6 Jun 2027 12:39:19.077            71.318
                     102     6 Jun 2027 14:10:07.473     6 Jun 2027 14:15:02.651           295.177
                     103     6 Jun 2027 15:45:18.676     6 Jun 2027 15:45:34.367            15.692
                     104     6 Jun 2027 15:46:52.775     6 Jun 2027 15:50:03.882           191.107
                     105     6 Jun 2027 20:53:06.636     6 Jun 2027 20:55:23.040           136.404
                     106     6 Jun 2027 20:55:46.764     6 Jun 2027 20:58:16.937           150.174
                     107     6 Jun 2027 22:29:00.769     6 Jun 2027 22:35:59.034           418.265
                     108     7 Jun 2027 00:05:44.786     7 Jun 2027 00:12:09.871           385.085
                     109     7 Jun 2027 01:41:12.808     7 Jun 2027 01:48:45.403           452.595
                     110     7 Jun 2027 03:19:36.725     7 Jun 2027 03:19:56.106            19.381
                     111     7 Jun 2027 03:20:10.867     7 Jun 2027 03:21:04.696            53.829
                     112     7 Jun 2027 03:21:06.306     7 Jun 2027 03:25:38.413           272.107
                     113     7 Jun 2027 04:57:44.488     7 Jun 2027 05:02:26.376           281.887
                     114     7 Jun 2027 06:21:07.444     7 Jun 2027 06:23:37.259           149.815
                     115     7 Jun 2027 07:57:29.906     7 Jun 2027 08:00:59.178           209.272
                     116     7 Jun 2027 09:31:24.005     7 Jun 2027 09:38:30.077           426.072
                     117     7 Jun 2027 09:38:31.240     7 Jun 2027 09:39:32.333            61.093
                     118     7 Jun 2027 11:08:36.562     7 Jun 2027 11:15:17.808           401.246
                     119     7 Jun 2027 12:45:38.500     7 Jun 2027 12:49:55.278           256.778
                     120     7 Jun 2027 12:49:56.596     7 Jun 2027 12:51:03.136            66.540
                     121     7 Jun 2027 14:22:23.112     7 Jun 2027 14:26:52.528           269.416
                     122     7 Jun 2027 16:00:32.303     7 Jun 2027 16:01:40.464            68.160
                     123     7 Jun 2027 21:05:08.581     7 Jun 2027 21:07:22.585           134.005
                     124     7 Jun 2027 21:08:39.935     7 Jun 2027 21:09:13.629            33.695
                     125     7 Jun 2027 22:41:05.517     7 Jun 2027 22:47:36.479           390.961
                     126     8 Jun 2027 00:17:47.385     8 Jun 2027 00:24:11.124           383.739
                     127     8 Jun 2027 01:53:25.502     8 Jun 2027 02:00:48.454           442.952
                     128     8 Jun 2027 03:31:44.673     8 Jun 2027 03:32:36.357            51.684
                     129     8 Jun 2027 03:32:42.309     8 Jun 2027 03:37:38.290           295.981
                     130     8 Jun 2027 05:10:03.211     8 Jun 2027 05:14:05.411           242.201
                     131     8 Jun 2027 06:32:57.490     8 Jun 2027 06:35:43.901           166.411
                     132     8 Jun 2027 08:09:33.375     8 Jun 2027 08:13:07.282           213.907
                     133     8 Jun 2027 09:44:41.481     8 Jun 2027 09:50:26.333           344.852
                     134     8 Jun 2027 09:50:29.801     8 Jun 2027 09:51:28.796            58.996
                     135     8 Jun 2027 11:21:01.728     8 Jun 2027 11:27:24.024           382.297
                     136     8 Jun 2027 12:58:32.606     8 Jun 2027 13:02:54.601           261.995
                     137     8 Jun 2027 14:34:39.607     8 Jun 2027 14:38:52.583           252.976
                     138     8 Jun 2027 21:17:13.892     8 Jun 2027 21:19:54.542           160.651
                     139     8 Jun 2027 22:53:09.466     8 Jun 2027 22:59:08.219           358.752
                     140     9 Jun 2027 00:29:51.871     9 Jun 2027 00:36:07.982           376.111
                     141     9 Jun 2027 02:05:22.434     9 Jun 2027 02:12:32.215           429.781
                     142     9 Jun 2027 03:43:30.632     9 Jun 2027 03:44:31.462            60.830
                     143     9 Jun 2027 03:44:38.357     9 Jun 2027 03:49:42.779           304.422
                     144     9 Jun 2027 05:21:47.905     9 Jun 2027 05:22:22.581            34.676
                     145     9 Jun 2027 05:22:36.571     9 Jun 2027 05:25:36.663           180.092
                     146     9 Jun 2027 06:45:09.924     9 Jun 2027 06:48:19.976           190.052
                     147     9 Jun 2027 08:21:44.533     9 Jun 2027 08:25:13.949           209.416
                     148     9 Jun 2027 09:56:54.044     9 Jun 2027 10:03:30.183           396.139
                     149     9 Jun 2027 11:33:15.362     9 Jun 2027 11:39:26.150           370.788
                     150     9 Jun 2027 13:10:32.639     9 Jun 2027 13:15:11.714           279.075
                     151     9 Jun 2027 14:46:44.737     9 Jun 2027 14:51:33.876           289.139
                     152     9 Jun 2027 19:53:47.805     9 Jun 2027 19:54:00.451            12.646
                     153     9 Jun 2027 21:29:22.148     9 Jun 2027 21:32:29.865           187.717
                     154     9 Jun 2027 23:05:20.738     9 Jun 2027 23:10:50.725           329.987
                     155    10 Jun 2027 00:41:49.386    10 Jun 2027 00:48:02.096           372.710
                     156    10 Jun 2027 02:17:19.676    10 Jun 2027 02:24:12.035           412.360
                     157    10 Jun 2027 03:56:37.244    10 Jun 2027 04:01:44.801           307.557
                     158    10 Jun 2027 04:03:00.848    10 Jun 2027 04:04:33.438            92.590
                     159    10 Jun 2027 05:33:44.706    10 Jun 2027 05:34:25.403            40.697
                     160    10 Jun 2027 05:34:42.476    10 Jun 2027 05:37:20.651           158.175
                     161    10 Jun 2027 06:57:40.541    10 Jun 2027 07:00:24.510           163.969
                     162    10 Jun 2027 08:33:33.713    10 Jun 2027 08:37:40.302           246.590
                     163    10 Jun 2027 10:08:27.202    10 Jun 2027 10:15:39.070           431.868
                     164    10 Jun 2027 11:44:53.040    10 Jun 2027 11:51:17.235           384.195
                     165    10 Jun 2027 13:23:11.205    10 Jun 2027 13:27:00.247           229.042
                     166    10 Jun 2027 14:58:37.899    10 Jun 2027 15:02:38.117           240.218
                     167    10 Jun 2027 15:03:00.330    10 Jun 2027 15:03:58.275            57.945
                     168    10 Jun 2027 20:05:03.017    10 Jun 2027 20:06:59.611           116.594
                     169    10 Jun 2027 21:41:09.456    10 Jun 2027 21:44:31.312           201.856
                     170    10 Jun 2027 23:17:44.460    10 Jun 2027 23:23:22.779           338.319
                     171    11 Jun 2027 00:53:55.402    11 Jun 2027 01:00:43.930           408.527
                     172    11 Jun 2027 02:30:00.714    11 Jun 2027 02:36:24.768           384.054
                     173    11 Jun 2027 04:08:41.421    11 Jun 2027 04:14:20.544           339.123
                     174    11 Jun 2027 04:14:27.888    11 Jun 2027 04:16:18.472           110.584
                     175    11 Jun 2027 05:34:23.875    11 Jun 2027 05:35:26.634            62.759
                     176    11 Jun 2027 05:45:41.615    11 Jun 2027 05:47:21.714           100.099
                     177    11 Jun 2027 07:08:16.927    11 Jun 2027 07:09:21.658            64.731
                     178    11 Jun 2027 07:09:35.191    11 Jun 2027 07:12:58.388           203.197
                     179    11 Jun 2027 08:43:49.482    11 Jun 2027 08:44:39.625            50.143
                     180    11 Jun 2027 08:45:17.866    11 Jun 2027 08:49:54.721           276.854
                     181    11 Jun 2027 10:20:07.308    11 Jun 2027 10:27:40.443           453.136
                     182    11 Jun 2027 11:57:13.046    11 Jun 2027 12:03:34.168           381.122
                     183    11 Jun 2027 13:35:10.204    11 Jun 2027 13:39:07.472           237.267
                     184    11 Jun 2027 15:08:15.118    11 Jun 2027 15:14:34.775           379.657
                     185    11 Jun 2027 15:15:17.144    11 Jun 2027 15:16:15.986            58.843
                     186    11 Jun 2027 20:16:53.709    11 Jun 2027 20:19:38.733           165.024
                     187    11 Jun 2027 21:53:13.823    11 Jun 2027 21:56:37.123           203.300
                     188    11 Jun 2027 23:29:51.320    11 Jun 2027 23:36:04.595           373.275
                     189    12 Jun 2027 01:05:58.865    12 Jun 2027 01:12:38.812           399.947
                     190    12 Jun 2027 02:42:06.598    12 Jun 2027 02:48:11.562           364.964
                     191    12 Jun 2027 04:21:11.612    12 Jun 2027 04:28:19.183           427.570
                     192    12 Jun 2027 05:46:01.155    12 Jun 2027 05:47:35.570            94.415
                     193    12 Jun 2027 05:57:42.003    12 Jun 2027 05:58:43.269            61.266
                     194    12 Jun 2027 07:20:00.312    12 Jun 2027 07:21:06.270            65.958
                     195    12 Jun 2027 07:21:57.239    12 Jun 2027 07:25:11.661           194.421
                     196    12 Jun 2027 08:54:57.983    12 Jun 2027 08:56:52.732           114.749
                     197    12 Jun 2027 08:57:01.862    12 Jun 2027 09:02:17.623           315.760
                     198    12 Jun 2027 09:02:56.873    12 Jun 2027 09:03:18.880            22.006
                     199    12 Jun 2027 10:32:26.594    12 Jun 2027 10:39:44.562           437.968
                     200    12 Jun 2027 12:09:11.376    12 Jun 2027 12:15:42.833           391.457
                     201    12 Jun 2027 13:47:09.922    12 Jun 2027 13:51:20.628           250.706
                     202    12 Jun 2027 15:20:47.461    12 Jun 2027 15:28:11.643           444.182
                     203    12 Jun 2027 20:28:54.489    12 Jun 2027 20:31:41.015           166.526
                     204    12 Jun 2027 22:05:26.388    12 Jun 2027 22:08:51.357           204.969
                     205    12 Jun 2027 22:10:07.445    12 Jun 2027 22:12:56.412           168.967
                     206    12 Jun 2027 23:42:05.058    12 Jun 2027 23:48:09.528           364.470
                     207    13 Jun 2027 01:17:32.838    13 Jun 2027 01:18:13.199            40.361
                     208    13 Jun 2027 01:18:14.997    13 Jun 2027 01:25:06.434           411.437
                     209    13 Jun 2027 02:54:26.668    13 Jun 2027 02:54:53.346            26.678
                     210    13 Jun 2027 02:54:58.788    13 Jun 2027 02:55:32.554            33.765
                     211    13 Jun 2027 02:55:36.454    13 Jun 2027 02:56:31.043            54.590
                     212    13 Jun 2027 02:56:32.476    13 Jun 2027 03:00:27.243           234.768
                     213    13 Jun 2027 04:33:13.689    13 Jun 2027 04:40:12.459           418.769
                     214    13 Jun 2027 05:57:34.517    13 Jun 2027 05:59:40.620           126.103
                     215    13 Jun 2027 06:09:50.188    13 Jun 2027 06:10:17.706            27.518
                     216    13 Jun 2027 07:31:33.482    13 Jun 2027 07:32:53.303            79.822
                     217    13 Jun 2027 07:33:41.935    13 Jun 2027 07:37:24.711           222.776
                     218    13 Jun 2027 09:06:26.061    13 Jun 2027 09:14:28.842           482.781
                     219    13 Jun 2027 09:14:49.854    13 Jun 2027 09:15:46.978            57.124
                     220    13 Jun 2027 10:44:19.918    13 Jun 2027 10:51:45.228           445.311
                     221    13 Jun 2027 12:21:03.911    13 Jun 2027 12:26:56.057           352.145
                     222    13 Jun 2027 12:27:03.682    13 Jun 2027 12:27:48.469            44.788
                     223    13 Jun 2027 13:59:10.262    13 Jun 2027 14:03:19.083           248.822
                     224    13 Jun 2027 15:34:54.728    13 Jun 2027 15:39:18.441           263.713
                     225    13 Jun 2027 20:41:02.207    13 Jun 2027 20:43:55.954           173.746
                     226    13 Jun 2027 20:44:26.539    13 Jun 2027 20:45:25.499            58.960
                     227    13 Jun 2027 22:17:23.413    13 Jun 2027 22:21:50.049           266.635
                     228    13 Jun 2027 22:22:10.226    13 Jun 2027 22:23:57.231           107.004
                     229    13 Jun 2027 23:53:57.347    14 Jun 2027 00:00:01.000           363.653

Min Duration          38     3 Jun 2027 05:48:04.713     3 Jun 2027 05:48:09.142             4.429
Max Duration         218    13 Jun 2027 09:06:26.061    13 Jun 2027 09:14:28.842           482.781
Mean Duration                                                                              231.262
Total Duration                                                                           52959.074


Russia-To-KinoSat_111603
------------------------
                  Access        Start Time (UTCG)           Stop Time (UTCG)        Duration (sec)
                  ------    ------------------------    ------------------------    --------------
                       1     1 Jun 2027 00:19:56.230     1 Jun 2027 00:26:23.352           387.122
                       2     1 Jun 2027 01:55:31.478     1 Jun 2027 02:03:00.450           448.973
                       3     1 Jun 2027 03:33:44.241     1 Jun 2027 03:34:45.080            60.839
                       4     1 Jun 2027 03:34:50.756     1 Jun 2027 03:39:52.199           301.443
                       5     1 Jun 2027 05:12:45.382     1 Jun 2027 05:16:15.321           209.939
                       6     1 Jun 2027 06:35:17.069     1 Jun 2027 06:37:55.624           158.556
                       7     1 Jun 2027 08:11:42.767     1 Jun 2027 08:15:15.511           212.743
                       8     1 Jun 2027 09:46:51.002     1 Jun 2027 09:52:36.364           345.363
                       9     1 Jun 2027 09:52:37.524     1 Jun 2027 09:53:38.951            61.427
                      10     1 Jun 2027 11:23:11.938     1 Jun 2027 11:29:33.792           381.854
                      11     1 Jun 2027 13:00:45.544     1 Jun 2027 13:05:07.811           262.268
                      12     1 Jun 2027 14:36:49.173     1 Jun 2027 14:41:00.961           251.788
                      13     1 Jun 2027 21:19:23.262     1 Jun 2027 21:22:28.223           184.961
                      14     1 Jun 2027 22:55:18.812     1 Jun 2027 23:01:12.422           353.610
                      15     2 Jun 2027 00:32:01.460     2 Jun 2027 00:38:12.116           370.656
                      16     2 Jun 2027 02:07:27.764     2 Jun 2027 02:14:37.091           429.327
                      17     2 Jun 2027 03:45:40.625     2 Jun 2027 03:46:34.736            54.111
                      18     2 Jun 2027 03:46:47.428     2 Jun 2027 03:51:48.537           301.109
                      19     2 Jun 2027 05:23:55.845     2 Jun 2027 05:24:32.182            36.337
                      20     2 Jun 2027 05:24:44.972     2 Jun 2027 05:27:41.692           176.720
                      21     2 Jun 2027 06:47:16.412     2 Jun 2027 06:50:30.074           193.662
                      22     2 Jun 2027 08:23:53.115     2 Jun 2027 08:27:20.509           207.394
                      23     2 Jun 2027 09:59:03.148     2 Jun 2027 10:05:39.125           395.977
                      24     2 Jun 2027 11:35:20.365     2 Jun 2027 11:41:07.293           346.928
                      25     2 Jun 2027 11:41:09.829     2 Jun 2027 11:41:28.127            18.298
                      26     2 Jun 2027 13:12:51.168     2 Jun 2027 13:17:22.516           271.348
                      27     2 Jun 2027 14:48:52.968     2 Jun 2027 14:53:04.008           251.040
                      28     2 Jun 2027 14:53:08.889     2 Jun 2027 14:53:46.044            37.156
                      29     2 Jun 2027 19:55:49.519     2 Jun 2027 19:56:11.976            22.457
                      30     2 Jun 2027 21:31:31.336     2 Jun 2027 21:34:27.803           176.467
                      31     2 Jun 2027 23:07:30.858     2 Jun 2027 23:12:57.995           327.136
                      32     3 Jun 2027 00:43:59.313     3 Jun 2027 00:50:10.002           370.690
                      33     3 Jun 2027 02:19:28.465     3 Jun 2027 02:26:24.373           415.908
                      34     3 Jun 2027 03:58:46.277     3 Jun 2027 04:03:59.872           313.595
                      35     3 Jun 2027 04:05:04.875     3 Jun 2027 04:06:37.694            92.820
                      36     3 Jun 2027 05:25:08.593     3 Jun 2027 05:25:13.998             5.405
                      37     3 Jun 2027 05:35:52.504     3 Jun 2027 05:39:29.244           216.740
                      38     3 Jun 2027 06:59:52.695     3 Jun 2027 07:02:34.397           161.701
                      39     3 Jun 2027 08:35:37.344     3 Jun 2027 08:39:50.108           252.764
                      40     3 Jun 2027 10:10:30.908     3 Jun 2027 10:17:48.358           437.450
                      41     3 Jun 2027 11:47:03.984     3 Jun 2027 11:53:27.152           383.168
                      42     3 Jun 2027 13:25:21.277     3 Jun 2027 13:29:15.654           234.377
                      43     3 Jun 2027 14:59:22.528     3 Jun 2027 15:00:07.012            44.483
                      44     3 Jun 2027 15:00:42.294     3 Jun 2027 15:04:50.814           248.520
                      45     3 Jun 2027 15:05:10.676     3 Jun 2027 15:06:09.746            59.070
                      46     3 Jun 2027 20:07:06.434     3 Jun 2027 20:09:11.866           125.432
                      47     3 Jun 2027 21:43:18.363     3 Jun 2027 21:46:38.775           200.413
                      48     3 Jun 2027 23:19:54.566     3 Jun 2027 23:25:46.744           352.178
                      49     4 Jun 2027 00:56:06.087     4 Jun 2027 01:02:52.877           406.790
                      50     4 Jun 2027 02:32:09.476     4 Jun 2027 02:38:35.280           385.804
                      51     4 Jun 2027 04:10:54.801     4 Jun 2027 04:18:30.716           455.915
                      52     4 Jun 2027 05:36:26.138     4 Jun 2027 05:37:36.982            70.844
                      53     4 Jun 2027 05:47:50.662     4 Jun 2027 05:49:19.974            89.312
                      54     4 Jun 2027 07:10:28.375     4 Jun 2027 07:11:29.103            60.728
                      55     4 Jun 2027 07:12:01.649     4 Jun 2027 07:15:08.668           187.020
                      56     4 Jun 2027 08:45:51.636     4 Jun 2027 08:46:47.690            56.054
                      57     4 Jun 2027 08:47:23.002     4 Jun 2027 08:52:05.476           282.474
                      58     4 Jun 2027 10:22:18.479     4 Jun 2027 10:29:49.440           450.961
                      59     4 Jun 2027 11:59:25.122     4 Jun 2027 12:05:27.297           362.175
                      60     4 Jun 2027 13:37:19.344     4 Jun 2027 13:41:17.095           237.750
                      61     4 Jun 2027 15:10:26.049     4 Jun 2027 15:16:45.900           379.851
                      62     4 Jun 2027 15:17:14.028     4 Jun 2027 15:18:26.081            72.053
                      63     4 Jun 2027 20:19:03.340     4 Jun 2027 20:21:45.264           161.923
                      64     4 Jun 2027 21:55:23.668     4 Jun 2027 21:58:47.449           203.780
                      65     4 Jun 2027 22:01:16.168     4 Jun 2027 22:01:54.494            38.326
                      66     4 Jun 2027 23:31:57.838     4 Jun 2027 23:38:11.835           373.996
                      67     5 Jun 2027 01:08:13.284     5 Jun 2027 01:14:47.489           394.205
                      68     5 Jun 2027 02:44:16.385     5 Jun 2027 02:50:23.520           367.135
                      69     5 Jun 2027 04:23:20.696     5 Jun 2027 04:30:27.172           426.476
                      70     5 Jun 2027 05:47:44.892     5 Jun 2027 05:49:46.322           121.429
                      71     5 Jun 2027 05:59:50.039     5 Jun 2027 06:00:49.102            59.063
                      72     5 Jun 2027 07:22:07.128     5 Jun 2027 07:23:13.731            66.604
                      73     5 Jun 2027 07:24:01.777     5 Jun 2027 07:27:22.501           200.724
                      74     5 Jun 2027 08:57:00.960     5 Jun 2027 08:59:02.843           121.883
                      75     5 Jun 2027 08:59:09.455     5 Jun 2027 09:04:18.870           309.414
                      76     5 Jun 2027 09:05:04.417     5 Jun 2027 09:05:28.831            24.413
                      77     5 Jun 2027 10:34:33.734     5 Jun 2027 10:41:53.842           440.107
                      78     5 Jun 2027 12:11:16.682     5 Jun 2027 12:17:32.276           375.594
                      79     5 Jun 2027 12:17:36.127     5 Jun 2027 12:17:52.984            16.857
                      80     5 Jun 2027 13:49:19.592     5 Jun 2027 13:53:29.266           249.674
                      81     5 Jun 2027 15:22:55.963     5 Jun 2027 15:30:20.554           444.591
                      82     5 Jun 2027 20:31:04.770     5 Jun 2027 20:33:58.491           173.722
                      83     5 Jun 2027 22:07:36.356     5 Jun 2027 22:11:09.573           213.216
                      84     5 Jun 2027 22:12:19.372     5 Jun 2027 22:15:18.504           179.131
                      85     5 Jun 2027 23:44:09.239     5 Jun 2027 23:50:26.932           377.693
                      86     6 Jun 2027 01:19:40.625     6 Jun 2027 01:20:18.400            37.775
                      87     6 Jun 2027 01:20:29.381     6 Jun 2027 01:27:17.833           408.452
                      88     6 Jun 2027 02:56:40.090     6 Jun 2027 02:57:02.224            22.134
                      89     6 Jun 2027 02:57:09.444     6 Jun 2027 02:57:39.327            29.882
                      90     6 Jun 2027 02:57:44.337     6 Jun 2027 02:58:38.438            54.101
                      91     6 Jun 2027 02:58:40.616     6 Jun 2027 03:02:38.203           237.587
                      92     6 Jun 2027 04:35:25.297     6 Jun 2027 04:42:19.130           413.833
                      93     6 Jun 2027 05:59:43.756     6 Jun 2027 06:01:38.956           115.200
                      94     6 Jun 2027 06:12:05.169     6 Jun 2027 06:12:23.591            18.423
                      95     6 Jun 2027 07:33:37.509     6 Jun 2027 07:34:59.632            82.123
                      96     6 Jun 2027 07:35:47.971     6 Jun 2027 07:39:35.207           227.236
                      97     6 Jun 2027 09:08:31.902     6 Jun 2027 09:16:38.568           486.666
                      98     6 Jun 2027 09:16:58.713     6 Jun 2027 09:17:56.857            58.144
                      99     6 Jun 2027 10:46:28.554     6 Jun 2027 10:53:54.005           445.451
                     100     6 Jun 2027 12:23:17.579     6 Jun 2027 12:28:56.885           339.306
                     101     6 Jun 2027 12:29:08.611     6 Jun 2027 12:29:56.623            48.012
                     102     6 Jun 2027 14:01:07.006     6 Jun 2027 14:05:28.655           261.649
                     103     6 Jun 2027 15:37:06.589     6 Jun 2027 15:41:23.743           257.154
                     104     6 Jun 2027 20:43:11.641     6 Jun 2027 20:47:39.362           267.720
                     105     6 Jun 2027 22:19:32.638     6 Jun 2027 22:24:04.890           272.252
                     106     6 Jun 2027 22:24:20.835     6 Jun 2027 22:26:09.417           108.582
                     107     6 Jun 2027 22:26:57.604     6 Jun 2027 22:27:33.886            36.282
                     108     6 Jun 2027 23:56:06.182     7 Jun 2027 00:02:41.390           395.208
                     109     7 Jun 2027 01:31:38.633     7 Jun 2027 01:39:24.157           465.524
                     110     7 Jun 2027 03:09:19.717     7 Jun 2027 03:09:32.670            12.954
                     111     7 Jun 2027 03:09:42.770     7 Jun 2027 03:10:43.424            60.653
                     112     7 Jun 2027 03:10:51.925     7 Jun 2027 03:11:17.799            25.875
                     113     7 Jun 2027 03:11:28.913     7 Jun 2027 03:14:55.799           206.885
                     114     7 Jun 2027 04:47:51.238     7 Jun 2027 04:52:51.910           300.672
                     115     7 Jun 2027 06:11:39.998     7 Jun 2027 06:13:55.764           135.766
                     116     7 Jun 2027 07:47:39.311     7 Jun 2027 07:51:32.519           233.208
                     117     7 Jun 2027 09:21:26.139     7 Jun 2027 09:28:47.384           441.245
                     118     7 Jun 2027 09:28:49.898     7 Jun 2027 09:29:58.510            68.613
                     119     7 Jun 2027 10:58:42.562     7 Jun 2027 11:05:54.470           431.907
                     120     7 Jun 2027 12:35:53.572     7 Jun 2027 12:40:22.075           268.503
                     121     7 Jun 2027 12:40:31.956     7 Jun 2027 12:41:43.565            71.609
                     122     7 Jun 2027 14:12:36.938     7 Jun 2027 14:17:25.641           288.704
                     123     7 Jun 2027 15:47:52.631     7 Jun 2027 15:48:02.144             9.513
                     124     7 Jun 2027 15:49:33.796     7 Jun 2027 15:52:26.862           173.067
                     125     7 Jun 2027 20:55:33.041     7 Jun 2027 20:58:00.483           147.442
                     126     7 Jun 2027 20:58:22.213     7 Jun 2027 21:00:26.807           124.594
                     127     7 Jun 2027 22:31:27.091     7 Jun 2027 22:38:19.961           412.871
                     128     8 Jun 2027 00:08:10.198     8 Jun 2027 00:14:36.159           385.961
                     129     8 Jun 2027 01:43:40.035     8 Jun 2027 01:51:08.682           448.646
                     130     8 Jun 2027 03:21:53.301     8 Jun 2027 03:22:20.419            27.118
