DATA_Files/Russia2Constellation/AreaTarget-Russia-To-Satellite-KinoSat_20_plane.txt

                                                                                                                                                                                                                                                                                           10 May 2023 22:47:52
Civil Air Patrol Use Only
AreaTarget-Russia-To-Satellite-KinoSat_112001, Satellite-KinoSat_112002, Satellite-KinoSat_112003, Satellite-KinoSat_112004, Satellite-KinoSat_112005, Satellite-KinoSat_112006, Satellite-KinoSat_112007, Satellite-KinoSat_112008, Satellite-KinoSat_112009, Satellite-KinoSat_112010:  Access Summary Report


Russia-To-KinoSat_112001
------------------------
                  Access        Start Time (UTCG)           Stop Time (UTCG)        Duration (sec)
                  ------    ------------------------    ------------------------    --------------
                       1     1 Jun 2027 00:23:00.615     1 Jun 2027 00:29:33.635           393.021
                       2     1 Jun 2027 01:59:42.194     1 Jun 2027 02:06:04.984           382.791
                       3     1 Jun 2027 03:35:16.258     1 Jun 2027 03:42:44.690           448.432
                       4     1 Jun 2027 05:13:17.896     1 Jun 2027 05:13:20.708             2.812
                       5     1 Jun 2027 05:13:46.065     1 Jun 2027 05:19:31.205           345.140
                       6     1 Jun 2027 06:51:57.916     1 Jun 2027 06:55:58.571           240.655
                       7     1 Jun 2027 08:14:53.053     1 Jun 2027 08:17:39.850           166.797
                       8     1 Jun 2027 09:51:30.356     1 Jun 2027 09:55:02.443           212.087
                       9     1 Jun 2027 11:26:25.799     1 Jun 2027 11:32:22.137           356.338
                      10     1 Jun 2027 11:32:24.836     1 Jun 2027 11:33:22.485            57.649
                      11     1 Jun 2027 13:02:38.543     1 Jun 2027 13:09:17.425           398.882
                      12     1 Jun 2027 14:40:21.573     1 Jun 2027 14:44:45.243           263.670
                      13     1 Jun 2027 16:16:28.262     1 Jun 2027 16:21:03.737           275.476
                      14     1 Jun 2027 22:59:07.265     1 Jun 2027 23:02:11.492           184.227
                      15     2 Jun 2027 00:35:04.270     2 Jun 2027 00:41:10.170           365.900
                      16     2 Jun 2027 02:11:46.841     2 Jun 2027 02:18:10.247           383.405
                      17     2 Jun 2027 03:47:17.622     2 Jun 2027 03:54:30.614           432.992
                      18     2 Jun 2027 05:25:25.824     2 Jun 2027 05:26:27.557            61.733
                      19     2 Jun 2027 05:26:34.244     2 Jun 2027 05:31:38.940           304.696
                      20     2 Jun 2027 07:03:43.857     2 Jun 2027 07:07:34.884           231.027
                      21     2 Jun 2027 08:27:06.911     2 Jun 2027 08:30:13.815           186.904
                      22     2 Jun 2027 10:03:38.817     2 Jun 2027 10:07:12.364           213.546
                      23     2 Jun 2027 11:38:48.828     2 Jun 2027 11:45:25.142           396.314
                      24     2 Jun 2027 13:15:13.731     2 Jun 2027 13:21:23.998           370.267
                      25     2 Jun 2027 14:52:28.978     2 Jun 2027 14:57:04.396           275.418
                      26     2 Jun 2027 16:28:43.412     2 Jun 2027 16:33:25.519           282.107
                      27     2 Jun 2027 21:35:47.248     2 Jun 2027 21:35:51.182             3.934
                      28     2 Jun 2027 23:11:17.350     2 Jun 2027 23:14:24.426           187.076
                      29     3 Jun 2027 00:47:09.035     3 Jun 2027 00:52:47.253           338.218
                      30     3 Jun 2027 02:23:44.422     3 Jun 2027 02:29:57.549           373.127
                      31     3 Jun 2027 03:59:14.936     3 Jun 2027 04:06:10.744           415.809
                      32     3 Jun 2027 05:38:32.634     3 Jun 2027 05:43:39.805           307.171
                      33     3 Jun 2027 05:45:02.740     3 Jun 2027 05:46:29.825            87.085
                      34     3 Jun 2027 07:15:40.677     3 Jun 2027 07:16:20.567            39.890
                      35     3 Jun 2027 07:16:40.145     3 Jun 2027 07:19:15.352           155.206
                      36     3 Jun 2027 08:39:09.983     3 Jun 2027 08:42:19.980           189.998
                      37     3 Jun 2027 10:15:32.149     3 Jun 2027 10:19:32.539           240.389
                      38     3 Jun 2027 11:50:27.934     3 Jun 2027 11:57:32.863           424.930
                      39     3 Jun 2027 13:26:47.221     3 Jun 2027 13:33:11.034           383.813
                      40     3 Jun 2027 15:05:02.410     3 Jun 2027 15:08:54.561           232.151
                      41     3 Jun 2027 16:40:23.011     3 Jun 2027 16:44:33.337           250.327
                      42     3 Jun 2027 16:44:55.048     3 Jun 2027 16:45:52.912            57.864
                      43     3 Jun 2027 21:47:01.074     3 Jun 2027 21:48:54.747           113.673
                      44     3 Jun 2027 23:23:04.901     3 Jun 2027 23:26:26.054           201.152
                      45     4 Jun 2027 00:59:39.830     4 Jun 2027 01:04:53.575           313.745
                      46     4 Jun 2027 02:35:50.591     4 Jun 2027 02:42:37.372           406.781
                      47     4 Jun 2027 04:11:56.142     4 Jun 2027 04:18:26.066           389.924
                      48     4 Jun 2027 05:50:36.705     4 Jun 2027 05:56:07.056           330.351
                      49     4 Jun 2027 05:56:25.459     4 Jun 2027 05:58:14.214           108.756
                      50     4 Jun 2027 07:16:27.982     4 Jun 2027 07:17:16.304            48.322
                      51     4 Jun 2027 07:27:37.099     4 Jun 2027 07:29:17.957           100.858
                      52     4 Jun 2027 07:30:16.982     4 Jun 2027 07:30:22.255             5.274
                      53     4 Jun 2027 08:50:14.959     4 Jun 2027 08:54:51.036           276.077
                      54     4 Jun 2027 10:25:50.458     4 Jun 2027 10:26:30.046            39.588
                      55     4 Jun 2027 10:27:16.417     4 Jun 2027 10:31:48.397           271.979
                      56     4 Jun 2027 12:02:01.505     4 Jun 2027 12:09:38.667           457.162
                      57     4 Jun 2027 13:39:07.284     4 Jun 2027 13:45:25.912           378.628
                      58     4 Jun 2027 15:17:05.796     4 Jun 2027 15:21:01.949           236.153
                      59     4 Jun 2027 16:50:14.404     4 Jun 2027 16:56:48.658           394.254
                      60     4 Jun 2027 16:57:08.434     4 Jun 2027 16:58:11.429            62.995
                      61     4 Jun 2027 21:58:49.087     4 Jun 2027 22:01:35.014           165.927
                      62     4 Jun 2027 23:35:09.091     4 Jun 2027 23:38:33.714           204.622
                      63     5 Jun 2027 01:11:47.251     5 Jun 2027 01:18:01.338           374.087
                      64     5 Jun 2027 02:47:54.384     5 Jun 2027 02:54:35.402           401.018
                      65     5 Jun 2027 04:24:02.103     5 Jun 2027 04:30:08.471           366.368
                      66     5 Jun 2027 06:03:06.322     5 Jun 2027 06:10:14.468           428.146
                      67     5 Jun 2027 07:27:58.093     5 Jun 2027 07:29:29.736            91.643
                      68     5 Jun 2027 07:39:40.703     5 Jun 2027 07:40:39.906            59.203
                      69     5 Jun 2027 09:01:54.178     5 Jun 2027 09:03:04.437            70.259
                      70     5 Jun 2027 09:03:54.718     5 Jun 2027 09:07:05.050           190.332
                      71     5 Jun 2027 10:36:56.780     5 Jun 2027 10:38:41.017           104.237
                      72     5 Jun 2027 10:39:01.119     5 Jun 2027 10:44:01.639           300.519
                      73     5 Jun 2027 10:44:58.329     5 Jun 2027 10:45:05.249             6.920
                      74     5 Jun 2027 12:14:21.243     5 Jun 2027 12:21:39.753           438.509
                      75     5 Jun 2027 13:51:09.094     5 Jun 2027 13:57:19.677           370.582
                      76     5 Jun 2027 15:29:06.213     5 Jun 2027 15:33:04.379           238.165
                      77     5 Jun 2027 17:02:42.161     5 Jun 2027 17:10:10.647           448.486
                      78     5 Jun 2027 22:10:49.904     5 Jun 2027 22:13:35.099           165.195
                      79     5 Jun 2027 23:47:21.696     5 Jun 2027 23:50:43.921           202.225
                      80     5 Jun 2027 23:52:05.083     5 Jun 2027 23:54:47.515           162.432
                      81     6 Jun 2027 01:24:01.579     6 Jun 2027 01:30:03.155           361.576
                      82     6 Jun 2027 02:59:28.669     6 Jun 2027 02:59:56.012            27.343
                      83     6 Jun 2027 03:00:01.477     6 Jun 2027 03:06:59.032           417.555
                      84     6 Jun 2027 04:36:22.313     6 Jun 2027 04:37:28.432            66.119
                      85     6 Jun 2027 04:37:32.170     6 Jun 2027 04:42:21.942           289.772
                      86     6 Jun 2027 06:15:08.758     6 Jun 2027 06:22:10.178           421.419
                      87     6 Jun 2027 07:39:29.043     6 Jun 2027 07:41:41.979           132.937
                      88     6 Jun 2027 07:51:46.188     6 Jun 2027 07:52:13.859            27.671
                      89     6 Jun 2027 09:13:37.451     6 Jun 2027 09:14:51.714            74.263
                      90     6 Jun 2027 09:15:40.799     6 Jun 2027 09:19:16.532           215.733
                      91     6 Jun 2027 10:48:25.511     6 Jun 2027 10:56:22.440           476.929
                      92     6 Jun 2027 10:56:46.908     6 Jun 2027 10:57:20.501            33.593
                      93     6 Jun 2027 12:26:15.590     6 Jun 2027 12:33:41.944           446.354
                      94     6 Jun 2027 14:03:00.181     6 Jun 2027 14:08:56.451           356.269
                      95     6 Jun 2027 14:09:03.702     6 Jun 2027 14:09:46.552            42.850
                      96     6 Jun 2027 15:41:08.682     6 Jun 2027 15:45:15.465           246.783
                      97     6 Jun 2027 17:14:59.948     6 Jun 2027 17:21:19.445           379.497
                      98     6 Jun 2027 22:22:58.204     6 Jun 2027 22:27:21.988           263.784
                      99     6 Jun 2027 23:59:19.648     7 Jun 2027 00:03:42.374           262.727
                     100     7 Jun 2027 00:04:13.721     7 Jun 2027 00:07:22.762           189.041
                     101     7 Jun 2027 01:35:53.463     7 Jun 2027 01:42:27.405           393.942
                     102     7 Jun 2027 03:11:25.667     7 Jun 2027 03:19:08.674           463.007
                     103     7 Jun 2027 04:49:05.176     7 Jun 2027 04:49:20.963            15.787
                     104     7 Jun 2027 04:49:29.276     7 Jun 2027 04:50:41.795            72.519
                     105     7 Jun 2027 04:51:09.422     7 Jun 2027 04:54:38.923           209.501
                     106     7 Jun 2027 06:27:33.230     7 Jun 2027 06:32:39.024           305.794
                     107     7 Jun 2027 07:51:27.921     7 Jun 2027 07:53:44.213           136.291
                     108     7 Jun 2027 09:27:24.716     7 Jun 2027 09:31:21.140           236.424
                     109     7 Jun 2027 11:01:13.866     7 Jun 2027 11:08:35.966           442.100
                     110     7 Jun 2027 11:08:46.190     7 Jun 2027 11:09:46.141            59.951
                     111     7 Jun 2027 12:38:23.135     7 Jun 2027 12:45:39.447           436.312
                     112     7 Jun 2027 14:15:25.871     7 Jun 2027 14:21:33.255           367.384
                     113     7 Jun 2027 15:52:21.979     7 Jun 2027 15:57:13.481           291.502
                     114     7 Jun 2027 17:27:28.417     7 Jun 2027 17:27:50.785            22.367
                     115     7 Jun 2027 17:29:06.601     7 Jun 2027 17:32:18.442           191.841
                     116     7 Jun 2027 22:35:19.503     7 Jun 2027 22:37:35.889           136.386
                     117     7 Jun 2027 22:37:59.330     7 Jun 2027 22:40:30.195           150.865
                     118     8 Jun 2027 00:11:13.761     8 Jun 2027 00:18:11.656           417.894
                     119     8 Jun 2027 01:47:57.515     8 Jun 2027 01:54:22.880           385.366
                     120     8 Jun 2027 03:23:26.085     8 Jun 2027 03:30:58.749           452.664
                     121     8 Jun 2027 05:01:49.608     8 Jun 2027 05:02:08.843            19.235
                     122     8 Jun 2027 05:02:23.112     8 Jun 2027 05:03:17.667            54.555
                     123     8 Jun 2027 05:03:19.208     8 Jun 2027 05:07:51.095           271.888
                     124     8 Jun 2027 06:39:57.349     8 Jun 2027 06:44:39.784           282.435
                     125     8 Jun 2027 08:03:21.694     8 Jun 2027 08:05:49.284           147.590
                     126     8 Jun 2027 09:39:46.575     8 Jun 2027 09:43:12.927           206.352
                     127     8 Jun 2027 11:13:34.851     8 Jun 2027 11:21:45.735           490.884
                     128     8 Jun 2027 12:50:49.929     8 Jun 2027 12:57:30.749           400.819
                     129     8 Jun 2027 14:27:50.779     8 Jun 2027 14:32:07.099           256.320
                     130     8 Jun 2027 14:32:09.493     8 Jun 2027 14:33:19.114            69.622
                     131     8 Jun 2027 16:04:35.809     8 Jun 2027 16:09:04.661           268.852
                     132     8 Jun 2027 17:42:22.038     8 Jun 2027 17:43:53.431            91.392
                     133     8 Jun 2027 22:47:21.849     8 Jun 2027 22:49:35.651           133.802
                     134     8 Jun 2027 22:50:52.794     8 Jun 2027 22:51:27.451            34.657
                     135     9 Jun 2027 00:23:18.515     9 Jun 2027 00:29:50.009           391.494
                     136     9 Jun 2027 02:00:00.524     9 Jun 2027 02:06:23.973           383.448
                     137     9 Jun 2027 03:35:38.985     9 Jun 2027 03:43:02.582           443.597
                     138     9 Jun 2027 05:13:54.643     9 Jun 2027 05:14:49.513            54.870
                     139     9 Jun 2027 05:14:55.349     9 Jun 2027 05:19:51.311           295.962
                     140     9 Jun 2027 06:52:16.521     9 Jun 2027 06:56:17.991           241.470
                     141     9 Jun 2027 08:15:09.897     9 Jun 2027 08:17:57.205           167.308
                     142     9 Jun 2027 09:51:48.371     9 Jun 2027 09:55:20.634           212.264
                     143     9 Jun 2027 11:26:50.010     9 Jun 2027 11:32:39.846           349.836
                     144     9 Jun 2027 11:32:43.856     9 Jun 2027 11:33:41.190            57.333
                     145     9 Jun 2027 13:02:59.674     9 Jun 2027 13:09:36.213           396.539
                     146     9 Jun 2027 14:40:42.998     9 Jun 2027 14:45:04.515           261.517
                     147     9 Jun 2027 16:16:48.046     9 Jun 2027 16:21:07.724           259.678
                     148     9 Jun 2027 22:59:27.116     9 Jun 2027 23:02:29.762           182.646
                     149    10 Jun 2027 00:35:22.673    10 Jun 2027 00:41:22.279           359.606
                     150    10 Jun 2027 02:12:05.244    10 Jun 2027 02:18:21.610           376.366
                     151    10 Jun 2027 03:47:35.515    10 Jun 2027 03:54:45.742           430.227
                     152    10 Jun 2027 05:25:44.015    10 Jun 2027 05:26:43.910            59.895
                     153    10 Jun 2027 05:26:51.471    10 Jun 2027 05:31:56.037           304.566
                     154    10 Jun 2027 07:04:01.061    10 Jun 2027 07:07:49.991           228.930
                     155    10 Jun 2027 08:27:24.377    10 Jun 2027 08:30:32.682           188.305
                     156    10 Jun 2027 10:03:56.977    10 Jun 2027 10:07:29.093           212.116
                     157    10 Jun 2027 11:39:07.512    10 Jun 2027 11:45:43.400           395.887
                     158    10 Jun 2027 13:15:29.028    10 Jun 2027 13:21:41.032           372.004
                     159    10 Jun 2027 14:52:47.402    10 Jun 2027 14:57:23.670           276.268
                     160    10 Jun 2027 16:28:59.623    10 Jun 2027 16:33:43.246           283.623
                     161    10 Jun 2027 21:36:00.358    10 Jun 2027 21:36:14.044            13.686
                     162    10 Jun 2027 23:11:35.526    10 Jun 2027 23:14:43.202           187.675
                     163    11 Jun 2027 00:47:34.505    11 Jun 2027 00:53:04.245           329.740
                     164    11 Jun 2027 02:24:03.034    11 Jun 2027 02:30:15.473           372.440
                     165    11 Jun 2027 03:59:32.775    11 Jun 2027 04:06:25.325           412.550
                     166    11 Jun 2027 05:38:50.599    11 Jun 2027 05:43:57.934           307.335
                     167    11 Jun 2027 05:45:14.585    11 Jun 2027 05:46:47.057            92.472
                     168    11 Jun 2027 07:15:57.817    11 Jun 2027 07:16:38.836            41.019
                     169    11 Jun 2027 07:16:55.657    11 Jun 2027 07:19:34.057           158.400
                     170    11 Jun 2027 08:39:26.002    11 Jun 2027 08:42:38.017           192.015
                     171    11 Jun 2027 10:15:48.937    11 Jun 2027 10:19:52.157           243.221
                     172    11 Jun 2027 11:50:42.252    11 Jun 2027 11:57:51.062           428.810
                     173    11 Jun 2027 13:27:05.835    11 Jun 2027 13:33:29.718           383.884
                     174    11 Jun 2027 15:05:22.139    11 Jun 2027 15:09:13.633           231.494
                     175    11 Jun 2027 16:40:47.612    11 Jun 2027 16:44:52.318           244.706
                     176    11 Jun 2027 16:45:13.211    11 Jun 2027 16:46:11.814            58.602
                     177    11 Jun 2027 21:47:15.424    11 Jun 2027 21:49:13.125           117.701
                     178    11 Jun 2027 23:23:22.920    11 Jun 2027 23:26:44.791           201.871
                     179    12 Jun 2027 00:59:58.081    12 Jun 2027 01:05:36.103           338.022
                     180    12 Jun 2027 02:36:09.309    12 Jun 2027 02:42:57.388           408.079
                     181    12 Jun 2027 04:12:14.378    12 Jun 2027 04:18:38.280           383.902
                     182    12 Jun 2027 05:50:55.197    12 Jun 2027 05:58:32.033           456.836
                     183    12 Jun 2027 07:16:41.491    12 Jun 2027 07:17:36.518            55.027
                     184    12 Jun 2027 07:27:55.151    12 Jun 2027 07:29:34.988            99.837
                     185    12 Jun 2027 08:50:31.724    12 Jun 2027 08:55:10.272           278.548
                     186    12 Jun 2027 10:26:06.403    12 Jun 2027 10:26:52.476            46.072
                     187    12 Jun 2027 10:27:32.879    12 Jun 2027 10:32:07.890           275.010
                     188    12 Jun 2027 12:02:19.383    12 Jun 2027 12:09:55.989           456.606
                     189    12 Jun 2027 13:39:25.677    12 Jun 2027 13:45:47.074           381.397
                     190    12 Jun 2027 15:17:23.563    12 Jun 2027 15:21:18.989           235.427
                     191    12 Jun 2027 16:50:28.905    12 Jun 2027 16:57:05.703           396.798
                     192    12 Jun 2027 16:57:28.000    12 Jun 2027 16:58:28.590            60.590
                     193    12 Jun 2027 21:59:07.514    12 Jun 2027 22:01:52.207           164.693
                     194    12 Jun 2027 23:35:27.627    12 Jun 2027 23:38:50.857           203.231
                     195    13 Jun 2027 01:12:04.453    13 Jun 2027 01:18:18.254           373.801
                     196    13 Jun 2027 02:48:17.568    13 Jun 2027 02:54:52.416           394.848
                     197    13 Jun 2027 04:24:20.586    13 Jun 2027 04:30:25.256           364.670
                     198    13 Jun 2027 06:03:25.297    13 Jun 2027 06:10:32.818           427.521
                     199    13 Jun 2027 07:28:15.339    13 Jun 2027 07:29:49.118            93.780
                     200    13 Jun 2027 07:39:55.083    13 Jun 2027 07:40:56.491            61.407
                     201    13 Jun 2027 09:02:14.198    13 Jun 2027 09:03:20.666            66.468
                     202    13 Jun 2027 09:04:11.378    13 Jun 2027 09:07:24.293           192.916
                     203    13 Jun 2027 10:37:13.052    13 Jun 2027 10:39:06.395           113.343
                     204    13 Jun 2027 10:39:16.764    13 Jun 2027 10:44:20.545           303.781
                     205    13 Jun 2027 10:45:11.873    13 Jun 2027 10:45:31.157            19.284
                     206    13 Jun 2027 12:14:39.768    13 Jun 2027 12:21:57.730           437.962
                     207    13 Jun 2027 13:51:26.189    13 Jun 2027 13:57:54.402           388.214
                     208    13 Jun 2027 15:29:24.456    13 Jun 2027 15:33:22.941           238.485
                     209    13 Jun 2027 17:03:01.730    13 Jun 2027 17:10:27.789           446.059
                     210    13 Jun 2027 22:11:08.444    13 Jun 2027 22:13:55.236           166.792
                     211    13 Jun 2027 23:47:40.423    13 Jun 2027 23:51:05.697           205.274
                     212    13 Jun 2027 23:52:21.198    13 Jun 2027 23:55:09.928           168.730

Min Duration           4     1 Jun 2027 05:13:17.896     1 Jun 2027 05:13:20.708             2.812
Max Duration         127     8 Jun 2027 11:13:34.851     8 Jun 2027 11:21:45.735           490.884
Mean Duration                                                                              247.166
Total Duration                                                                           52399.125


Russia-To-KinoSat_112002
------------------------
                  Access        Start Time (UTCG)           Stop Time (UTCG)        Duration (sec)
                  ------    ------------------------    ------------------------    --------------
                       1     1 Jun 2027 00:13:22.146     1 Jun 2027 00:20:19.147           417.001
                       2     1 Jun 2027 01:50:05.449     1 Jun 2027 01:56:31.197           385.748
                       3     1 Jun 2027 03:25:34.963     1 Jun 2027 03:33:04.107           449.143
                       4     1 Jun 2027 05:03:52.500     1 Jun 2027 05:04:16.135            23.635
                       5     1 Jun 2027 05:04:29.332     1 Jun 2027 05:09:57.453           328.121
                       6     1 Jun 2027 06:42:05.000     1 Jun 2027 06:46:40.612           275.613
                       7     1 Jun 2027 08:05:28.483     1 Jun 2027 08:07:58.491           150.008
                       8     1 Jun 2027 09:41:51.181     1 Jun 2027 09:45:20.319           209.138
                       9     1 Jun 2027 11:15:46.983     1 Jun 2027 11:22:51.155           424.173
                      10     1 Jun 2027 11:22:52.348     1 Jun 2027 11:23:53.567            61.220
                      11     1 Jun 2027 12:52:57.525     1 Jun 2027 12:59:38.989           401.463
                      12     1 Jun 2027 14:29:57.490     1 Jun 2027 14:34:16.541           259.051
                      13     1 Jun 2027 14:34:17.485     1 Jun 2027 14:35:24.175            66.690
                      14     1 Jun 2027 16:06:43.742     1 Jun 2027 16:11:13.885           270.143
                      15     1 Jun 2027 17:44:53.708     1 Jun 2027 17:46:01.097            67.389
                      16     1 Jun 2027 22:49:30.148     1 Jun 2027 22:51:44.836           134.688
                      17     1 Jun 2027 22:53:07.522     1 Jun 2027 22:53:16.992             9.470
                      18     2 Jun 2027 00:25:26.736     2 Jun 2027 00:31:57.670           390.934
                      19     2 Jun 2027 02:02:08.348     2 Jun 2027 02:08:34.046           385.697
                      20     2 Jun 2027 03:37:41.665     2 Jun 2027 03:45:07.596           445.930
                      21     2 Jun 2027 05:15:56.235     2 Jun 2027 05:16:57.254            61.019
                      22     2 Jun 2027 05:17:02.954     2 Jun 2027 05:22:01.724           298.770
                      23     2 Jun 2027 06:54:57.590     2 Jun 2027 06:58:27.624           210.034
                      24     2 Jun 2027 08:17:20.933     2 Jun 2027 08:20:05.070           164.137
                      25     2 Jun 2027 09:53:54.744     2 Jun 2027 09:57:28.514           213.771
                      26     2 Jun 2027 11:29:03.716     2 Jun 2027 11:34:47.575           343.858
                      27     2 Jun 2027 11:34:51.110     2 Jun 2027 11:35:49.929            58.819
                      28     2 Jun 2027 13:05:23.911     2 Jun 2027 13:11:45.202           381.290
                      29     2 Jun 2027 14:42:58.262     2 Jun 2027 14:47:16.171           257.909
                      30     2 Jun 2027 16:19:01.244     2 Jun 2027 16:23:13.329           252.084
                      31     2 Jun 2027 23:01:35.530     2 Jun 2027 23:04:40.411           184.881
                      32     3 Jun 2027 00:37:31.175     3 Jun 2027 00:43:26.569           355.394
                      33     3 Jun 2027 02:14:13.840     3 Jun 2027 02:20:24.474           370.634
                      34     3 Jun 2027 03:49:39.904     3 Jun 2027 03:56:50.224           430.320
                      35     3 Jun 2027 05:27:53.008     3 Jun 2027 05:28:43.331            50.323
                      36     3 Jun 2027 05:28:59.721     3 Jun 2027 05:34:02.409           302.688
                      37     3 Jun 2027 07:06:08.197     3 Jun 2027 07:09:54.209           226.012
                      38     3 Jun 2027 08:29:30.601     3 Jun 2027 08:32:41.386           190.784
                      39     3 Jun 2027 10:06:05.682     3 Jun 2027 10:09:35.268           209.586
                      40     3 Jun 2027 11:41:15.837     3 Jun 2027 11:47:51.607           395.770
                      41     3 Jun 2027 13:17:36.554     3 Jun 2027 13:23:47.580           371.025
                      42     3 Jun 2027 14:54:53.344     3 Jun 2027 14:59:33.346           280.002
                      43     3 Jun 2027 16:31:05.913     3 Jun 2027 16:35:55.778           289.864
                      44     3 Jun 2027 21:38:02.269     3 Jun 2027 21:38:23.914            21.645
                      45     3 Jun 2027 23:13:43.704     3 Jun 2027 23:16:48.400           184.696
                      46     4 Jun 2027 00:49:43.280     4 Jun 2027 00:55:11.114           327.835
                      47     4 Jun 2027 02:26:11.953     4 Jun 2027 02:32:22.668           370.715
                      48     4 Jun 2027 04:01:41.106     4 Jun 2027 04:08:36.109           415.003
                      49     4 Jun 2027 05:40:58.716     4 Jun 2027 05:46:11.404           312.688
                      50     4 Jun 2027 05:47:18.936     4 Jun 2027 05:48:51.041            92.105
                      51     4 Jun 2027 07:18:04.928     4 Jun 2027 07:21:41.535           216.606
                      52     4 Jun 2027 08:42:03.538     4 Jun 2027 08:44:46.038           162.500
                      53     4 Jun 2027 10:17:53.532     4 Jun 2027 10:22:01.843           248.311
                      54     4 Jun 2027 11:52:45.756     4 Jun 2027 12:00:00.419           434.663
                      55     4 Jun 2027 13:29:15.915     4 Jun 2027 13:35:38.807           382.893
                      56     4 Jun 2027 15:07:33.590     4 Jun 2027 15:11:21.643           228.053
                      57     4 Jun 2027 16:42:59.428     4 Jun 2027 16:47:00.628           241.200
                      58     4 Jun 2027 16:47:22.149     4 Jun 2027 16:48:20.071            57.922
                      59     4 Jun 2027 21:49:18.770     4 Jun 2027 21:51:24.400           125.630
                      60     4 Jun 2027 23:25:30.870     4 Jun 2027 23:28:51.103           200.233
                      61     5 Jun 2027 01:02:07.373     5 Jun 2027 01:07:54.415           347.042
                      62     5 Jun 2027 02:38:19.365     5 Jun 2027 02:45:05.221           405.856
                      63     5 Jun 2027 04:14:21.905     5 Jun 2027 04:20:47.609           385.704
                      64     5 Jun 2027 05:53:07.497     5 Jun 2027 06:00:42.771           455.274
                      65     5 Jun 2027 07:18:44.089     5 Jun 2027 07:19:48.531            64.441
                      66     5 Jun 2027 07:30:03.251     5 Jun 2027 07:31:32.838            89.587
                      67     5 Jun 2027 08:52:38.771     5 Jun 2027 08:53:42.599            63.827
                      68     5 Jun 2027 08:53:55.994     5 Jun 2027 08:57:20.109           204.116
                      69     5 Jun 2027 10:28:09.770     5 Jun 2027 10:29:00.625            50.855
                      70     5 Jun 2027 10:29:38.714     5 Jun 2027 10:34:16.360           277.646
                      71     5 Jun 2027 12:04:29.935     5 Jun 2027 12:12:02.620           452.685
                      72     5 Jun 2027 13:41:36.024     5 Jun 2027 13:47:55.840           379.816
                      73     5 Jun 2027 15:19:31.558     5 Jun 2027 15:23:29.451           237.893
                      74     5 Jun 2027 16:52:37.475     5 Jun 2027 16:58:56.891           379.417
                      75     5 Jun 2027 16:59:39.389     5 Jun 2027 17:00:37.919            58.530
                      76     5 Jun 2027 22:01:15.963     5 Jun 2027 22:03:58.266           162.303
                      77     5 Jun 2027 23:37:36.480     5 Jun 2027 23:40:59.978           203.498
                      78     5 Jun 2027 23:43:31.433     5 Jun 2027 23:44:05.256            33.823
                      79     6 Jun 2027 01:14:10.396     6 Jun 2027 01:20:24.717           374.322
                      80     6 Jun 2027 02:50:25.993     6 Jun 2027 02:57:00.383           394.389
                      81     6 Jun 2027 04:26:29.678     6 Jun 2027 04:28:04.733            95.056
                      82     6 Jun 2027 04:28:05.048     6 Jun 2027 04:32:36.342           271.294
                      83     6 Jun 2027 06:05:33.484     6 Jun 2027 06:12:40.205           426.722
                      84     6 Jun 2027 07:30:22.747     6 Jun 2027 07:31:57.318            94.571
                      85     6 Jun 2027 07:42:02.735     6 Jun 2027 07:43:01.745            59.010
                      86     6 Jun 2027 09:04:21.330     6 Jun 2027 09:05:27.558            66.229
                      87     6 Jun 2027 09:06:16.372     6 Jun 2027 09:09:33.520           197.148
                      88     6 Jun 2027 10:39:17.200     6 Jun 2027 10:41:15.156           117.956
                      89     6 Jun 2027 10:41:23.229     6 Jun 2027 10:46:39.444           316.215
                      90     6 Jun 2027 10:47:18.775     6 Jun 2027 10:47:40.505            21.731
                      91     6 Jun 2027 12:16:47.592     6 Jun 2027 12:24:06.313           438.721
                      92     6 Jun 2027 13:53:32.420     6 Jun 2027 13:59:45.704           373.284
                      93     6 Jun 2027 13:59:50.661     6 Jun 2027 14:00:04.785            14.124
                      94     6 Jun 2027 15:31:31.270     6 Jun 2027 15:35:42.393           251.122
                      95     6 Jun 2027 17:05:08.786     6 Jun 2027 17:12:33.614           444.828
                      96     6 Jun 2027 22:13:17.904     6 Jun 2027 22:16:10.643           172.738
                      97     6 Jun 2027 23:49:49.178     6 Jun 2027 23:53:21.945           212.767
                      98     6 Jun 2027 23:54:31.832     6 Jun 2027 23:57:30.652           178.819
                      99     7 Jun 2027 01:26:21.899     7 Jun 2027 01:32:39.192           377.293
                     100     7 Jun 2027 03:01:53.312     7 Jun 2027 03:02:36.663            43.351
                     101     7 Jun 2027 03:02:42.919     7 Jun 2027 03:09:30.512           407.593
                     102     7 Jun 2027 04:38:56.925     7 Jun 2027 04:39:14.675            17.751
                     103     7 Jun 2027 04:39:22.458     7 Jun 2027 04:39:52.139            29.681
                     104     7 Jun 2027 04:39:57.041     7 Jun 2027 04:40:51.209            54.167
                     105     7 Jun 2027 04:40:53.355     7 Jun 2027 04:44:50.919           237.564
                     106     7 Jun 2027 06:17:38.481     7 Jun 2027 06:24:32.232           413.751
                     107     7 Jun 2027 07:41:56.491     7 Jun 2027 07:44:02.606           126.116
                     108     7 Jun 2027 07:54:18.380     7 Jun 2027 07:54:36.186            17.807
                     109     7 Jun 2027 09:15:53.463     7 Jun 2027 09:17:13.274            79.811
                     110     7 Jun 2027 09:17:48.399     7 Jun 2027 09:21:46.721           238.322
                     111     7 Jun 2027 10:50:46.722     7 Jun 2027 10:58:50.792           484.071
                     112     7 Jun 2027 10:59:11.797     7 Jun 2027 11:00:08.367            56.570
                     113     7 Jun 2027 12:28:42.098     7 Jun 2027 12:36:07.209           445.111
                     114     7 Jun 2027 14:05:27.594     7 Jun 2027 14:12:10.296           402.702
                     115     7 Jun 2027 15:43:19.671     7 Jun 2027 15:47:41.590           261.919
                     116     7 Jun 2027 17:19:17.825     7 Jun 2027 17:23:39.603           261.779
                     117     7 Jun 2027 22:25:24.621     7 Jun 2027 22:28:37.464           192.843
                     118     7 Jun 2027 22:28:50.268     7 Jun 2027 22:29:51.282            61.014
                     119     8 Jun 2027 00:01:45.737     8 Jun 2027 00:06:17.246           271.509
                     120     8 Jun 2027 00:06:33.729     8 Jun 2027 00:08:21.610           107.881
                     121     8 Jun 2027 01:38:19.354     8 Jun 2027 01:44:54.317           394.962
                     122     8 Jun 2027 03:13:51.451     8 Jun 2027 03:21:37.143           465.693
                     123     8 Jun 2027 04:51:33.027     8 Jun 2027 04:51:45.445            12.418
                     124     8 Jun 2027 04:51:55.983     8 Jun 2027 04:52:56.420            60.437
                     125     8 Jun 2027 04:53:04.677     8 Jun 2027 04:53:32.077            27.401
                     126     8 Jun 2027 04:53:41.881     8 Jun 2027 04:57:08.471           206.590
                     127     8 Jun 2027 06:30:04.097     8 Jun 2027 06:35:05.279           301.181
                     128     8 Jun 2027 07:53:52.541     8 Jun 2027 07:56:09.489           136.948
                     129     8 Jun 2027 09:29:52.535     8 Jun 2027 09:33:46.609           234.074
                     130     8 Jun 2027 11:03:40.344     8 Jun 2027 11:10:59.396           439.052
                     131     8 Jun 2027 11:11:11.659     8 Jun 2027 11:12:11.980            60.321
                     132     8 Jun 2027 12:40:53.098     8 Jun 2027 12:48:08.322           435.223
                     133     8 Jun 2027 14:18:06.262     8 Jun 2027 14:22:36.098           269.837
                     134     8 Jun 2027 14:22:45.838     8 Jun 2027 14:23:57.307            71.469
                     135     8 Jun 2027 15:54:47.039     8 Jun 2027 15:59:38.295           291.256
                     136     8 Jun 2027 17:30:00.664     8 Jun 2027 17:30:13.782            13.118
                     137     8 Jun 2027 17:31:46.792     8 Jun 2027 17:34:41.058           174.267
                     138     8 Jun 2027 22:37:45.612     8 Jun 2027 22:40:13.481           147.869
                     139     8 Jun 2027 22:40:35.159     8 Jun 2027 22:42:41.210           126.051
                     140     9 Jun 2027 00:13:40.195     9 Jun 2027 00:20:33.446           413.251
                     141     9 Jun 2027 01:50:23.127     9 Jun 2027 01:56:49.358           386.231
                     142     9 Jun 2027 03:25:53.691     9 Jun 2027 03:33:21.731           448.040
                     143     9 Jun 2027 05:04:06.150     9 Jun 2027 05:04:32.905            26.754
                     144     9 Jun 2027 05:04:43.876     9 Jun 2027 05:10:15.596           331.720
                     145     9 Jun 2027 06:42:22.794     9 Jun 2027 06:46:56.632           273.839
                     146     9 Jun 2027 08:05:45.137     9 Jun 2027 08:08:19.999           154.862
                     147     9 Jun 2027 09:42:06.210     9 Jun 2027 09:45:36.857           210.647
                     148     9 Jun 2027 11:16:10.244     9 Jun 2027 11:23:09.042           418.798
                     149     9 Jun 2027 11:23:10.089     9 Jun 2027 11:24:11.355            61.266
                     150     9 Jun 2027 12:53:15.962     9 Jun 2027 12:59:56.288           400.326
                     151     9 Jun 2027 14:30:13.563     9 Jun 2027 14:35:39.231           325.668
                     152     9 Jun 2027 16:07:00.017     9 Jun 2027 16:11:32.098           272.081
                     153     9 Jun 2027 17:45:11.508     9 Jun 2027 17:46:12.227            60.719
                     154     9 Jun 2027 22:49:48.224     9 Jun 2027 22:52:03.908           135.684
                     155    10 Jun 2027 00:25:44.980    10 Jun 2027 00:32:17.103           392.123
                     156    10 Jun 2027 02:02:26.788    10 Jun 2027 02:08:55.294           388.506
                     157    10 Jun 2027 03:37:59.340    10 Jun 2027 03:45:31.603           452.262
                     158    10 Jun 2027 05:16:12.439    10 Jun 2027 05:17:14.199            61.760
                     159    10 Jun 2027 05:17:20.223    10 Jun 2027 05:22:24.572           304.348
                     160    10 Jun 2027 06:55:15.771    10 Jun 2027 06:58:48.609           212.837
                     161    10 Jun 2027 08:17:47.084    10 Jun 2027 08:20:22.293           155.209
                     162    10 Jun 2027 09:54:12.967    10 Jun 2027 09:57:46.025           213.058
                     163    10 Jun 2027 11:29:21.290    10 Jun 2027 11:35:06.168           344.878
                     164    10 Jun 2027 11:35:08.504    10 Jun 2027 11:36:08.406            59.902
                     165    10 Jun 2027 13:05:42.303    10 Jun 2027 13:12:03.774           381.472
                     166    10 Jun 2027 14:43:15.836    10 Jun 2027 14:47:37.364           261.527
                     167    10 Jun 2027 16:19:19.494    10 Jun 2027 16:23:30.398           250.904
                     168    10 Jun 2027 23:01:55.051    10 Jun 2027 23:04:58.092           183.042
                     169    11 Jun 2027 00:37:49.916    11 Jun 2027 00:43:40.658           350.742
                     170    11 Jun 2027 02:14:31.736    11 Jun 2027 02:20:42.105           370.369
                     171    11 Jun 2027 03:49:57.834    11 Jun 2027 03:57:05.761           427.927
                     172    11 Jun 2027 05:28:11.681    11 Jun 2027 05:28:56.754            45.073
                     173    11 Jun 2027 05:29:17.785    11 Jun 2027 05:34:18.934           301.148
                     174    11 Jun 2027 07:06:24.989    11 Jun 2027 07:10:04.594           219.605
                     175    11 Jun 2027 08:29:46.888    11 Jun 2027 08:33:00.234           193.345
                     176    11 Jun 2027 10:06:23.524    11 Jun 2027 10:09:51.542           208.018
                     177    11 Jun 2027 11:41:33.517    11 Jun 2027 11:48:09.482           395.965
                     178    11 Jun 2027 13:17:50.786    11 Jun 2027 13:24:04.817           374.031
                     179    11 Jun 2027 14:55:21.980    11 Jun 2027 14:59:52.697           270.718
                     180    11 Jun 2027 16:31:23.245    11 Jun 2027 16:35:34.484           251.239
                     181    11 Jun 2027 16:35:39.494    11 Jun 2027 16:36:15.556            36.062
                     182    11 Jun 2027 21:38:15.727    11 Jun 2027 21:38:45.020            29.293
                     183    11 Jun 2027 23:14:01.286    11 Jun 2027 23:17:00.570           179.284
                     184    12 Jun 2027 00:50:01.705    12 Jun 2027 00:55:28.041           326.336
                     185    12 Jun 2027 02:26:30.626    12 Jun 2027 02:32:44.957           374.331
                     186    12 Jun 2027 04:01:59.493    12 Jun 2027 04:02:21.774            22.282
                     187    12 Jun 2027 04:02:24.319    12 Jun 2027 04:08:57.333           393.014
                     188    12 Jun 2027 05:41:17.004    12 Jun 2027 05:46:31.282           314.279
                     189    12 Jun 2027 05:47:32.812    12 Jun 2027 05:49:07.033            94.221
                     190    12 Jun 2027 07:07:39.982    12 Jun 2027 07:07:43.342             3.361
                     191    12 Jun 2027 07:18:22.818    12 Jun 2027 07:21:58.785           215.967
                     192    12 Jun 2027 08:42:23.303    12 Jun 2027 08:45:04.785           161.482
                     193    12 Jun 2027 10:18:07.868    12 Jun 2027 10:22:20.546           252.678
                     194    12 Jun 2027 11:53:00.509    12 Jun 2027 12:00:18.945           438.436
                     195    12 Jun 2027 13:29:34.433    12 Jun 2027 13:35:57.666           383.232
                     196    12 Jun 2027 15:07:51.840    12 Jun 2027 15:11:46.070           234.230
                     197    12 Jun 2027 16:41:52.631    12 Jun 2027 16:42:38.052            45.421
                     198    12 Jun 2027 16:43:12.566    12 Jun 2027 16:47:21.213           248.647
                     199    12 Jun 2027 16:47:41.132    12 Jun 2027 16:48:40.127            58.995
                     200    12 Jun 2027 21:49:35.415    12 Jun 2027 21:51:47.075           131.661
                     201    12 Jun 2027 23:25:48.888    12 Jun 2027 23:29:12.248           203.360
                     202    13 Jun 2027 01:02:27.299    13 Jun 2027 01:08:34.759           367.460
                     203    13 Jun 2027 02:38:38.980    13 Jun 2027 02:45:23.009           404.028
                     204    13 Jun 2027 04:14:40.089    13 Jun 2027 04:21:06.947           386.858
                     205    13 Jun 2027 05:53:37.829    13 Jun 2027 06:01:02.231           444.402
                     206    13 Jun 2027 07:18:57.319    13 Jun 2027 07:20:07.458            70.139
                     207    13 Jun 2027 07:30:21.612    13 Jun 2027 07:31:49.472            87.860
                     208    13 Jun 2027 08:52:59.420    13 Jun 2027 08:53:59.769            60.350
                     209    13 Jun 2027 08:54:32.281    13 Jun 2027 08:57:39.072           186.791
                     210    13 Jun 2027 10:28:22.099    13 Jun 2027 10:29:18.478            56.380
                     211    13 Jun 2027 10:29:53.541    13 Jun 2027 10:34:35.785           282.244
                     212    13 Jun 2027 12:04:49.520    13 Jun 2027 12:12:20.072           450.552
                     213    13 Jun 2027 13:41:56.445    13 Jun 2027 13:47:58.120           361.675
                     214    13 Jun 2027 13:48:00.425    13 Jun 2027 13:48:13.587            13.162
                     215    13 Jun 2027 15:19:49.995    13 Jun 2027 15:23:47.809           237.814
                     216    13 Jun 2027 16:52:57.290    13 Jun 2027 16:59:16.571           379.281
                     217    13 Jun 2027 16:59:45.147    13 Jun 2027 17:00:56.815            71.668
                     218    13 Jun 2027 22:01:33.657    13 Jun 2027 22:04:13.737           160.080
                     219    13 Jun 2027 23:37:55.636    13 Jun 2027 23:41:18.660           203.023
                     220    13 Jun 2027 23:43:08.333    13 Jun 2027 23:44:28.457            80.123

Min Duration         190    12 Jun 2027 07:07:39.982    12 Jun 2027 07:07:43.342             3.361
Max Duration         111     7 Jun 2027 10:50:46.722     7 Jun 2027 10:58:50.792           484.071
Mean Duration                                                                              235.216
Total Duration                                                                           51747.415


Russia-To-KinoSat_112003
------------------------
                  Access        Start Time (UTCG)           Stop Time (UTCG)        Duration (sec)
                  ------    ------------------------    ------------------------    --------------
                       1     1 Jun 2027 00:03:52.794     1 Jun 2027 00:08:28.836           276.042
                       2     1 Jun 2027 00:08:42.258     1 Jun 2027 00:10:32.936           110.679
                       3     1 Jun 2027 00:11:18.299     1 Jun 2027 00:11:55.664            37.364
                       4     1 Jun 2027 01:40:27.515     1 Jun 2027 01:47:02.751           395.236
                       5     1 Jun 2027 03:15:59.213     1 Jun 2027 03:23:45.361           466.148
                       6     1 Jun 2027 04:53:42.717     1 Jun 2027 04:53:52.797            10.080
                       7     1 Jun 2027 04:54:04.819     1 Jun 2027 04:55:06.441            61.622
                       8     1 Jun 2027 04:55:11.740     1 Jun 2027 04:55:48.502            36.762
                       9     1 Jun 2027 04:55:50.252     1 Jun 2027 04:59:18.914           208.662
                      10     1 Jun 2027 06:32:15.969     1 Jun 2027 06:37:09.530           293.561
                      11     1 Jun 2027 07:56:01.330     1 Jun 2027 07:58:16.810           135.480
                      12     1 Jun 2027 09:32:00.449     1 Jun 2027 09:35:53.681           233.232
                      13     1 Jun 2027 11:05:45.570     1 Jun 2027 11:13:08.240           442.670
                      14     1 Jun 2027 11:13:11.092     1 Jun 2027 11:14:19.859            68.767
                      15     1 Jun 2027 12:43:09.880     1 Jun 2027 12:50:15.940           426.059
                      16     1 Jun 2027 14:20:13.841     1 Jun 2027 14:24:43.186           269.345
                      17     1 Jun 2027 14:24:52.922     1 Jun 2027 14:26:04.696            71.774
                      18     1 Jun 2027 15:56:58.490     1 Jun 2027 16:01:46.773           288.282
                      19     1 Jun 2027 17:32:15.028     1 Jun 2027 17:32:23.018             7.990
                      20     1 Jun 2027 17:33:55.618     1 Jun 2027 17:36:47.579           171.960
                      21     1 Jun 2027 22:39:49.726     1 Jun 2027 22:42:22.436           152.710
                      22     1 Jun 2027 22:42:53.482     1 Jun 2027 22:44:41.276           107.794
                      23     2 Jun 2027 00:15:48.628     2 Jun 2027 00:22:33.373           404.745
                      24     2 Jun 2027 01:52:31.532     2 Jun 2027 01:58:54.942           383.410
                      25     2 Jun 2027 03:28:03.474     2 Jun 2027 03:35:32.291           448.817
                      26     2 Jun 2027 05:06:10.837     2 Jun 2027 05:06:39.336            28.499
                      27     2 Jun 2027 05:06:45.441     2 Jun 2027 05:12:23.025           337.584
                      28     2 Jun 2027 06:44:11.554     2 Jun 2027 06:49:04.723           293.169
                      29     2 Jun 2027 08:07:52.969     2 Jun 2027 08:10:28.136           155.167
                      30     2 Jun 2027 09:44:15.137     2 Jun 2027 09:47:46.375           211.239
                      31     2 Jun 2027 11:18:19.322     2 Jun 2027 11:25:13.073           413.751
                      32     2 Jun 2027 11:25:17.551     2 Jun 2027 11:26:18.767            61.216
                      33     2 Jun 2027 12:55:23.871     2 Jun 2027 13:02:06.049           402.179
                      34     2 Jun 2027 14:32:19.708     2 Jun 2027 14:37:19.712           300.004
                      35     2 Jun 2027 16:09:06.236     2 Jun 2027 16:13:46.900           280.665
                      36     2 Jun 2027 17:47:18.550     2 Jun 2027 17:48:16.915            58.365
                      37     2 Jun 2027 22:51:57.002     2 Jun 2027 22:54:14.261           137.259
                      38     3 Jun 2027 00:27:53.042     3 Jun 2027 00:34:25.079           392.036
                      39     3 Jun 2027 02:04:34.216     3 Jun 2027 02:11:04.016           389.800
                      40     3 Jun 2027 03:40:06.838     3 Jun 2027 03:47:41.534           454.697
                      41     3 Jun 2027 05:18:17.072     3 Jun 2027 05:19:20.746            63.674
                      42     3 Jun 2027 05:19:27.581     3 Jun 2027 05:24:34.700           307.119
                      43     3 Jun 2027 06:57:25.329     3 Jun 2027 07:00:58.600           213.272
                      44     3 Jun 2027 08:19:56.894     3 Jun 2027 08:22:35.297           158.403
                      45     3 Jun 2027 09:56:26.076     3 Jun 2027 09:59:54.156           208.081
                      46     3 Jun 2027 11:31:31.303     3 Jun 2027 11:37:15.281           343.978
                      47     3 Jun 2027 11:37:15.418     3 Jun 2027 11:38:18.006            62.588
                      48     3 Jun 2027 13:07:53.558     3 Jun 2027 13:14:12.532           378.975
                      49     3 Jun 2027 14:45:23.362     3 Jun 2027 14:49:47.894           264.532
                      50     3 Jun 2027 16:21:28.264     3 Jun 2027 16:25:42.187           253.922
                      51     3 Jun 2027 23:04:03.771     3 Jun 2027 23:07:05.039           181.267
                      52     4 Jun 2027 00:39:58.595     4 Jun 2027 00:45:44.164           345.569
                      53     4 Jun 2027 02:16:40.266     4 Jun 2027 02:22:50.996           370.729
                      54     4 Jun 2027 03:52:05.208     4 Jun 2027 03:59:10.187           424.979
                      55     4 Jun 2027 05:30:20.729     4 Jun 2027 05:31:01.631            40.902
                      56     4 Jun 2027 05:31:25.191     4 Jun 2027 05:36:28.191           303.001
                      57     4 Jun 2027 07:08:32.879     4 Jun 2027 07:09:10.769            37.890
                      58     4 Jun 2027 07:09:24.253     4 Jun 2027 07:12:07.082           162.829
                      59     4 Jun 2027 08:32:02.349     4 Jun 2027 08:35:09.008           186.660
                      60     4 Jun 2027 10:08:31.073     4 Jun 2027 10:11:58.027           206.954
                      61     4 Jun 2027 11:43:41.349     4 Jun 2027 11:50:17.555           396.206
                      62     4 Jun 2027 13:19:54.567     4 Jun 2027 13:25:45.872           351.304
                      63     4 Jun 2027 13:25:53.987     4 Jun 2027 13:26:04.693            10.706
                      64     4 Jun 2027 14:57:29.423     4 Jun 2027 15:02:01.252           271.829
                      65     4 Jun 2027 16:33:30.852     4 Jun 2027 16:37:42.747           251.896
                      66     4 Jun 2027 16:37:46.951     4 Jun 2027 16:38:29.228            42.277
                      67     4 Jun 2027 21:40:17.953     4 Jun 2027 21:41:29.376            71.423
                      68     4 Jun 2027 23:16:00.744     4 Jun 2027 23:19:09.300           188.557
                      69     5 Jun 2027 00:52:11.200     5 Jun 2027 00:57:36.683           325.483
                      70     5 Jun 2027 02:28:39.053     5 Jun 2027 02:34:59.520           380.467
                      71     5 Jun 2027 04:04:07.970     5 Jun 2027 04:11:09.278           421.308
                      72     5 Jun 2027 05:43:25.542     5 Jun 2027 05:48:42.469           316.927
                      73     5 Jun 2027 05:49:37.738     5 Jun 2027 05:51:13.941            96.203
                      74     5 Jun 2027 07:09:43.573     5 Jun 2027 07:09:56.637            13.065
                      75     5 Jun 2027 07:20:30.246     5 Jun 2027 07:24:00.451           210.205
                      76     5 Jun 2027 08:44:29.451     5 Jun 2027 08:47:13.070           163.619
                      77     5 Jun 2027 10:20:15.321     5 Jun 2027 10:24:28.817           253.496
                      78     5 Jun 2027 11:55:01.597     5 Jun 2027 12:02:27.113           445.517
                      79     5 Jun 2027 13:31:42.213     5 Jun 2027 13:38:05.867           383.653
                      80     5 Jun 2027 15:09:59.889     5 Jun 2027 15:13:54.584           234.696
                      81     5 Jun 2027 16:43:19.089     5 Jun 2027 16:43:51.073            31.985
                      82     5 Jun 2027 16:45:19.415     5 Jun 2027 16:49:30.994           251.578
                      83     5 Jun 2027 16:49:50.785     5 Jun 2027 16:50:49.170            58.386
                      84     5 Jun 2027 21:51:42.598     5 Jun 2027 21:53:58.946           136.348
                      85     5 Jun 2027 23:27:56.989     5 Jun 2027 23:31:21.291           204.302
                      86     6 Jun 2027 01:04:37.635     6 Jun 2027 01:10:44.253           366.618
                      87     6 Jun 2027 02:40:47.759     6 Jun 2027 02:47:31.581           403.821
                      88     6 Jun 2027 04:16:48.420     6 Jun 2027 04:23:12.275           383.856
                      89     6 Jun 2027 05:55:46.862     6 Jun 2027 06:03:08.888           442.026
                      90     6 Jun 2027 07:20:59.533     6 Jun 2027 07:22:16.118            76.586
                      91     6 Jun 2027 07:32:31.125     6 Jun 2027 07:33:56.897            85.772
                      92     6 Jun 2027 08:55:08.477     6 Jun 2027 08:56:07.203            58.726
                      93     6 Jun 2027 08:56:44.120     6 Jun 2027 08:59:47.997           183.877
                      94     6 Jun 2027 10:30:19.866     6 Jun 2027 10:31:28.764            68.898
                      95     6 Jun 2027 10:31:59.453     6 Jun 2027 10:36:45.784           286.330
                      96     6 Jun 2027 12:07:01.079     6 Jun 2027 12:14:28.453           447.373
                      97     6 Jun 2027 13:44:03.642     6 Jun 2027 13:49:53.218           349.576
                      98     6 Jun 2027 13:49:54.562     6 Jun 2027 13:50:20.084            25.522
                      99     6 Jun 2027 15:21:57.777     6 Jun 2027 15:25:57.399           239.621
                     100     6 Jun 2027 16:55:13.495     6 Jun 2027 17:01:31.285           377.790
                     101     6 Jun 2027 17:01:51.137     6 Jun 2027 17:03:01.893            70.756
                     102     6 Jun 2027 22:03:41.656     6 Jun 2027 22:06:19.932           158.276
                     103     6 Jun 2027 23:40:04.944     6 Jun 2027 23:43:27.529           202.585
                     104     6 Jun 2027 23:45:05.814     6 Jun 2027 23:46:48.792           102.978
                     105     7 Jun 2027 01:16:54.811     7 Jun 2027 01:22:53.804           358.994
                     106     7 Jun 2027 02:52:48.821     7 Jun 2027 02:59:29.217           400.396
                     107     7 Jun 2027 04:29:04.461     7 Jun 2027 04:35:00.481           356.020
                     108     7 Jun 2027 06:08:03.477     7 Jun 2027 06:15:04.742           421.266
                     109     7 Jun 2027 07:32:16.024     7 Jun 2027 07:34:26.000           129.975
                     110     7 Jun 2027 07:44:28.673     7 Jun 2027 07:45:24.151            55.478
                     111     7 Jun 2027 09:06:44.219     7 Jun 2027 09:07:50.704            66.485
                     112     7 Jun 2027 09:08:39.923     7 Jun 2027 09:12:02.259           202.336
                     113     7 Jun 2027 10:41:36.618     7 Jun 2027 10:43:43.467           126.849
                     114     7 Jun 2027 10:43:47.484     7 Jun 2027 10:48:58.937           311.453
                     115     7 Jun 2027 10:49:42.896     7 Jun 2027 10:50:07.897            25.001
                     116     7 Jun 2027 12:19:11.257     7 Jun 2027 12:26:32.625           441.368
                     117     7 Jun 2027 13:55:54.071     7 Jun 2027 14:01:09.482           315.411
                     118     7 Jun 2027 14:01:10.887     7 Jun 2027 14:02:09.012            58.126
                     119     7 Jun 2027 14:02:13.585     7 Jun 2027 14:02:32.523            18.938
                     120     7 Jun 2027 15:33:58.217     7 Jun 2027 15:38:07.742           249.525
                     121     7 Jun 2027 17:07:40.955     7 Jun 2027 17:14:59.041           438.086
                     122     7 Jun 2027 22:15:45.769     7 Jun 2027 22:18:37.032           171.264
                     123     7 Jun 2027 23:52:12.693     7 Jun 2027 23:56:02.783           230.091
                     124     7 Jun 2027 23:56:57.576     8 Jun 2027 00:00:04.398           186.822
                     125     8 Jun 2027 01:28:45.491     8 Jun 2027 01:35:08.104           382.614
                     126     8 Jun 2027 03:04:17.805     8 Jun 2027 03:12:01.278           463.472
                     127     8 Jun 2027 04:41:23.801     8 Jun 2027 04:41:36.870            13.069
                     128     8 Jun 2027 04:41:51.171     8 Jun 2027 04:47:20.237           329.066
                     129     8 Jun 2027 06:20:10.338     8 Jun 2027 06:26:57.289           406.951
                     130     8 Jun 2027 07:44:22.062     8 Jun 2027 07:46:16.036           113.975
                     131     8 Jun 2027 07:56:53.796     8 Jun 2027 07:56:55.479             1.684
                     132     8 Jun 2027 09:18:12.675     8 Jun 2027 09:19:35.958            83.283
                     133     8 Jun 2027 09:20:15.614     8 Jun 2027 09:24:15.016           239.402
                     134     8 Jun 2027 10:53:06.594     8 Jun 2027 11:01:17.625           491.031
                     135     8 Jun 2027 11:01:37.772     8 Jun 2027 11:02:35.990            58.217
                     136     8 Jun 2027 12:31:06.433     8 Jun 2027 12:38:33.850           447.417
                     137     8 Jun 2027 14:08:02.679     8 Jun 2027 14:13:23.840           321.161
                     138     8 Jun 2027 14:13:42.699     8 Jun 2027 14:14:34.228            51.529
                     139     8 Jun 2027 15:45:14.983     8 Jun 2027 15:50:06.661           291.678
                     140     8 Jun 2027 17:21:46.981     8 Jun 2027 17:25:18.675           211.693
                     141     8 Jun 2027 22:28:10.999     8 Jun 2027 22:32:39.476           268.477
                     142     9 Jun 2027 00:04:06.902     9 Jun 2027 00:08:52.641           285.739
                     143     9 Jun 2027 00:09:01.685     9 Jun 2027 00:10:51.894           110.209
                     144     9 Jun 2027 00:11:36.041     9 Jun 2027 00:12:22.561            46.520
                     145     9 Jun 2027 01:40:45.983     9 Jun 2027 01:47:19.975           393.992
                     146     9 Jun 2027 03:16:16.940     9 Jun 2027 03:24:04.040           467.100
                     147     9 Jun 2027 04:54:01.683     9 Jun 2027 04:54:08.705             7.022
                     148     9 Jun 2027 04:54:23.093     9 Jun 2027 04:54:31.733             8.640
                     149     9 Jun 2027 04:54:33.151     9 Jun 2027 04:55:24.336            51.185
                     150     9 Jun 2027 04:55:29.188     9 Jun 2027 04:59:38.274           249.086
                     151     9 Jun 2027 06:32:47.878     9 Jun 2027 06:37:28.711           280.833
                     152     9 Jun 2027 07:56:18.183     9 Jun 2027 07:58:34.482           136.299
