DATA_Files/Russia2Constellation/AreaTarget-Russia-To-Satellite-KinoSat_12_plane.txt

                                                                                                                                                                                                                                                                                           10 May 2023 22:25:24
Civil Air Patrol Use Only
AreaTarget-Russia-To-Satellite-KinoSat_111201, Satellite-KinoSat_111202, Satellite-KinoSat_111203, Satellite-KinoSat_111204, Satellite-KinoSat_111205, Satellite-KinoSat_111206, Satellite-KinoSat_111207, Satellite-KinoSat_111208, Satellite-KinoSat_111209, Satellite-KinoSat_111210:  Access Summary Report


Russia-To-KinoSat_111201
------------------------
                  Access        Start Time (UTCG)           Stop Time (UTCG)        Duration (sec)
                  ------    ------------------------    ------------------------    --------------
                       1     1 Jun 2027 00:54:22.794     1 Jun 2027 01:00:48.261           385.466
                       2     1 Jun 2027 02:33:07.393     1 Jun 2027 02:40:43.822           456.429
                       3     1 Jun 2027 03:58:34.346     1 Jun 2027 03:59:50.329            75.982
                       4     1 Jun 2027 04:10:03.584     1 Jun 2027 04:11:42.361            98.777
                       5     1 Jun 2027 05:32:42.883     1 Jun 2027 05:33:41.871            58.988
                       6     1 Jun 2027 05:34:18.598     1 Jun 2027 05:37:22.403           183.805
                       7     1 Jun 2027 07:08:02.981     1 Jun 2027 07:09:01.580            58.599
                       8     1 Jun 2027 07:09:34.813     1 Jun 2027 07:14:20.723           285.910
                       9     1 Jun 2027 08:44:32.932     1 Jun 2027 08:52:02.893           449.961
                      10     1 Jun 2027 10:21:37.706     1 Jun 2027 10:27:27.673           349.968
                      11     1 Jun 2027 10:27:29.144     1 Jun 2027 10:27:50.380            21.236
                      12     1 Jun 2027 11:59:31.940     1 Jun 2027 12:03:31.497           239.556
                      13     1 Jun 2027 13:32:40.730     1 Jun 2027 13:39:03.801           383.071
                      14     1 Jun 2027 13:39:42.606     1 Jun 2027 13:40:35.465            52.858
                      15     1 Jun 2027 18:41:16.204     1 Jun 2027 18:43:58.398           162.195
                      16     1 Jun 2027 20:17:36.192     1 Jun 2027 20:21:00.156           203.964
                      17     1 Jun 2027 20:23:28.674     1 Jun 2027 20:24:07.613            38.940
                      18     1 Jun 2027 21:54:11.415     1 Jun 2027 22:00:24.614           373.199
                      19     1 Jun 2027 23:30:25.888     1 Jun 2027 23:37:00.383           394.494
                      20     2 Jun 2027 01:06:28.664     2 Jun 2027 01:12:36.336           367.672
                      21     2 Jun 2027 02:45:33.302     2 Jun 2027 02:52:39.861           426.559
                      22     2 Jun 2027 04:09:50.462     2 Jun 2027 04:12:00.039           129.577
                      23     2 Jun 2027 04:22:02.841     2 Jun 2027 04:23:02.786            59.944
                      24     2 Jun 2027 05:44:18.814     2 Jun 2027 05:45:25.437            66.623
                      25     2 Jun 2027 05:46:14.357     2 Jun 2027 05:49:36.410           202.053
                      26     2 Jun 2027 07:19:12.512     2 Jun 2027 07:21:15.456           122.944
                      27     2 Jun 2027 07:21:21.910     2 Jun 2027 07:26:33.732           311.821
                      28     2 Jun 2027 07:27:14.845     2 Jun 2027 07:27:41.932            27.086
                      29     2 Jun 2027 08:56:46.260     2 Jun 2027 09:04:06.231           439.972
                      30     2 Jun 2027 10:33:28.784     2 Jun 2027 10:38:43.268           314.484
                      31     2 Jun 2027 10:38:44.876     2 Jun 2027 10:39:42.545            57.669
                      32     2 Jun 2027 10:39:46.848     2 Jun 2027 10:40:06.580            19.732
                      33     2 Jun 2027 12:11:31.931     2 Jun 2027 12:15:41.512           249.581
                      34     2 Jun 2027 13:45:09.371     2 Jun 2027 13:52:32.792           443.421
                      35     2 Jun 2027 18:53:16.936     2 Jun 2027 18:56:10.187           173.251
                      36     2 Jun 2027 20:29:48.802     2 Jun 2027 20:33:21.768           212.966
                      37     2 Jun 2027 20:34:31.920     2 Jun 2027 20:37:31.284           179.365
                      38     2 Jun 2027 22:06:22.233     2 Jun 2027 22:12:39.556           377.323
                      39     2 Jun 2027 23:41:53.905     2 Jun 2027 23:42:33.697            39.791
                      40     2 Jun 2027 23:42:41.431     2 Jun 2027 23:49:30.462           409.031
                      41     3 Jun 2027 01:18:48.823     3 Jun 2027 01:19:15.120            26.297
                      42     3 Jun 2027 01:19:21.997     3 Jun 2027 01:19:51.880            29.884
                      43     3 Jun 2027 01:19:57.384     3 Jun 2027 01:20:51.144            53.760
                      44     3 Jun 2027 01:20:53.469     3 Jun 2027 01:24:50.770           237.301
                      45     3 Jun 2027 02:57:37.053     3 Jun 2027 03:04:31.713           414.660
                      46     3 Jun 2027 04:21:56.197     3 Jun 2027 04:23:49.643           113.446
                      47     3 Jun 2027 04:34:16.620     3 Jun 2027 04:34:37.083            20.463
                      48     3 Jun 2027 05:55:48.028     3 Jun 2027 05:57:11.236            83.208
                      49     3 Jun 2027 05:57:48.168     3 Jun 2027 06:01:48.709           240.542
                      50     3 Jun 2027 07:30:43.217     3 Jun 2027 07:38:51.100           487.883
                      51     3 Jun 2027 07:39:11.400     3 Jun 2027 07:40:09.520            58.120
                      52     3 Jun 2027 09:08:40.267     3 Jun 2027 09:16:08.095           447.828
                      53     3 Jun 2027 10:45:34.633     3 Jun 2027 10:50:57.588           322.956
                      54     3 Jun 2027 10:51:16.205     3 Jun 2027 10:52:07.174            50.969
                      55     3 Jun 2027 12:23:18.368     3 Jun 2027 12:27:40.221           261.853
                      56     3 Jun 2027 13:59:17.872     3 Jun 2027 14:02:53.407           215.535
                      57     3 Jun 2027 19:05:23.773     3 Jun 2027 19:08:36.764           192.991
                      58     3 Jun 2027 19:08:49.493     3 Jun 2027 19:09:51.080            61.587
                      59     3 Jun 2027 20:41:44.867     3 Jun 2027 20:46:16.832           271.965
                      60     3 Jun 2027 20:46:33.299     3 Jun 2027 20:48:21.814           108.515
                      61     3 Jun 2027 20:49:10.105     3 Jun 2027 20:49:46.389            36.284
                      62     3 Jun 2027 22:18:18.533     3 Jun 2027 22:24:53.877           395.344
                      63     3 Jun 2027 23:53:51.289     4 Jun 2027 00:01:36.645           465.356
                      64     4 Jun 2027 01:31:31.601     4 Jun 2027 01:31:45.271            13.670
                      65     4 Jun 2027 01:31:54.949     4 Jun 2027 01:32:55.995            61.046
                      66     4 Jun 2027 01:33:05.415     4 Jun 2027 01:33:21.731            16.316
                      67     4 Jun 2027 01:33:41.383     4 Jun 2027 01:37:08.047           206.664
                      68     4 Jun 2027 03:10:03.223     4 Jun 2027 03:15:04.538           301.315
                      69     4 Jun 2027 04:33:52.049     4 Jun 2027 04:36:07.717           135.667
                      70     4 Jun 2027 06:09:51.842     4 Jun 2027 06:13:43.276           231.434
                      71     4 Jun 2027 07:43:36.706     4 Jun 2027 07:52:10.994           514.288
                      72     4 Jun 2027 09:21:01.251     4 Jun 2027 09:28:06.074           424.824
                      73     4 Jun 2027 10:58:05.033     4 Jun 2027 11:02:34.371           269.338
                      74     4 Jun 2027 11:02:42.189     4 Jun 2027 11:03:55.523            73.334
                      75     4 Jun 2027 12:34:49.852     4 Jun 2027 12:39:38.191           288.339
                      76     4 Jun 2027 14:10:06.218     4 Jun 2027 14:10:14.294             8.076
                      77     4 Jun 2027 14:11:47.184     4 Jun 2027 14:14:38.164           170.980
                      78     4 Jun 2027 19:17:45.110     4 Jun 2027 19:20:09.150           144.041
                      79     4 Jun 2027 19:20:33.901     4 Jun 2027 19:22:40.184           126.283
                      80     4 Jun 2027 20:53:39.500     4 Jun 2027 21:00:32.458           412.957
                      81     4 Jun 2027 22:30:22.805     4 Jun 2027 22:36:48.553           385.748
                      82     5 Jun 2027 00:05:51.669     5 Jun 2027 00:13:20.974           449.305
                      83     5 Jun 2027 01:44:10.158     5 Jun 2027 01:44:33.361            23.203
                      84     5 Jun 2027 01:44:45.153     5 Jun 2027 01:50:14.812           329.659
                      85     5 Jun 2027 03:22:22.170     5 Jun 2027 03:26:55.681           273.511
                      86     5 Jun 2027 04:45:43.624     5 Jun 2027 04:48:18.977           155.353
                      87     5 Jun 2027 06:22:06.248     5 Jun 2027 06:25:40.274           214.026
                      88     5 Jun 2027 07:56:10.359     5 Jun 2027 08:03:05.123           414.765
                      89     5 Jun 2027 08:03:07.375     5 Jun 2027 08:04:08.753            61.378
                      90     5 Jun 2027 09:33:14.888     5 Jun 2027 09:39:57.456           402.569
                      91     5 Jun 2027 11:10:10.703     5 Jun 2027 11:14:34.941           264.238
                      92     5 Jun 2027 11:14:35.598     5 Jun 2027 11:15:10.485            34.887
                      93     5 Jun 2027 12:46:57.206     5 Jun 2027 12:51:39.117           281.911
                      94     5 Jun 2027 14:25:09.587     5 Jun 2027 14:26:07.261            57.674
                      95     5 Jun 2027 19:29:47.184     5 Jun 2027 19:32:02.645           135.461
                      96     5 Jun 2027 21:05:43.758     5 Jun 2027 21:12:16.081           392.324
                      97     5 Jun 2027 22:42:25.418     5 Jun 2027 22:48:54.235           388.817
                      98     6 Jun 2027 00:18:04.406     6 Jun 2027 00:25:30.460           446.054
                      99     6 Jun 2027 01:56:13.460     6 Jun 2027 01:57:14.160            60.701
                     100     6 Jun 2027 01:57:19.771     6 Jun 2027 02:02:23.424           303.654
                     101     6 Jun 2027 03:34:50.789     6 Jun 2027 03:38:47.271           236.481
                     102     6 Jun 2027 04:57:47.847     6 Jun 2027 05:00:48.827           180.980
                     103     6 Jun 2027 06:34:16.859     6 Jun 2027 06:37:46.224           209.365
                     104     6 Jun 2027 08:09:22.074     6 Jun 2027 08:16:09.667           407.593
                     105     6 Jun 2027 09:45:44.215     6 Jun 2027 09:52:03.853           379.637
                     106     6 Jun 2027 11:23:14.083     6 Jun 2027 11:27:39.909           265.826
                     107     6 Jun 2027 12:59:18.886     6 Jun 2027 13:03:33.184           254.298
                     108     6 Jun 2027 19:41:52.352     6 Jun 2027 19:44:57.047           184.696
                     109     6 Jun 2027 21:17:47.777     6 Jun 2027 21:23:39.696           351.919
                     110     6 Jun 2027 22:54:30.419     6 Jun 2027 23:00:40.782           370.363
                     111     7 Jun 2027 00:29:57.146     7 Jun 2027 00:37:04.804           427.658
                     112     7 Jun 2027 02:08:09.556     7 Jun 2027 02:09:03.446            53.890
                     113     7 Jun 2027 02:09:16.450     7 Jun 2027 02:14:17.523           301.074
                     114     7 Jun 2027 03:46:24.558     7 Jun 2027 03:47:01.250            36.692
                     115     7 Jun 2027 03:47:13.916     7 Jun 2027 03:50:03.769           169.853
                     116     7 Jun 2027 05:09:43.746     7 Jun 2027 05:12:59.629           195.883
                     117     7 Jun 2027 06:46:21.432     7 Jun 2027 06:49:46.997           205.565
                     118     7 Jun 2027 08:21:31.840     7 Jun 2027 08:28:08.313           396.473
                     119     7 Jun 2027 09:57:45.531     7 Jun 2027 10:03:36.543           351.012
                     120     7 Jun 2027 10:03:45.181     7 Jun 2027 10:03:54.166             8.985
                     121     7 Jun 2027 11:35:19.856     7 Jun 2027 11:39:51.312           271.456
                     122     7 Jun 2027 13:11:21.177     7 Jun 2027 13:15:32.968           251.791
                     123     7 Jun 2027 13:15:37.130     7 Jun 2027 13:16:20.937            43.806
                     124     7 Jun 2027 18:18:48.629     7 Jun 2027 18:19:17.696            29.067
                     125     7 Jun 2027 19:54:00.209     7 Jun 2027 19:56:57.768           177.559
                     126     7 Jun 2027 21:29:59.718     7 Jun 2027 21:35:26.535           326.817
                     127     7 Jun 2027 23:06:28.007     7 Jun 2027 23:12:42.496           374.489
                     128     8 Jun 2027 00:41:57.346     8 Jun 2027 00:48:54.982           417.636
                     129     8 Jun 2027 02:21:15.124     8 Jun 2027 02:26:29.360           314.236
                     130     8 Jun 2027 02:27:31.391     8 Jun 2027 02:29:05.378            93.987
                     131     8 Jun 2027 03:47:31.668     8 Jun 2027 03:47:48.922            17.254
                     132     8 Jun 2027 03:58:21.299     8 Jun 2027 03:59:03.419            42.120
                     133     8 Jun 2027 03:59:09.323     8 Jun 2027 04:01:57.668           168.345
                     134     8 Jun 2027 05:22:19.414     8 Jun 2027 05:25:03.753           164.339
                     135     8 Jun 2027 06:58:05.501     8 Jun 2027 07:02:19.257           253.756
                     136     8 Jun 2027 08:32:55.984     8 Jun 2027 08:40:18.501           442.517
                     137     8 Jun 2027 10:09:32.111     8 Jun 2027 10:15:56.074           383.964
                     138     8 Jun 2027 11:47:49.931     8 Jun 2027 11:51:44.679           234.748
                     139     8 Jun 2027 13:21:09.885     8 Jun 2027 13:22:37.197            87.312
                     140     8 Jun 2027 13:23:09.637     8 Jun 2027 13:27:22.239           252.602
                     141     8 Jun 2027 13:27:41.585     8 Jun 2027 13:28:39.761            58.176
                     142     8 Jun 2027 18:29:35.036     8 Jun 2027 18:31:42.837           127.801
                     143     8 Jun 2027 20:05:47.097     8 Jun 2027 20:09:09.479           202.383
                     144     8 Jun 2027 21:42:23.128     8 Jun 2027 21:48:32.553           369.425
                     145     8 Jun 2027 23:18:34.261     8 Jun 2027 23:25:21.534           407.273
                     146     9 Jun 2027 00:54:38.469     9 Jun 2027 01:01:04.935           386.466
                     147     9 Jun 2027 02:33:35.692     9 Jun 2027 02:41:00.134           444.442
                     148     9 Jun 2027 03:58:48.052     9 Jun 2027 04:00:06.061            78.009
                     149     9 Jun 2027 04:10:19.340     9 Jun 2027 04:11:57.590            98.250
                     150     9 Jun 2027 05:32:58.497     9 Jun 2027 05:33:57.092            58.595
                     151     9 Jun 2027 05:34:33.995     9 Jun 2027 05:37:38.432           184.437
                     152     9 Jun 2027 07:08:15.456     9 Jun 2027 07:09:18.194            62.738
                     153     9 Jun 2027 07:09:49.621     9 Jun 2027 07:14:36.780           287.158
                     154     9 Jun 2027 08:44:50.018     9 Jun 2027 08:52:19.034           449.017
                     155     9 Jun 2027 10:21:53.358     9 Jun 2027 10:27:43.916           350.558
                     156     9 Jun 2027 10:27:45.760     9 Jun 2027 10:28:04.815            19.055
                     157     9 Jun 2027 11:59:47.627     9 Jun 2027 12:03:47.334           239.707
                     158     9 Jun 2027 13:33:00.992     9 Jun 2027 13:39:21.667           380.675
                     159     9 Jun 2027 13:39:40.304     9 Jun 2027 13:40:52.516            72.213
                     160     9 Jun 2027 18:41:31.921     9 Jun 2027 18:44:13.154           161.233
                     161     9 Jun 2027 20:17:52.177     9 Jun 2027 20:21:16.272           204.095
                     162     9 Jun 2027 20:23:11.864     9 Jun 2027 20:24:25.464            73.600
                     163     9 Jun 2027 21:54:26.535     9 Jun 2027 22:00:40.329           373.793
                     164     9 Jun 2027 23:30:41.804     9 Jun 2027 23:37:17.577           395.773
                     165    10 Jun 2027 01:06:44.579    10 Jun 2027 01:12:51.785           367.206
                     166    10 Jun 2027 02:45:49.227    10 Jun 2027 02:52:55.242           426.015
                     167    10 Jun 2027 04:10:05.549    10 Jun 2027 04:12:16.265           130.715
                     168    10 Jun 2027 04:22:18.565    10 Jun 2027 04:23:17.418            58.853
                     169    10 Jun 2027 05:44:34.278    10 Jun 2027 05:45:40.567            66.289
                     170    10 Jun 2027 05:46:29.553    10 Jun 2027 05:49:52.404           202.851
                     171    10 Jun 2027 07:19:27.117    10 Jun 2027 07:21:32.618           125.501
                     172    10 Jun 2027 07:21:37.398    10 Jun 2027 07:26:50.353           312.954
                     173    10 Jun 2027 07:27:30.046    10 Jun 2027 07:27:57.677            27.631
                     174    10 Jun 2027 08:57:01.544    10 Jun 2027 09:04:22.560           441.017
                     175    10 Jun 2027 10:33:44.376    10 Jun 2027 10:39:57.897           373.521
                     176    10 Jun 2027 10:40:02.098    10 Jun 2027 10:40:22.439            20.342
                     177    10 Jun 2027 12:11:47.576    10 Jun 2027 12:15:57.138           249.563
                     178    10 Jun 2027 13:45:29.101    10 Jun 2027 13:52:48.370           439.269
                     179    10 Jun 2027 18:53:33.088    10 Jun 2027 18:56:27.786           174.698
                     180    10 Jun 2027 20:30:04.762    10 Jun 2027 20:33:38.770           214.007
                     181    10 Jun 2027 20:34:47.836    10 Jun 2027 20:37:48.363           180.527
                     182    10 Jun 2027 22:06:37.763    10 Jun 2027 22:12:56.259           378.496
                     183    10 Jun 2027 23:42:09.341    10 Jun 2027 23:42:46.410            37.069
                     184    10 Jun 2027 23:42:57.489    10 Jun 2027 23:49:46.333           408.844
                     185    11 Jun 2027 01:19:06.152    11 Jun 2027 01:19:30.782            24.630
                     186    11 Jun 2027 01:19:37.756    11 Jun 2027 01:20:07.680            29.924
                     187    11 Jun 2027 01:20:12.824    11 Jun 2027 01:21:06.840            54.016
                     188    11 Jun 2027 01:21:09.016    11 Jun 2027 01:25:07.393           238.378
                     189    11 Jun 2027 02:57:53.565    11 Jun 2027 03:04:47.475           413.909
                     190    11 Jun 2027 04:22:11.428    11 Jun 2027 04:24:05.136           113.708
                     191    11 Jun 2027 04:34:33.346    11 Jun 2027 04:34:52.008            18.663
                     192    11 Jun 2027 05:56:02.848    11 Jun 2027 05:57:26.006            83.158
                     193    11 Jun 2027 05:58:04.496    11 Jun 2027 06:02:04.479           239.982
                     194    11 Jun 2027 07:30:57.488    11 Jun 2027 07:39:06.798           489.310
                     195    11 Jun 2027 07:39:27.205    11 Jun 2027 07:40:25.245            58.040
                     196    11 Jun 2027 09:08:55.816    11 Jun 2027 09:16:24.179           448.363
                     197    11 Jun 2027 10:45:51.508    11 Jun 2027 10:51:11.303           319.795
                     198    11 Jun 2027 10:51:31.414    11 Jun 2027 10:52:22.207            50.792
                     199    11 Jun 2027 12:23:33.607    11 Jun 2027 12:27:55.742           262.134
                     200    11 Jun 2027 13:59:33.521    11 Jun 2027 14:03:08.039           214.518
                     201    11 Jun 2027 19:05:39.871    11 Jun 2027 19:08:53.629           193.758
                     202    11 Jun 2027 19:09:06.938    11 Jun 2027 19:10:27.368            80.430
                     203    11 Jun 2027 20:42:00.775    11 Jun 2027 20:46:34.172           273.397
                     204    11 Jun 2027 20:46:49.170    11 Jun 2027 20:48:39.979           110.810
                     205    11 Jun 2027 20:49:25.726    11 Jun 2027 20:50:02.058            36.332
                     206    11 Jun 2027 22:18:34.319    11 Jun 2027 22:25:09.691           395.372
                     207    11 Jun 2027 23:54:06.991    12 Jun 2027 00:01:52.281           465.291
                     208    12 Jun 2027 01:31:47.646    12 Jun 2027 01:32:00.967            13.321
                     209    12 Jun 2027 01:32:10.843    12 Jun 2027 01:33:11.661            60.818
                     210    12 Jun 2027 01:33:20.258    12 Jun 2027 01:33:46.016            25.758
                     211    12 Jun 2027 01:33:57.142    12 Jun 2027 01:37:24.595           207.453
                     212    12 Jun 2027 03:10:19.448    12 Jun 2027 03:15:19.137           299.689
                     213    12 Jun 2027 04:34:07.301    12 Jun 2027 04:36:24.135           136.833
                     214    12 Jun 2027 06:10:07.675    12 Jun 2027 06:13:51.203           223.527
                     215    12 Jun 2027 07:43:51.541    12 Jun 2027 07:52:26.671           515.130
                     216    12 Jun 2027 09:21:17.284    12 Jun 2027 09:28:17.882           420.598
                     217    12 Jun 2027 10:58:20.846    12 Jun 2027 11:02:49.972           269.126
                     218    12 Jun 2027 11:02:57.411    12 Jun 2027 11:04:11.064            73.653
                     219    12 Jun 2027 12:35:06.228    12 Jun 2027 12:39:53.948           287.720
                     220    12 Jun 2027 14:10:22.436    12 Jun 2027 14:10:29.185             6.749
                     221    12 Jun 2027 14:12:03.956    12 Jun 2027 14:14:53.131           169.176
                     222    12 Jun 2027 19:18:01.103    12 Jun 2027 19:20:28.942           147.839
                     223    12 Jun 2027 19:20:50.808    12 Jun 2027 19:22:52.868           122.060
                     224    12 Jun 2027 20:53:55.224    12 Jun 2027 21:00:46.724           411.500
                     225    12 Jun 2027 22:30:38.478    12 Jun 2027 22:37:03.915           385.437
                     226    13 Jun 2027 00:06:07.695    13 Jun 2027 00:13:36.856           449.160
                     227    13 Jun 2027 01:44:21.722    13 Jun 2027 01:44:48.767            27.044
                     228    13 Jun 2027 01:44:59.411    13 Jun 2027 01:50:30.652           331.240
                     229    13 Jun 2027 03:22:37.819    13 Jun 2027 03:27:10.761           272.942
                     230    13 Jun 2027 04:45:58.876    13 Jun 2027 04:48:35.483           156.607
                     231    13 Jun 2027 06:22:22.430    13 Jun 2027 06:25:57.008           214.577
                     232    13 Jun 2027 07:56:27.502    13 Jun 2027 08:03:20.794           413.291
                     233    13 Jun 2027 08:03:22.853    13 Jun 2027 08:04:24.178            61.325
                     234    13 Jun 2027 09:33:29.874    13 Jun 2027 09:40:13.186           403.312
                     235    13 Jun 2027 11:10:27.171    13 Jun 2027 11:15:27.258           300.087
                     236    13 Jun 2027 12:47:12.627    13 Jun 2027 12:51:55.871           283.244
                     237    13 Jun 2027 14:25:26.629    13 Jun 2027 14:26:22.393            55.764
                     238    13 Jun 2027 19:30:02.885    13 Jun 2027 19:32:18.690           135.805
                     239    13 Jun 2027 21:05:59.622    13 Jun 2027 21:12:31.895           392.273
                     240    13 Jun 2027 22:42:41.148    13 Jun 2027 22:49:10.527           389.379

Min Duration         220    12 Jun 2027 14:10:22.436    12 Jun 2027 14:10:29.185             6.749
Max Duration         215    12 Jun 2027 07:43:51.541    12 Jun 2027 07:52:26.671           515.130
Mean Duration                                                                              223.784
Total Duration                                                                           53708.246


Russia-To-KinoSat_111202
------------------------
                  Access        Start Time (UTCG)           Stop Time (UTCG)        Duration (sec)
                  ------    ------------------------    ------------------------    --------------
                       1     1 Jun 2027 00:44:07.787     1 Jun 2027 00:51:09.679           421.892
                       2     1 Jun 2027 02:23:25.763     1 Jun 2027 02:28:47.240           321.476
                       3     1 Jun 2027 02:29:36.866     1 Jun 2027 02:31:13.533            96.667
                       4     1 Jun 2027 03:49:35.183     1 Jun 2027 03:50:02.193            27.010
                       5     1 Jun 2027 04:00:30.828     1 Jun 2027 04:04:00.247           209.420
                       6     1 Jun 2027 05:24:27.806     1 Jun 2027 05:27:23.262           175.456
                       7     1 Jun 2027 07:00:12.696     1 Jun 2027 07:04:30.173           257.476
                       8     1 Jun 2027 08:34:56.531     1 Jun 2027 08:42:29.304           452.772
                       9     1 Jun 2027 10:11:44.588     1 Jun 2027 10:18:05.405           380.817
                      10     1 Jun 2027 11:49:59.568     1 Jun 2027 11:53:54.542           234.974
                      11     1 Jun 2027 13:23:16.578     1 Jun 2027 13:24:49.154            92.576
                      12     1 Jun 2027 13:24:53.571     1 Jun 2027 13:29:36.576           283.005
                      13     1 Jun 2027 13:29:54.930     1 Jun 2027 13:30:59.017            64.087
                      14     1 Jun 2027 18:31:43.157     1 Jun 2027 18:33:58.929           135.772
                      15     1 Jun 2027 20:07:57.131     1 Jun 2027 20:11:21.401           204.270
                      16     1 Jun 2027 21:44:36.084     1 Jun 2027 21:50:44.666           368.582
                      17     1 Jun 2027 23:20:47.252     1 Jun 2027 23:27:31.357           404.106
                      18     2 Jun 2027 00:56:48.249     2 Jun 2027 01:03:12.415           384.166
                      19     2 Jun 2027 02:35:46.432     2 Jun 2027 02:43:07.129           440.697
                      20     2 Jun 2027 04:00:51.337     2 Jun 2027 04:02:16.909            85.572
                      21     2 Jun 2027 04:12:30.703     2 Jun 2027 04:13:57.226            86.523
                      22     2 Jun 2027 05:35:03.405     2 Jun 2027 05:36:03.980            60.574
                      23     2 Jun 2027 05:36:44.612     2 Jun 2027 05:39:49.696           185.084
                      24     2 Jun 2027 07:10:06.879     2 Jun 2027 07:11:24.978            78.099
                      25     2 Jun 2027 07:11:57.146     2 Jun 2027 07:16:49.793           292.648
                      26     2 Jun 2027 08:47:04.839     2 Jun 2027 08:54:29.197           444.359
                      27     2 Jun 2027 10:24:03.055     2 Jun 2027 10:29:55.385           352.330
                      28     2 Jun 2027 10:29:59.799     2 Jun 2027 10:30:11.223            11.425
                      29     2 Jun 2027 12:01:57.836     2 Jun 2027 12:05:57.099           239.262
                      30     2 Jun 2027 13:35:17.083     2 Jun 2027 13:41:32.928           375.845
                      31     2 Jun 2027 13:41:37.432     2 Jun 2027 13:43:04.470            87.037
                      32     2 Jun 2027 18:43:41.526     2 Jun 2027 18:46:19.860           158.333
                      33     2 Jun 2027 20:20:04.134     2 Jun 2027 20:23:27.375           203.242
                      34     2 Jun 2027 20:25:05.685     2 Jun 2027 20:26:50.315           104.630
                      35     2 Jun 2027 21:56:54.913     2 Jun 2027 22:02:53.606           358.693
                      36     2 Jun 2027 23:32:51.952     2 Jun 2027 23:39:30.601           398.649
                      37     3 Jun 2027 01:08:56.168     3 Jun 2027 01:10:28.600            92.432
                      38     3 Jun 2027 01:10:31.436     3 Jun 2027 01:15:00.213           268.777
                      39     3 Jun 2027 02:48:02.233     3 Jun 2027 02:55:04.363           422.131
                      40     3 Jun 2027 04:12:12.436     3 Jun 2027 04:14:28.297           135.861
                      41     3 Jun 2027 04:24:28.770     3 Jun 2027 04:25:24.391            55.621
                      42     3 Jun 2027 05:46:27.746     3 Jun 2027 05:47:51.398            83.652
                      43     3 Jun 2027 05:48:35.661     3 Jun 2027 05:52:04.235           208.574
                      44     3 Jun 2027 07:21:31.744     3 Jun 2027 07:29:09.139           457.395
                      45     3 Jun 2027 07:29:38.566     3 Jun 2027 07:30:09.526            30.960
                      46     3 Jun 2027 08:59:07.837     3 Jun 2027 09:06:32.902           445.065
                      47     3 Jun 2027 10:35:52.657     3 Jun 2027 10:42:00.221           367.564
                      48     3 Jun 2027 10:42:02.306     3 Jun 2027 10:42:33.677            31.371
                      49     3 Jun 2027 12:13:57.382     3 Jun 2027 12:18:06.582           249.201
                      50     3 Jun 2027 13:47:43.668     3 Jun 2027 13:54:32.864           409.195
                      51     3 Jun 2027 18:55:44.924     3 Jun 2027 18:58:37.642           172.718
                      52     3 Jun 2027 20:32:12.993     3 Jun 2027 20:36:02.220           229.226
                      53     3 Jun 2027 20:36:57.129     3 Jun 2027 20:40:04.669           187.541
                      54     3 Jun 2027 22:08:45.915     3 Jun 2027 22:15:07.955           382.040
                      55     3 Jun 2027 23:44:19.078     3 Jun 2027 23:45:05.422            46.344
                      56     3 Jun 2027 23:45:11.141     3 Jun 2027 23:52:01.403           410.262
                      57     4 Jun 2027 01:21:22.815     4 Jun 2027 01:21:38.820            16.005
                      58     4 Jun 2027 01:21:49.208     4 Jun 2027 01:22:17.803            28.595
                      59     4 Jun 2027 01:22:22.176     4 Jun 2027 01:27:19.775           297.599
                      60     4 Jun 2027 03:00:08.210     4 Jun 2027 03:06:55.707           407.497
                      61     4 Jun 2027 04:24:20.112     4 Jun 2027 04:26:14.644           114.532
                      62     4 Jun 2027 04:36:51.513     4 Jun 2027 04:36:55.894             4.381
                      63     4 Jun 2027 05:58:09.624     4 Jun 2027 06:04:08.958           359.334
                      64     4 Jun 2027 07:33:02.254     4 Jun 2027 07:41:17.326           495.072
                      65     4 Jun 2027 07:41:35.998     4 Jun 2027 07:42:36.202            60.204
                      66     4 Jun 2027 09:11:07.633     4 Jun 2027 09:18:34.584           446.951
                      67     4 Jun 2027 10:48:00.994     4 Jun 2027 10:53:09.511           308.517
                      68     4 Jun 2027 10:53:35.528     4 Jun 2027 10:54:29.368            53.840
                      69     4 Jun 2027 12:25:10.617     4 Jun 2027 12:30:04.939           294.322
                      70     4 Jun 2027 13:59:58.445     4 Jun 2027 14:01:09.706            71.261
                      71     4 Jun 2027 14:01:52.763     4 Jun 2027 14:05:14.878           202.116
                      72     4 Jun 2027 19:07:50.462     4 Jun 2027 19:12:38.766           288.304
                      73     4 Jun 2027 20:44:10.153     4 Jun 2027 20:48:51.710           281.557
                      74     4 Jun 2027 20:49:00.931     4 Jun 2027 20:50:51.553           110.623
                      75     4 Jun 2027 20:51:35.258     4 Jun 2027 20:52:21.785            46.527
                      76     4 Jun 2027 22:20:44.824     4 Jun 2027 22:27:19.099           394.275
                      77     4 Jun 2027 23:56:16.689     5 Jun 2027 00:04:03.227           466.538
                      78     5 Jun 2027 01:33:59.644     5 Jun 2027 01:34:10.224            10.580
                      79     5 Jun 2027 01:34:22.101     5 Jun 2027 01:35:23.824            61.723
                      80     5 Jun 2027 01:35:28.923     5 Jun 2027 01:36:07.064            38.140
                      81     5 Jun 2027 01:36:07.778     5 Jun 2027 01:40:31.575           263.797
                      82     5 Jun 2027 03:12:33.501     5 Jun 2027 03:17:27.973           294.472
                      83     5 Jun 2027 04:36:16.609     5 Jun 2027 04:38:35.133           138.524
                      84     5 Jun 2027 06:12:28.821     5 Jun 2027 06:16:00.236           211.415
                      85     5 Jun 2027 07:46:02.168     5 Jun 2027 07:53:33.103           450.935
                      86     5 Jun 2027 07:53:35.072     5 Jun 2027 07:54:36.042            60.970
                      87     5 Jun 2027 09:23:30.472     5 Jun 2027 09:30:19.399           408.926
                      88     5 Jun 2027 11:00:29.288     5 Jun 2027 11:04:59.172           269.884
                      89     5 Jun 2027 11:05:05.198     5 Jun 2027 11:06:20.836            75.638
                      90     5 Jun 2027 12:37:23.340     5 Jun 2027 12:42:00.098           276.757
                      91     5 Jun 2027 14:14:32.975     5 Jun 2027 14:17:01.804           148.828
                      92     5 Jun 2027 19:20:06.684     5 Jun 2027 19:22:42.447           155.763
                      93     5 Jun 2027 19:23:14.320     5 Jun 2027 19:24:54.447           100.127
                      94     5 Jun 2027 20:56:05.616     5 Jun 2027 21:02:46.313           400.698
                      95     5 Jun 2027 22:32:48.485     5 Jun 2027 22:39:10.592           382.108
                      96     6 Jun 2027 00:08:19.090     6 Jun 2027 00:15:52.066           452.975
                      97     6 Jun 2027 01:46:28.073     6 Jun 2027 01:46:56.355            28.282
                      98     6 Jun 2027 01:47:02.251     6 Jun 2027 01:52:38.450           336.198
                      99     6 Jun 2027 03:24:28.307     6 Jun 2027 03:29:21.032           292.725
                     100     6 Jun 2027 04:48:07.332     6 Jun 2027 04:50:46.267           158.936
                     101     6 Jun 2027 06:24:34.220     6 Jun 2027 06:28:09.386           215.166
                     102     6 Jun 2027 07:56:43.720     6 Jun 2027 07:56:53.515             9.795
                     103     6 Jun 2027 07:58:41.175     6 Jun 2027 08:05:28.917           407.742
                     104     6 Jun 2027 08:05:32.227     6 Jun 2027 08:06:30.723            58.497
                     105     6 Jun 2027 09:35:39.613     6 Jun 2027 09:42:23.944           404.331
                     106     6 Jun 2027 11:12:59.114     6 Jun 2027 11:17:04.797           245.683
                     107     6 Jun 2027 11:17:07.012     6 Jun 2027 11:17:45.706            38.695
                     108     6 Jun 2027 12:49:24.798     6 Jun 2027 12:54:31.180           306.382
                     109     6 Jun 2027 14:27:41.218     6 Jun 2027 14:28:23.152            41.934
                     110     6 Jun 2027 19:32:13.821     6 Jun 2027 19:34:31.578           137.757
                     111     6 Jun 2027 21:08:09.815     6 Jun 2027 21:14:40.563           390.748
                     112     6 Jun 2027 22:44:51.042     6 Jun 2027 22:51:21.650           390.608
                     113     7 Jun 2027 00:20:24.158     7 Jun 2027 00:27:55.195           451.037
                     114     7 Jun 2027 01:58:34.542     7 Jun 2027 01:59:37.337            62.795
                     115     7 Jun 2027 01:59:44.242     7 Jun 2027 02:04:50.454           306.212
                     116     7 Jun 2027 03:37:41.784     7 Jun 2027 03:41:14.914           213.130
                     117     7 Jun 2027 05:00:15.500     7 Jun 2027 05:03:18.207           182.706
                     118     7 Jun 2027 06:36:43.775     7 Jun 2027 06:40:22.442           218.666
                     119     7 Jun 2027 08:11:54.724     7 Jun 2027 08:18:32.880           398.156
                     120     7 Jun 2027 09:48:13.540     7 Jun 2027 09:54:30.223           376.682
                     121     7 Jun 2027 11:25:36.699     7 Jun 2027 11:30:08.870           272.171
                     122     7 Jun 2027 13:01:47.461     7 Jun 2027 13:06:01.695           254.234
                     123     7 Jun 2027 19:44:20.256     7 Jun 2027 19:47:24.056           183.800
                     124     7 Jun 2027 21:20:14.943     7 Jun 2027 21:25:57.237           342.294
                     125     7 Jun 2027 22:56:56.681     7 Jun 2027 23:03:06.591           369.910
                     126     8 Jun 2027 00:32:22.381     8 Jun 2027 00:39:24.942           422.561
                     127     8 Jun 2027 02:10:37.018     8 Jun 2027 02:11:17.851            40.833
                     128     8 Jun 2027 02:11:41.615     8 Jun 2027 02:16:45.232           303.617
                     129     8 Jun 2027 03:48:49.363     8 Jun 2027 03:49:27.079            37.717
                     130     8 Jun 2027 03:49:55.870     8 Jun 2027 03:52:21.942           146.072
                     131     8 Jun 2027 05:12:16.613     8 Jun 2027 05:15:26.250           189.636
                     132     8 Jun 2027 06:48:44.105     8 Jun 2027 06:52:13.528           209.422
                     133     8 Jun 2027 08:23:56.932     8 Jun 2027 08:30:37.382           400.450
                     134     8 Jun 2027 09:59:52.310     8 Jun 2027 10:06:11.238           378.928
                     135     8 Jun 2027 11:37:51.315     8 Jun 2027 11:42:15.866           264.551
                     136     8 Jun 2027 13:13:42.758     8 Jun 2027 13:17:56.245           253.487
                     137     8 Jun 2027 13:18:02.021     8 Jun 2027 13:18:53.226            51.205
                     138     8 Jun 2027 18:20:33.446     8 Jun 2027 18:21:47.277            73.831
                     139     8 Jun 2027 19:56:17.264     8 Jun 2027 19:59:25.561           188.297
                     140     8 Jun 2027 21:32:26.666     8 Jun 2027 21:37:53.900           327.234
                     141     8 Jun 2027 23:08:55.194     8 Jun 2027 23:15:44.741           409.547
                     142     9 Jun 2027 00:44:23.750     9 Jun 2027 00:51:25.245           421.494
                     143     9 Jun 2027 02:23:41.641     9 Jun 2027 02:29:03.909           322.268
                     144     9 Jun 2027 02:29:51.839     9 Jun 2027 02:31:28.882            97.043
                     145     9 Jun 2027 03:49:49.267     9 Jun 2027 03:50:18.285            29.017
                     146     9 Jun 2027 04:00:46.372     9 Jun 2027 04:04:14.829           208.457
                     147     9 Jun 2027 05:24:42.897     9 Jun 2027 05:27:39.830           176.933
                     148     9 Jun 2027 07:00:28.395     9 Jun 2027 07:04:47.827           259.432
                     149     9 Jun 2027 08:35:12.245     9 Jun 2027 08:42:45.215           452.970
                     150     9 Jun 2027 10:12:02.012     9 Jun 2027 10:18:21.236           379.224
                     151     9 Jun 2027 11:50:13.905     9 Jun 2027 11:54:10.287           236.382
                     152     9 Jun 2027 13:23:31.491     9 Jun 2027 13:29:53.532           382.041
                     153     9 Jun 2027 13:30:11.097     9 Jun 2027 13:31:15.726            64.630
                     154     9 Jun 2027 18:31:58.613     9 Jun 2027 18:34:16.313           137.699
                     155     9 Jun 2027 20:08:12.903     9 Jun 2027 20:11:36.806           203.902
                     156     9 Jun 2027 21:44:52.596     9 Jun 2027 21:51:02.532           369.936
                     157     9 Jun 2027 23:21:03.159     9 Jun 2027 23:27:45.911           402.752
                     158    10 Jun 2027 00:57:04.063    10 Jun 2027 01:03:27.650           383.587
                     159    10 Jun 2027 02:36:02.545    10 Jun 2027 02:43:22.498           439.953
                     160    10 Jun 2027 04:01:06.997    10 Jun 2027 04:02:32.924            85.927
                     161    10 Jun 2027 04:12:46.911    10 Jun 2027 04:14:12.451            85.540
                     162    10 Jun 2027 05:35:17.922    10 Jun 2027 05:36:19.251            61.329
                     163    10 Jun 2027 05:37:00.098    10 Jun 2027 05:40:06.280           186.181
                     164    10 Jun 2027 07:10:21.304    10 Jun 2027 07:11:40.626            79.322
                     165    10 Jun 2027 07:12:12.203    10 Jun 2027 07:17:05.819           293.616
                     166    10 Jun 2027 08:47:20.273    10 Jun 2027 08:54:44.668           444.395
                     167    10 Jun 2027 10:24:18.310    10 Jun 2027 10:30:11.679           353.368
                     168    10 Jun 2027 12:02:14.233    10 Jun 2027 12:06:12.972           238.739
                     169    10 Jun 2027 13:35:34.355    10 Jun 2027 13:41:49.615           375.260
                     170    10 Jun 2027 13:41:51.791    10 Jun 2027 13:43:19.878            88.087
                     171    10 Jun 2027 18:43:57.268    10 Jun 2027 18:46:35.310           158.042
                     172    10 Jun 2027 20:20:20.222    10 Jun 2027 20:23:43.138           202.916
                     173    10 Jun 2027 20:25:21.250    10 Jun 2027 20:27:09.925           108.675
                     174    10 Jun 2027 21:57:10.435    10 Jun 2027 22:03:09.619           359.184
                     175    10 Jun 2027 23:33:07.622    10 Jun 2027 23:39:47.628           400.007
                     176    11 Jun 2027 01:09:12.290    11 Jun 2027 01:10:42.783            90.493
                     177    11 Jun 2027 01:10:46.505    11 Jun 2027 01:15:16.120           269.615
                     178    11 Jun 2027 02:48:18.581    11 Jun 2027 02:55:20.249           421.668
                     179    11 Jun 2027 04:12:27.982    11 Jun 2027 04:14:44.697           136.715
                     180    11 Jun 2027 04:24:44.321    11 Jun 2027 04:25:39.702            55.382
                     181    11 Jun 2027 05:46:42.839    11 Jun 2027 05:48:07.176            84.337
                     182    11 Jun 2027 05:48:50.720    11 Jun 2027 05:52:20.242           209.522
                     183    11 Jun 2027 07:21:44.521    11 Jun 2027 07:29:25.375           460.854
                     184    11 Jun 2027 07:29:54.078    11 Jun 2027 07:30:25.516            31.438
                     185    11 Jun 2027 08:59:22.228    11 Jun 2027 09:06:48.425           446.197
                     186    11 Jun 2027 10:36:08.321    11 Jun 2027 10:42:11.493           363.172
                     187    11 Jun 2027 10:42:19.319    11 Jun 2027 10:42:49.688            30.369
                     188    11 Jun 2027 12:14:13.388    11 Jun 2027 12:18:22.181           248.793
                     189    11 Jun 2027 13:48:01.764    11 Jun 2027 13:54:48.138           406.373
                     190    11 Jun 2027 18:56:00.931    11 Jun 2027 18:58:46.342           165.412
                     191    11 Jun 2027 20:32:28.412    11 Jun 2027 20:36:18.712           230.300
                     192    11 Jun 2027 20:37:18.556    11 Jun 2027 20:40:21.451           182.895
                     193    11 Jun 2027 22:09:01.312    11 Jun 2027 22:15:24.602           383.289
                     194    11 Jun 2027 23:44:34.524    11 Jun 2027 23:52:18.122           463.598
                     195    12 Jun 2027 01:21:38.679    12 Jun 2027 01:21:52.110            13.432
                     196    12 Jun 2027 01:22:05.776    12 Jun 2027 01:22:33.692            27.916
                     197    12 Jun 2027 01:22:36.816    12 Jun 2027 01:27:36.176           299.360
                     198    12 Jun 2027 03:00:24.923    12 Jun 2027 03:07:10.504           405.580
                     199    12 Jun 2027 04:24:35.855    12 Jun 2027 04:26:30.493           114.637
                     200    12 Jun 2027 04:37:08.291    12 Jun 2027 04:37:11.308             3.017
                     201    12 Jun 2027 05:58:25.300    12 Jun 2027 06:04:24.702           359.403
                     202    12 Jun 2027 07:33:17.304    12 Jun 2027 07:41:33.405           496.101
                     203    12 Jun 2027 07:41:51.496    12 Jun 2027 07:42:52.036            60.540
                     204    12 Jun 2027 09:11:23.081    12 Jun 2027 09:18:50.205           447.124
                     205    12 Jun 2027 10:48:17.615    12 Jun 2027 10:53:24.411           306.796
                     206    12 Jun 2027 10:53:35.716    12 Jun 2027 10:54:44.417            68.701
                     207    12 Jun 2027 12:25:26.339    12 Jun 2027 12:30:20.556           294.217
                     208    12 Jun 2027 14:00:17.012    12 Jun 2027 14:01:24.738            67.726
                     209    12 Jun 2027 14:02:08.278    12 Jun 2027 14:05:30.070           201.793
                     210    12 Jun 2027 19:08:06.375    12 Jun 2027 19:12:55.152           288.777
                     211    12 Jun 2027 20:44:23.105    12 Jun 2027 20:49:08.889           285.785
                     212    12 Jun 2027 20:49:16.037    12 Jun 2027 20:51:08.789           112.752
                     213    12 Jun 2027 20:51:50.001    12 Jun 2027 20:52:36.623            46.622
                     214    12 Jun 2027 22:21:00.691    12 Jun 2027 22:27:34.651           393.960
                     215    12 Jun 2027 23:56:32.330    13 Jun 2027 00:04:18.273           465.943
                     216    13 Jun 2027 01:34:15.884    13 Jun 2027 01:34:25.690             9.806
                     217    13 Jun 2027 01:34:37.906    13 Jun 2027 01:35:39.507            61.601
                     218    13 Jun 2027 01:35:44.429    13 Jun 2027 01:40:48.223           303.795
                     219    13 Jun 2027 03:12:49.836    13 Jun 2027 03:17:43.922           294.086
                     220    13 Jun 2027 04:36:31.870    13 Jun 2027 04:38:51.771           139.901
                     221    13 Jun 2027 06:12:44.716    13 Jun 2027 06:16:17.204           212.488
                     222    13 Jun 2027 07:46:17.972    13 Jun 2027 07:54:51.662           513.690
                     223    13 Jun 2027 09:23:49.418    13 Jun 2027 09:30:35.265           405.847
                     224    13 Jun 2027 11:00:45.535    13 Jun 2027 11:05:15.012           269.477
                     225    13 Jun 2027 11:05:20.332    13 Jun 2027 11:06:36.722            76.391
                     226    13 Jun 2027 12:37:39.421    13 Jun 2027 12:42:15.161           275.740
                     227    13 Jun 2027 14:14:49.567    13 Jun 2027 14:17:16.931           147.364
                     228    13 Jun 2027 19:20:22.211    13 Jun 2027 19:22:58.767           156.555
                     229    13 Jun 2027 19:23:32.717    13 Jun 2027 19:25:08.550            95.834
                     230    13 Jun 2027 20:56:21.550    13 Jun 2027 21:03:02.242           400.692
                     231    13 Jun 2027 22:33:04.413    13 Jun 2027 22:39:26.385           381.971

Min Duration         200    12 Jun 2027 04:37:08.291    12 Jun 2027 04:37:11.308             3.017
Max Duration         222    13 Jun 2027 07:46:17.972    13 Jun 2027 07:54:51.662           513.690
Mean Duration                                                                              236.280
Total Duration                                                                           54580.582


Russia-To-KinoSat_111203
------------------------
                  Access        Start Time (UTCG)           Stop Time (UTCG)        Duration (sec)
                  ------    ------------------------    ------------------------    --------------
                       1     1 Jun 2027 00:34:31.521     1 Jun 2027 00:41:32.508           420.987
                       2     1 Jun 2027 02:12:48.084     1 Jun 2027 02:13:08.487            20.403
                       3     1 Jun 2027 02:13:12.012     1 Jun 2027 02:13:28.955            16.943
                       4     1 Jun 2027 02:13:50.830     1 Jun 2027 02:18:51.964           301.134
                       5     1 Jun 2027 02:20:25.863     1 Jun 2027 02:20:29.544             3.681
                       6     1 Jun 2027 03:50:59.828     1 Jun 2027 03:51:36.543            36.715
                       7     1 Jun 2027 03:52:05.285     1 Jun 2027 03:54:32.051           146.766
                       8     1 Jun 2027 05:15:05.176     1 Jun 2027 05:17:36.685           151.509
                       9     1 Jun 2027 06:50:50.826     1 Jun 2027 06:54:26.399           215.574
                      10     1 Jun 2027 08:25:48.436     1 Jun 2027 08:32:49.452           421.016
                      11     1 Jun 2027 10:02:00.555     1 Jun 2027 10:08:24.508           383.953
                      12     1 Jun 2027 11:40:00.965     1 Jun 2027 11:44:13.061           252.096
                      13     1 Jun 2027 13:15:41.862     1 Jun 2027 13:20:05.519           263.658
                      14     1 Jun 2027 13:20:11.655     1 Jun 2027 13:21:07.470            55.815
                      15     1 Jun 2027 18:22:35.822     1 Jun 2027 18:24:01.625            85.803
                      16     1 Jun 2027 19:58:24.784     1 Jun 2027 20:01:33.571           188.787
                      17     1 Jun 2027 21:34:57.368     1 Jun 2027 21:40:05.801           308.432
                      18     1 Jun 2027 23:11:05.578     1 Jun 2027 23:17:53.099           407.521
                      19     2 Jun 2027 00:46:34.345     2 Jun 2027 00:53:41.631           427.286
                      20     2 Jun 2027 02:25:52.501     2 Jun 2027 02:31:31.599           339.098
                      21     2 Jun 2027 02:32:02.440     2 Jun 2027 02:33:37.903            95.463
                      22     2 Jun 2027 03:51:52.424     2 Jun 2027 03:52:31.136            38.712
                      23     2 Jun 2027 04:02:55.560     2 Jun 2027 04:04:39.414           103.855
                      24     2 Jun 2027 04:04:47.289     2 Jun 2027 04:06:15.522            88.233
                      25     2 Jun 2027 05:25:54.902     2 Jun 2027 05:29:53.749           238.847
                      26     2 Jun 2027 07:01:26.843     2 Jun 2027 07:01:32.873             6.030
                      27     2 Jun 2027 07:02:36.472     2 Jun 2027 07:07:02.769           266.297
                      28     2 Jun 2027 08:37:22.221     2 Jun 2027 08:44:55.383           453.162
                      29     2 Jun 2027 10:14:21.835     2 Jun 2027 10:20:30.594           368.759
                      30     2 Jun 2027 11:52:22.830     2 Jun 2027 11:56:19.310           236.481
                      31     2 Jun 2027 13:25:37.639     2 Jun 2027 13:32:06.812           389.173
                      32     2 Jun 2027 13:32:22.794     2 Jun 2027 13:33:29.267            66.473
                      33     2 Jun 2027 18:34:07.427     2 Jun 2027 18:36:33.511           146.084
                      34     2 Jun 2027 20:10:23.272     2 Jun 2027 20:13:46.875           203.603
                      35     2 Jun 2027 21:47:06.019     2 Jun 2027 21:53:18.941           372.921
                      36     2 Jun 2027 23:23:14.899     2 Jun 2027 23:29:49.978           395.079
                      37     3 Jun 2027 00:59:14.565     3 Jun 2027 01:05:39.934           385.368
                      38     3 Jun 2027 02:38:15.677     3 Jun 2027 02:45:31.129           435.452
                      39     3 Jun 2027 04:03:15.001     3 Jun 2027 04:04:44.695            89.694
                      40     3 Jun 2027 04:14:56.732     3 Jun 2027 04:16:17.454            80.722
                      41     3 Jun 2027 05:37:11.121     3 Jun 2027 05:38:25.772            74.651
                      42     3 Jun 2027 05:39:10.858     3 Jun 2027 05:42:19.390           188.532
                      43     3 Jun 2027 07:12:19.071     3 Jun 2027 07:13:46.893            87.822
                      44     3 Jun 2027 07:14:20.030     3 Jun 2027 07:19:16.412           296.381
                      45     3 Jun 2027 07:20:15.886     3 Jun 2027 07:20:19.158             3.272
                      46     3 Jun 2027 08:49:30.166     3 Jun 2027 08:56:55.991           445.825
                      47     3 Jun 2027 10:26:27.474     3 Jun 2027 10:32:36.175           368.701
                      48     3 Jun 2027 12:04:20.492     3 Jun 2027 12:08:22.458           241.966
                      49     3 Jun 2027 13:37:48.437     3 Jun 2027 13:45:27.231           458.794
                      50     3 Jun 2027 18:46:07.956     3 Jun 2027 18:48:46.244           158.288
                      51     3 Jun 2027 20:22:32.179     3 Jun 2027 20:25:54.325           202.146
                      52     3 Jun 2027 20:27:28.913     3 Jun 2027 20:29:40.565           131.651
                      53     3 Jun 2027 21:59:21.591     3 Jun 2027 22:05:18.155           356.564
                      54     3 Jun 2027 23:35:14.203     3 Jun 2027 23:42:01.688           407.485
                      55     4 Jun 2027 01:11:30.793     4 Jun 2027 01:17:28.635           357.843
                      56     4 Jun 2027 02:50:33.899     4 Jun 2027 02:57:33.506           419.607
                      57     4 Jun 2027 04:14:41.449     4 Jun 2027 04:16:56.471           135.022
                      58     4 Jun 2027 04:26:53.755     4 Jun 2027 04:27:33.440            39.685
                      59     4 Jun 2027 05:48:56.053     4 Jun 2027 05:50:14.866            78.814
                      60     4 Jun 2027 05:50:59.222     4 Jun 2027 05:54:31.661           212.438
                      61     4 Jun 2027 07:23:48.422     4 Jun 2027 07:31:37.772           469.350
                      62     4 Jun 2027 07:32:03.410     4 Jun 2027 07:32:36.329            32.919
                      63     4 Jun 2027 09:01:31.585     4 Jun 2027 09:08:58.214           446.629
                      64     4 Jun 2027 10:38:19.786     4 Jun 2027 10:44:14.373           354.587
                      65     4 Jun 2027 10:44:25.710     4 Jun 2027 10:45:02.246            36.535
                      66     4 Jun 2027 12:16:21.755     4 Jun 2027 12:20:31.463           249.709
                      67     4 Jun 2027 13:50:14.173     4 Jun 2027 13:56:55.989           401.816
                      68     4 Jun 2027 18:58:11.558     4 Jun 2027 19:01:01.111           169.553
                      69     4 Jun 2027 19:02:00.487     4 Jun 2027 19:02:10.124             9.637
                      70     4 Jun 2027 20:34:36.797     4 Jun 2027 20:38:36.564           239.767
                      71     4 Jun 2027 20:39:36.784     4 Jun 2027 20:42:36.599           179.814
                      72     4 Jun 2027 22:11:10.973     4 Jun 2027 22:17:37.047           386.073
                      73     4 Jun 2027 23:46:42.880     4 Jun 2027 23:54:30.935           468.055
                      74     5 Jun 2027 01:23:56.234     5 Jun 2027 01:24:01.926             5.692
                      75     5 Jun 2027 01:24:17.244     5 Jun 2027 01:24:44.280            27.035
                      76     5 Jun 2027 01:24:46.274     5 Jun 2027 01:29:47.655           301.381
                      77     5 Jun 2027 03:02:38.724     5 Jun 2027 03:08:40.289           361.565
                      78     5 Jun 2027 04:26:45.396     5 Jun 2027 04:28:47.861           122.465
                      79     5 Jun 2027 06:00:31.550     5 Jun 2027 06:06:35.820           364.270
                      80     5 Jun 2027 07:36:32.285     5 Jun 2027 07:43:51.396           439.111
                      81     5 Jun 2027 07:44:01.220     5 Jun 2027 07:45:02.022            60.803
                      82     5 Jun 2027 09:13:35.076     5 Jun 2027 09:20:56.213           441.137
                      83     5 Jun 2027 10:50:29.945     5 Jun 2027 10:55:33.204           303.260
                      84     5 Jun 2027 10:55:44.640     5 Jun 2027 10:56:51.647            67.007
                      85     5 Jun 2027 12:27:35.922     5 Jun 2027 12:32:29.693           293.770
                      86     5 Jun 2027 14:02:36.217     5 Jun 2027 14:03:21.395            45.179
                      87     5 Jun 2027 14:04:17.593     5 Jun 2027 14:07:37.956           200.363
                      88     5 Jun 2027 19:10:16.630     5 Jun 2027 19:12:43.490           146.859
                      89     5 Jun 2027 19:12:55.771     5 Jun 2027 19:15:29.753           153.983
                      90     5 Jun 2027 20:46:30.944     5 Jun 2027 20:51:24.417           293.473
                      91     5 Jun 2027 20:51:25.164     5 Jun 2027 20:53:24.122           118.958
                      92     5 Jun 2027 22:23:12.136     5 Jun 2027 22:29:46.210           394.074
                      93     5 Jun 2027 23:58:42.006     6 Jun 2027 00:06:21.583           459.577
                      94     6 Jun 2027 01:36:27.506     6 Jun 2027 01:36:29.600             2.095
                      95     6 Jun 2027 01:36:49.297     6 Jun 2027 01:37:47.216            57.918
                      96     6 Jun 2027 01:37:53.575     6 Jun 2027 01:42:06.067           252.492
                      97     6 Jun 2027 03:15:15.459     6 Jun 2027 03:19:56.608           281.149
                      98     6 Jun 2027 04:38:40.232     6 Jun 2027 04:41:03.632           143.401
                      99     6 Jun 2027 06:14:59.711     6 Jun 2027 06:18:28.096           208.385
                     100     6 Jun 2027 07:48:29.520     6 Jun 2027 07:57:01.407           511.887
                     101     6 Jun 2027 09:26:00.941     6 Jun 2027 09:32:46.143           405.202
                     102     6 Jun 2027 11:02:57.444     6 Jun 2027 11:07:23.658           266.214
                     103     6 Jun 2027 11:07:28.914     6 Jun 2027 11:08:45.008            76.095
                     104     6 Jun 2027 12:39:48.161     6 Jun 2027 12:44:20.195           272.034
                     105     6 Jun 2027 14:17:24.386     6 Jun 2027 14:19:08.403           104.017
                     106     6 Jun 2027 19:22:30.436     6 Jun 2027 19:25:04.270           153.833
                     107     6 Jun 2027 19:25:49.320     6 Jun 2027 19:27:07.168            77.848
                     108     6 Jun 2027 20:58:32.636     6 Jun 2027 21:05:09.417           396.781
                     109     6 Jun 2027 22:35:14.237     6 Jun 2027 22:41:37.657           383.420
                     110     7 Jun 2027 00:10:46.523     7 Jun 2027 00:18:19.660           453.137
                     111     7 Jun 2027 01:48:51.286     7 Jun 2027 01:49:19.307            28.021
                     112     7 Jun 2027 01:49:22.979     7 Jun 2027 01:55:02.510           339.531
                     113     7 Jun 2027 03:26:53.903     7 Jun 2027 03:31:41.263           287.360
