DATA_Files/Russia2Constellation/AreaTarget-Russia-To-Satellite-KinoSat_09_plane.txt

                                                                                                                                                                                                                                                                                           10 May 2023 21:16:37
Civil Air Patrol Use Only
AreaTarget-Russia-To-Satellite-KinoSat_110901, Satellite-KinoSat_110902, Satellite-KinoSat_110903, Satellite-KinoSat_110904, Satellite-KinoSat_110905, Satellite-KinoSat_110906, Satellite-KinoSat_110907, Satellite-KinoSat_110908, Satellite-KinoSat_110909, Satellite-KinoSat_110910:  Access Summary Report


Russia-To-KinoSat_110901
------------------------
                  Access        Start Time (UTCG)           Stop Time (UTCG)        Duration (sec)
                  ------    ------------------------    ------------------------    --------------
                       1     1 Jun 2027 01:08:51.633     1 Jun 2027 01:14:22.346           330.714
                       2     1 Jun 2027 01:14:53.792     1 Jun 2027 01:16:29.624            95.832
                       3     1 Jun 2027 02:34:32.983     1 Jun 2027 02:35:37.759            64.776
                       4     1 Jun 2027 02:45:52.689     1 Jun 2027 02:47:33.301           100.611
                       5     1 Jun 2027 02:48:32.099     1 Jun 2027 02:48:55.736            23.637
                       6     1 Jun 2027 04:08:27.462     1 Jun 2027 04:13:09.624           282.162
                       7     1 Jun 2027 05:44:00.788     1 Jun 2027 05:44:50.124            49.336
                       8     1 Jun 2027 05:45:28.390     1 Jun 2027 05:50:06.205           277.815
                       9     1 Jun 2027 07:20:17.312     1 Jun 2027 07:27:50.856           453.543
                      10     1 Jun 2027 08:57:23.124     1 Jun 2027 09:03:44.382           381.258
                      11     1 Jun 2027 10:35:20.597     1 Jun 2027 10:39:18.349           237.751
                      12     1 Jun 2027 12:08:25.589     1 Jun 2027 12:14:45.367           379.778
                      13     1 Jun 2027 12:15:28.129     1 Jun 2027 12:16:27.019            58.890
                      14     1 Jun 2027 17:17:04.110     1 Jun 2027 17:19:49.083           164.973
                      15     1 Jun 2027 18:53:22.913     1 Jun 2027 18:56:49.457           206.544
                      16     1 Jun 2027 20:30:03.610     1 Jun 2027 20:36:16.240           372.630
                      17     1 Jun 2027 22:06:10.131     1 Jun 2027 22:12:50.168           400.037
                      18     1 Jun 2027 23:42:14.600     1 Jun 2027 23:48:26.687           372.087
                      19     2 Jun 2027 01:21:20.870     2 Jun 2027 01:28:29.176           428.306
                      20     2 Jun 2027 02:46:11.320     2 Jun 2027 02:47:45.694            94.374
                      21     2 Jun 2027 02:57:55.138     2 Jun 2027 02:58:56.852            61.713
                      22     2 Jun 2027 04:20:10.650     2 Jun 2027 04:21:16.558            65.907
                      23     2 Jun 2027 04:22:07.509     2 Jun 2027 04:25:22.706           195.197
                      24     2 Jun 2027 05:55:08.960     2 Jun 2027 05:57:02.856           113.897
                      25     2 Jun 2027 05:57:12.260     2 Jun 2027 06:02:28.984           316.724
                      26     2 Jun 2027 06:03:05.983     2 Jun 2027 06:03:30.020            24.036
                      27     2 Jun 2027 07:32:36.978     2 Jun 2027 07:39:55.013           438.035
                      28     2 Jun 2027 09:09:22.697     2 Jun 2027 09:15:33.959           371.262
                      29     2 Jun 2027 09:15:38.413     2 Jun 2027 09:15:53.888            15.475
                      30     2 Jun 2027 10:47:20.421     2 Jun 2027 10:51:30.750           250.329
                      31     2 Jun 2027 12:20:58.059     2 Jun 2027 12:28:21.990           443.931
                      32     2 Jun 2027 17:29:04.552     2 Jun 2027 17:31:48.379           163.827
                      33     2 Jun 2027 19:05:34.667     2 Jun 2027 19:08:56.953           202.285
                      34     2 Jun 2027 19:10:20.031     2 Jun 2027 19:13:01.542           161.511
                      35     2 Jun 2027 20:42:17.207     2 Jun 2027 20:48:16.231           359.023
                      36     2 Jun 2027 22:17:48.284     2 Jun 2027 22:18:05.938            17.654
                      37     2 Jun 2027 22:18:15.229     2 Jun 2027 22:25:12.966           417.737
                      38     2 Jun 2027 23:54:33.190     2 Jun 2027 23:55:03.593            30.403
                      39     2 Jun 2027 23:55:06.036     2 Jun 2027 23:55:43.858            37.822
                      40     2 Jun 2027 23:55:45.078     2 Jun 2027 23:56:45.095            60.017
                      41     2 Jun 2027 23:56:47.439     3 Jun 2027 00:00:35.550           228.111
                      42     3 Jun 2027 01:33:21.821     3 Jun 2027 01:40:24.786           422.965
                      43     3 Jun 2027 02:57:44.550     3 Jun 2027 02:59:50.720           126.170
                      44     3 Jun 2027 03:09:56.762     3 Jun 2027 03:10:28.283            31.520
                      45     3 Jun 2027 04:31:47.282     3 Jun 2027 04:33:03.617            76.335
                      46     3 Jun 2027 04:33:52.045     3 Jun 2027 04:37:35.440           223.394
                      47     3 Jun 2027 06:06:36.813     3 Jun 2027 06:14:39.285           482.472
                      48     3 Jun 2027 06:14:59.664     3 Jun 2027 06:15:57.853            58.188
                      49     3 Jun 2027 07:44:30.047     3 Jun 2027 07:51:54.458           444.411
                      50     3 Jun 2027 09:21:13.901     3 Jun 2027 09:27:58.092           404.191
                      51     3 Jun 2027 10:59:20.817     3 Jun 2027 11:03:29.557           248.740
                      52     3 Jun 2027 12:35:03.499     3 Jun 2027 12:39:28.204           264.706
                      53     3 Jun 2027 17:41:10.461     3 Jun 2027 17:44:03.792           173.331
                      54     3 Jun 2027 17:44:37.154     3 Jun 2027 17:45:13.967            36.813
                      55     3 Jun 2027 19:17:34.022     3 Jun 2027 19:21:52.757           258.735
                      56     3 Jun 2027 19:22:26.462     3 Jun 2027 19:25:36.604           190.142
                      57     3 Jun 2027 20:54:08.718     3 Jun 2027 21:00:41.527           392.809
                      58     3 Jun 2027 22:29:39.810     3 Jun 2027 22:37:23.170           463.361
                      59     4 Jun 2027 00:07:17.748     4 Jun 2027 00:08:56.960            99.212
                      60     4 Jun 2027 00:09:20.572     4 Jun 2027 00:12:52.435           211.863
                      61     4 Jun 2027 01:45:43.393     4 Jun 2027 01:50:53.342           309.949
                      62     4 Jun 2027 03:09:40.502     4 Jun 2027 03:11:57.185           136.683
                      63     4 Jun 2027 04:45:41.009     4 Jun 2027 04:49:33.982           232.973
                      64     4 Jun 2027 06:19:28.498     4 Jun 2027 06:26:53.713           445.215
                      65     4 Jun 2027 06:26:59.352     4 Jun 2027 06:27:59.189            59.836
                      66     4 Jun 2027 07:56:37.312     4 Jun 2027 08:03:55.737           438.425
                      67     4 Jun 2027 09:33:51.429     4 Jun 2027 09:38:23.900           272.472
                      68     4 Jun 2027 09:38:33.520     4 Jun 2027 09:39:44.724            71.204
                      69     4 Jun 2027 11:10:34.203     4 Jun 2027 11:15:28.815           294.612
                      70     4 Jun 2027 12:45:45.581     4 Jun 2027 12:45:59.841            14.261
                      71     4 Jun 2027 12:47:19.906     4 Jun 2027 12:50:29.513           189.607
                      72     4 Jun 2027 17:53:15.478     4 Jun 2027 17:55:45.535           150.057
                      73     4 Jun 2027 17:56:07.725     4 Jun 2027 17:58:43.628           155.903
                      74     4 Jun 2027 19:29:27.470     4 Jun 2027 19:36:24.341           416.870
                      75     4 Jun 2027 21:06:12.171     4 Jun 2027 21:12:40.097           387.927
                      76     4 Jun 2027 22:41:39.371     4 Jun 2027 22:49:13.006           453.636
                      77     5 Jun 2027 00:19:55.175     5 Jun 2027 00:20:37.575            42.400
                      78     5 Jun 2027 00:20:42.786     5 Jun 2027 00:21:30.280            47.494
                      79     5 Jun 2027 00:21:32.906     5 Jun 2027 00:26:03.618           270.712
                      80     5 Jun 2027 01:58:13.657     5 Jun 2027 02:02:54.463           280.806
                      81     5 Jun 2027 03:21:33.541     5 Jun 2027 03:24:07.322           153.781
                      82     5 Jun 2027 04:57:55.415     5 Jun 2027 05:01:24.107           208.692
                      83     5 Jun 2027 06:31:51.639     5 Jun 2027 06:38:55.662           424.023
                      84     5 Jun 2027 06:38:57.162     5 Jun 2027 06:39:57.958            60.796
                      85     5 Jun 2027 08:09:02.880     5 Jun 2027 08:15:44.616           401.736
                      86     5 Jun 2027 09:46:04.882     5 Jun 2027 09:50:22.311           257.430
                      87     5 Jun 2027 09:50:22.342     5 Jun 2027 09:51:26.476            64.134
                      88     5 Jun 2027 11:22:49.392     5 Jun 2027 11:27:19.449           270.057
                      89     5 Jun 2027 13:00:58.997     5 Jun 2027 13:02:05.751            66.754
                      90     5 Jun 2027 18:05:34.366     5 Jun 2027 18:07:51.455           137.089
                      91     5 Jun 2027 18:08:53.442     5 Jun 2027 18:09:45.392            51.950
                      92     5 Jun 2027 19:41:31.946     5 Jun 2027 19:48:03.877           391.932
                      93     5 Jun 2027 21:18:13.565     5 Jun 2027 21:24:36.871           383.306
                      94     5 Jun 2027 22:53:46.541     5 Jun 2027 23:01:16.190           449.648
                      95     6 Jun 2027 00:31:48.188     6 Jun 2027 00:31:53.319             5.131
                      96     6 Jun 2027 00:32:17.974     6 Jun 2027 00:38:02.816           344.842
                      97     6 Jun 2027 02:10:29.197     6 Jun 2027 02:14:29.735           240.538
                      98     6 Jun 2027 03:33:26.194     6 Jun 2027 03:36:09.442           163.248
                      99     6 Jun 2027 05:09:59.805     6 Jun 2027 05:13:32.895           213.090
                     100     6 Jun 2027 06:45:08.617     6 Jun 2027 06:50:53.394           344.776
                     101     6 Jun 2027 06:50:54.876     6 Jun 2027 06:51:56.921            62.045
                     102     6 Jun 2027 08:21:28.543     6 Jun 2027 08:27:50.923           382.380
                     103     6 Jun 2027 09:59:03.335     6 Jun 2027 10:03:23.771           260.436
                     104     6 Jun 2027 11:35:05.942     6 Jun 2027 11:39:17.294           251.352
                     105     6 Jun 2027 18:17:37.706     6 Jun 2027 18:20:17.047           159.341
                     106     6 Jun 2027 19:53:34.756     6 Jun 2027 19:59:39.667           364.911
                     107     6 Jun 2027 21:30:17.252     6 Jun 2027 21:36:40.051           382.799
                     108     6 Jun 2027 23:05:47.796     6 Jun 2027 23:13:00.798           433.002
                     109     7 Jun 2027 00:43:56.710     7 Jun 2027 00:44:58.927            62.217
                     110     7 Jun 2027 00:45:05.422     7 Jun 2027 00:50:09.103           303.681
                     111     7 Jun 2027 02:22:15.191     7 Jun 2027 02:22:47.394            32.203
                     112     7 Jun 2027 02:23:04.452     7 Jun 2027 02:26:05.012           180.560
                     113     7 Jun 2027 03:45:35.198     7 Jun 2027 03:48:46.779           191.581
                     114     7 Jun 2027 05:22:10.327     7 Jun 2027 05:25:38.215           207.888
                     115     7 Jun 2027 06:57:20.276     7 Jun 2027 07:03:56.026           395.750
                     116     7 Jun 2027 08:33:41.297     7 Jun 2027 08:39:50.727           369.430
                     117     7 Jun 2027 10:10:58.210     7 Jun 2027 10:15:38.808           280.597
                     118     7 Jun 2027 11:47:10.498     7 Jun 2027 11:52:01.675           291.177
                     119     7 Jun 2027 16:54:20.288     7 Jun 2027 16:54:20.628             0.340
                     120     7 Jun 2027 18:29:47.807     7 Jun 2027 18:32:55.040           187.233
                     121     7 Jun 2027 20:05:39.543     7 Jun 2027 20:11:17.790           338.247
                     122     7 Jun 2027 21:42:14.478     7 Jun 2027 21:48:27.911           373.433
                     123     7 Jun 2027 23:17:45.150     7 Jun 2027 23:24:41.024           415.874
                     124     8 Jun 2027 00:56:02.641     8 Jun 2027 00:56:05.009             2.368
                     125     8 Jun 2027 00:57:03.168     8 Jun 2027 01:02:09.658           306.490
                     126     8 Jun 2027 01:03:32.875     8 Jun 2027 01:05:00.077            87.203
                     127     8 Jun 2027 02:34:11.666     8 Jun 2027 02:34:50.976            39.310
                     128     8 Jun 2027 02:35:11.491     8 Jun 2027 02:37:45.856           154.365
                     129     8 Jun 2027 03:58:08.002     8 Jun 2027 04:00:50.903           162.902
                     130     8 Jun 2027 05:33:58.347     8 Jun 2027 05:38:06.724           248.377
                     131     8 Jun 2027 07:08:51.842     8 Jun 2027 07:16:05.093           433.251
                     132     8 Jun 2027 08:45:19.239     8 Jun 2027 08:51:43.793           384.554
                     133     8 Jun 2027 10:23:37.517     8 Jun 2027 10:27:31.873           234.357
                     134     8 Jun 2027 11:59:04.186     8 Jun 2027 12:03:05.299           241.114
                     135     8 Jun 2027 12:03:26.554     8 Jun 2027 12:04:25.416            58.862
                     136     8 Jun 2027 17:05:34.527     8 Jun 2027 17:07:24.523           109.996
                     137     8 Jun 2027 18:41:35.528     8 Jun 2027 18:44:55.972           200.445
                     138     8 Jun 2027 20:18:09.957     8 Jun 2027 20:23:23.810           313.854
                     139     8 Jun 2027 21:54:20.146     8 Jun 2027 22:01:07.706           407.560
                     140     8 Jun 2027 23:30:14.454     8 Jun 2027 23:36:56.207           401.753
                     141     9 Jun 2027 01:09:06.655     9 Jun 2027 01:14:37.003           330.348
                     142     9 Jun 2027 01:15:08.736     9 Jun 2027 01:16:44.993            96.257
                     143     9 Jun 2027 02:34:46.815     9 Jun 2027 02:35:52.992            66.177
                     144     9 Jun 2027 02:46:07.598     9 Jun 2027 02:47:48.235           100.638
                     145     9 Jun 2027 02:48:47.016     9 Jun 2027 02:49:09.794            22.778
                     146     9 Jun 2027 04:08:42.395     9 Jun 2027 04:09:46.745            64.350
                     147     9 Jun 2027 04:10:17.643     9 Jun 2027 04:13:24.837           187.195
                     148     9 Jun 2027 05:44:14.496     9 Jun 2027 05:45:05.031            50.535
                     149     9 Jun 2027 05:45:43.097     9 Jun 2027 05:50:21.585           278.488
                     150     9 Jun 2027 07:20:32.966     9 Jun 2027 07:28:05.889           452.922
                     151     9 Jun 2027 08:57:38.933     9 Jun 2027 09:03:59.323           380.390
                     152     9 Jun 2027 10:35:35.750     9 Jun 2027 10:39:33.483           237.733
                     153     9 Jun 2027 12:08:40.569     9 Jun 2027 12:15:00.767           380.197
                     154     9 Jun 2027 12:15:43.086     9 Jun 2027 12:16:42.287            59.201
                     155     9 Jun 2027 17:17:19.087     9 Jun 2027 17:20:04.591           165.504
                     156     9 Jun 2027 18:53:38.037     9 Jun 2027 18:57:04.146           206.109
                     157     9 Jun 2027 20:30:18.521     9 Jun 2027 20:36:31.109           372.588
                     158     9 Jun 2027 22:06:25.050     9 Jun 2027 22:13:05.191           400.141
                     159     9 Jun 2027 23:42:29.678     9 Jun 2027 23:48:39.968           370.290
                     160    10 Jun 2027 01:21:35.816    10 Jun 2027 01:28:44.223           428.407
                     161    10 Jun 2027 02:46:26.279    10 Jun 2027 02:48:01.404            95.124
                     162    10 Jun 2027 02:58:10.075    10 Jun 2027 02:59:11.358            61.282
                     163    10 Jun 2027 04:20:25.473    10 Jun 2027 04:21:31.318            65.845
                     164    10 Jun 2027 04:22:21.564    10 Jun 2027 04:25:38.173           196.609
                     165    10 Jun 2027 05:55:23.358    10 Jun 2027 05:57:18.101           114.743
                     166    10 Jun 2027 05:57:27.053    10 Jun 2027 06:02:44.233           317.180
                     167    10 Jun 2027 06:03:20.674    10 Jun 2027 06:03:45.142            24.468
                     168    10 Jun 2027 07:32:51.844    10 Jun 2027 07:40:10.050           438.206
                     169    10 Jun 2027 09:09:36.612    10 Jun 2027 09:15:48.892           372.280
                     170    10 Jun 2027 09:15:53.083    10 Jun 2027 09:16:09.019            15.936
                     171    10 Jun 2027 10:47:34.985    10 Jun 2027 10:51:45.728           250.743
                     172    10 Jun 2027 12:21:12.835    10 Jun 2027 12:28:36.993           444.158
                     173    10 Jun 2027 17:29:19.384    10 Jun 2027 17:32:03.721           164.337
                     174    10 Jun 2027 19:05:49.815    10 Jun 2027 19:09:12.340           202.525
                     175    10 Jun 2027 19:10:34.784    10 Jun 2027 19:13:17.211           162.427
                     176    10 Jun 2027 20:42:32.076    10 Jun 2027 20:48:32.280           360.203
                     177    10 Jun 2027 22:18:03.109    10 Jun 2027 22:18:21.077            17.968
                     178    10 Jun 2027 22:18:30.300    10 Jun 2027 22:25:28.379           418.079
                     179    10 Jun 2027 23:54:48.339    10 Jun 2027 23:55:58.730            70.390
                     180    10 Jun 2027 23:56:00.396    10 Jun 2027 23:56:59.866            59.471
                     181    10 Jun 2027 23:57:02.290    11 Jun 2027 00:00:50.952           228.662
                     182    11 Jun 2027 01:33:37.043    11 Jun 2027 01:40:39.358           422.315
                     183    11 Jun 2027 02:57:59.588    11 Jun 2027 03:00:05.675           126.087
                     184    11 Jun 2027 03:10:11.835    11 Jun 2027 03:10:43.297            31.462
                     185    11 Jun 2027 04:31:58.559    11 Jun 2027 04:33:17.905            79.346
                     186    11 Jun 2027 04:34:06.505    11 Jun 2027 04:37:50.708           224.202
                     187    11 Jun 2027 06:06:51.361    11 Jun 2027 06:14:54.402           483.041
                     188    11 Jun 2027 06:15:14.686    11 Jun 2027 06:16:12.925            58.238
                     189    11 Jun 2027 07:44:44.952    11 Jun 2027 07:52:09.764           444.812
                     190    11 Jun 2027 09:21:28.879    11 Jun 2027 09:27:20.054           351.175
                     191    11 Jun 2027 09:27:25.897    11 Jun 2027 09:28:12.993            47.096
                     192    11 Jun 2027 10:59:35.217    11 Jun 2027 11:03:44.808           249.591
                     193    11 Jun 2027 12:35:19.481    11 Jun 2027 12:39:42.769           263.287
                     194    11 Jun 2027 17:41:25.634    11 Jun 2027 17:44:21.224           175.590
                     195    11 Jun 2027 17:44:52.372    11 Jun 2027 17:45:51.118            58.747
                     196    11 Jun 2027 19:17:49.012    11 Jun 2027 19:22:09.391           260.379
                     197    11 Jun 2027 19:22:47.531    11 Jun 2027 19:25:51.837           184.307
                     198    11 Jun 2027 20:54:23.654    11 Jun 2027 21:00:56.527           392.873
                     199    11 Jun 2027 22:29:54.881    11 Jun 2027 22:37:38.011           463.130
                     200    12 Jun 2027 00:07:32.873    12 Jun 2027 00:09:11.752            98.879
                     201    12 Jun 2027 00:09:36.140    12 Jun 2027 00:13:07.757           211.616
                     202    12 Jun 2027 01:45:59.031    12 Jun 2027 01:51:08.249           309.217
                     203    12 Jun 2027 03:09:55.418    12 Jun 2027 03:12:12.038           136.619
                     204    12 Jun 2027 04:45:56.386    12 Jun 2027 04:49:48.807           232.421
                     205    12 Jun 2027 06:19:43.764    12 Jun 2027 06:27:08.949           445.186
                     206    12 Jun 2027 06:27:14.286    12 Jun 2027 06:28:14.153            59.867
                     207    12 Jun 2027 07:56:52.563    12 Jun 2027 08:04:10.579           438.016
                     208    12 Jun 2027 09:34:07.066    12 Jun 2027 09:38:38.774           271.708
                     209    12 Jun 2027 09:38:48.495    12 Jun 2027 09:39:59.583            71.088
                     210    12 Jun 2027 11:10:49.116    12 Jun 2027 11:15:40.907           291.790
                     211    12 Jun 2027 12:46:00.877    12 Jun 2027 12:46:14.874            13.998
                     212    12 Jun 2027 12:47:35.621    12 Jun 2027 12:50:44.207           188.586
                     213    12 Jun 2027 17:53:30.510    12 Jun 2027 17:56:01.859           151.349
                     214    12 Jun 2027 17:56:23.262    12 Jun 2027 17:58:58.953           155.691
                     215    12 Jun 2027 19:29:42.495    12 Jun 2027 19:36:39.957           417.462
                     216    12 Jun 2027 21:06:27.073    12 Jun 2027 21:12:53.351           386.278
                     217    12 Jun 2027 22:41:54.439    12 Jun 2027 22:49:27.783           453.344
                     218    13 Jun 2027 00:20:10.446    13 Jun 2027 00:20:49.952            39.506
                     219    13 Jun 2027 00:20:57.189    13 Jun 2027 00:21:45.596            48.407
                     220    13 Jun 2027 00:21:48.001    13 Jun 2027 00:26:18.802           270.801
                     221    13 Jun 2027 01:58:28.191    13 Jun 2027 02:03:09.020           280.829
                     222    13 Jun 2027 03:21:48.360    13 Jun 2027 03:24:22.542           154.183
                     223    13 Jun 2027 04:58:09.263    13 Jun 2027 05:01:38.942           209.680
                     224    13 Jun 2027 06:32:07.583    13 Jun 2027 06:39:10.212           422.629
                     225    13 Jun 2027 06:39:12.028    13 Jun 2027 06:40:12.943            60.915
                     226    13 Jun 2027 08:09:17.960    13 Jun 2027 08:15:59.965           402.006
                     227    13 Jun 2027 09:46:17.360    13 Jun 2027 09:51:41.512           324.152
                     228    13 Jun 2027 11:23:03.911    13 Jun 2027 11:27:34.389           270.478
                     229    13 Jun 2027 13:01:14.198    13 Jun 2027 13:02:17.504            63.306
                     230    13 Jun 2027 18:05:49.312    13 Jun 2027 18:08:06.217           136.905
                     231    13 Jun 2027 18:09:18.496    13 Jun 2027 18:09:59.138            40.642
                     232    13 Jun 2027 19:41:46.990    13 Jun 2027 19:48:18.663           391.673
                     233    13 Jun 2027 21:18:28.519    13 Jun 2027 21:24:51.979           383.460
                     234    13 Jun 2027 22:54:01.737    13 Jun 2027 23:01:31.293           449.556

Min Duration         119     7 Jun 2027 16:54:20.288     7 Jun 2027 16:54:20.628             0.340
Max Duration         187    11 Jun 2027 06:06:51.361    11 Jun 2027 06:14:54.402           483.041
Mean Duration                                                                              229.510
Total Duration                                                                           53705.352


Russia-To-KinoSat_110902
------------------------
                  Access        Start Time (UTCG)           Stop Time (UTCG)        Duration (sec)
                  ------    ------------------------    ------------------------    --------------
                       1     1 Jun 2027 00:59:13.791     1 Jun 2027 01:04:26.007           312.216
                       2     1 Jun 2027 01:05:34.138     1 Jun 2027 01:07:05.930            91.792
                       3     1 Jun 2027 02:25:31.649     1 Jun 2027 02:25:46.678            15.029
                       4     1 Jun 2027 02:36:20.830     1 Jun 2027 02:37:02.106            41.276
                       5     1 Jun 2027 02:37:10.238     1 Jun 2027 02:39:56.071           165.833
                       6     1 Jun 2027 04:00:18.809     1 Jun 2027 04:03:02.241           163.432
                       7     1 Jun 2027 05:36:04.117     1 Jun 2027 05:40:17.838           253.721
                       8     1 Jun 2027 07:10:55.658     1 Jun 2027 07:18:17.148           441.489
                       9     1 Jun 2027 08:47:31.053     1 Jun 2027 08:53:54.759           383.706
                      10     1 Jun 2027 10:25:48.685     1 Jun 2027 10:29:43.342           234.657
                      11     1 Jun 2027 11:59:48.682     1 Jun 2027 12:00:35.492            46.810
                      12     1 Jun 2027 12:01:08.574     1 Jun 2027 12:05:19.503           250.929
                      13     1 Jun 2027 12:05:39.466     1 Jun 2027 12:06:38.130            58.663
                      14     1 Jun 2027 17:07:37.967     1 Jun 2027 17:09:38.821           120.854
                      15     1 Jun 2027 18:43:45.852     1 Jun 2027 18:47:06.688           200.835
                      16     1 Jun 2027 20:20:20.874     1 Jun 2027 20:26:07.340           346.466
                      17     1 Jun 2027 21:56:31.697     1 Jun 2027 22:03:19.843           408.146
                      18     1 Jun 2027 23:32:37.124     1 Jun 2027 23:39:01.935           384.810
                      19     2 Jun 2027 01:11:17.928     2 Jun 2027 01:18:57.445           459.517
                      20     2 Jun 2027 02:36:48.728     2 Jun 2027 02:38:04.695            75.967
                      21     2 Jun 2027 02:48:17.931     2 Jun 2027 02:49:57.484            99.553
                      22     2 Jun 2027 04:10:57.279     2 Jun 2027 04:11:56.277            58.999
                      23     2 Jun 2027 04:12:33.041     2 Jun 2027 04:15:36.864           183.823
                      24     2 Jun 2027 05:46:18.184     2 Jun 2027 05:47:15.704            57.521
                      25     2 Jun 2027 05:47:49.264     2 Jun 2027 05:52:35.223           285.959
                      26     2 Jun 2027 07:22:46.808     2 Jun 2027 07:30:17.551           450.743
                      27     2 Jun 2027 08:59:52.247     2 Jun 2027 09:05:42.152           349.905
                      28     2 Jun 2027 09:05:43.701     2 Jun 2027 09:06:04.191            20.490
                      29     2 Jun 2027 10:37:46.302     2 Jun 2027 10:41:45.842           239.540
                      30     2 Jun 2027 12:10:54.151     2 Jun 2027 12:17:18.094           383.943
                      31     2 Jun 2027 12:17:40.081     2 Jun 2027 12:18:49.748            69.667
                      32     2 Jun 2027 17:19:29.994     2 Jun 2027 17:22:13.912           163.918
                      33     2 Jun 2027 18:55:50.023     2 Jun 2027 18:59:13.699           203.676
                      34     2 Jun 2027 19:01:45.836     2 Jun 2027 19:02:18.538            32.702
                      35     2 Jun 2027 20:32:27.417     2 Jun 2027 20:38:39.253           371.836
                      36     2 Jun 2027 22:08:34.946     2 Jun 2027 22:15:15.249           400.302
                      37     2 Jun 2027 23:44:42.302     2 Jun 2027 23:50:50.286           367.984
                      38     3 Jun 2027 01:23:47.746     3 Jun 2027 01:30:54.712           426.966
                      39     3 Jun 2027 02:48:04.755     3 Jun 2027 02:50:14.392           129.636
                      40     3 Jun 2027 03:00:17.673     3 Jun 2027 03:01:18.598            60.925
                      41     3 Jun 2027 04:22:33.216     3 Jun 2027 04:23:39.878            66.663
                      42     3 Jun 2027 04:24:28.730     3 Jun 2027 04:27:50.775           202.044
                      43     3 Jun 2027 05:57:27.230     3 Jun 2027 05:59:29.643           122.414
                      44     3 Jun 2027 05:59:36.116     3 Jun 2027 06:04:48.337           312.221
                      45     3 Jun 2027 06:05:28.662     3 Jun 2027 06:05:56.167            27.505
                      46     3 Jun 2027 07:35:00.680     3 Jun 2027 07:42:20.918           440.237
                      47     3 Jun 2027 09:11:43.153     3 Jun 2027 09:17:04.713           321.560
                      48     3 Jun 2027 09:17:08.227     3 Jun 2027 09:17:56.669            48.442
                      49     3 Jun 2027 09:18:00.912     3 Jun 2027 09:18:20.872            19.959
                      50     3 Jun 2027 10:49:46.232     3 Jun 2027 10:53:55.735           249.503
                      51     3 Jun 2027 12:23:23.244     3 Jun 2027 12:30:46.997           443.752
                      52     3 Jun 2027 17:31:30.486     3 Jun 2027 17:34:19.879           169.393
                      53     3 Jun 2027 19:08:02.339     3 Jun 2027 19:11:33.398           211.059
                      54     3 Jun 2027 19:12:44.884     3 Jun 2027 19:15:42.148           177.264
                      55     3 Jun 2027 20:44:40.892     3 Jun 2027 20:50:48.765           367.873
                      56     3 Jun 2027 22:20:09.623     3 Jun 2027 22:20:53.025            43.402
                      57     3 Jun 2027 22:20:54.270     3 Jun 2027 22:27:43.961           409.692
                      58     3 Jun 2027 23:57:02.406     3 Jun 2027 23:57:29.071            26.665
                      59     3 Jun 2027 23:57:34.171     3 Jun 2027 23:58:08.411            34.240
                      60     3 Jun 2027 23:58:12.303     3 Jun 2027 23:59:06.246            53.943
                      61     3 Jun 2027 23:59:08.125     4 Jun 2027 00:03:04.361           236.235
                      62     4 Jun 2027 01:35:49.846     4 Jun 2027 01:42:46.680           416.833
                      63     4 Jun 2027 03:00:10.497     4 Jun 2027 03:02:03.794           113.297
                      64     4 Jun 2027 03:12:25.984     4 Jun 2027 03:12:52.983            26.999
                      65     4 Jun 2027 04:34:02.698     4 Jun 2027 04:35:25.742            83.045
                      66     4 Jun 2027 04:36:02.178     4 Jun 2027 04:40:02.890           240.712
                      67     4 Jun 2027 06:08:57.867     4 Jun 2027 06:17:05.228           487.361
                      68     4 Jun 2027 06:17:25.589     4 Jun 2027 06:18:23.634            58.045
                      69     4 Jun 2027 07:46:54.652     4 Jun 2027 07:54:22.453           447.801
                      70     4 Jun 2027 09:23:46.464     4 Jun 2027 09:29:11.722           325.258
                      71     4 Jun 2027 09:29:30.295     4 Jun 2027 09:30:21.093            50.799
                      72     4 Jun 2027 11:01:32.798     4 Jun 2027 11:05:54.359           261.562
                      73     4 Jun 2027 12:37:32.278     4 Jun 2027 12:41:46.575           254.297
                      74     4 Jun 2027 17:43:37.849     4 Jun 2027 17:46:47.783           189.934
                      75     4 Jun 2027 17:47:02.264     4 Jun 2027 17:48:02.650            60.386
                      76     4 Jun 2027 19:19:59.086     4 Jun 2027 19:24:28.459           269.374
                      77     4 Jun 2027 19:24:46.289     4 Jun 2027 19:26:34.625           108.336
                      78     4 Jun 2027 20:56:33.066     4 Jun 2027 21:03:07.898           394.832
                      79     4 Jun 2027 22:32:05.609     4 Jun 2027 22:39:50.928           465.319
                      80     5 Jun 2027 00:09:44.945     5 Jun 2027 00:10:00.219            15.274
                      81     5 Jun 2027 00:10:08.951     5 Jun 2027 00:11:10.128            61.177
                      82     5 Jun 2027 00:11:55.810     5 Jun 2027 00:15:21.730           205.920
                      83     5 Jun 2027 01:48:15.443     5 Jun 2027 01:53:19.142           303.699
                      84     5 Jun 2027 03:12:06.463     5 Jun 2027 03:14:21.785           135.322
                      85     5 Jun 2027 04:48:05.885     5 Jun 2027 04:51:53.385           227.499
                      86     5 Jun 2027 06:21:51.876     5 Jun 2027 06:30:24.981           513.105
                      87     5 Jun 2027 07:59:14.839     5 Jun 2027 08:06:19.882           425.044
                      88     5 Jun 2027 09:36:19.337     5 Jun 2027 09:40:48.435           269.098
                      89     5 Jun 2027 09:40:56.346     5 Jun 2027 09:42:09.539            73.193
                      90     5 Jun 2027 11:13:03.636     5 Jun 2027 11:17:52.215           288.579
                      91     5 Jun 2027 12:48:19.569     5 Jun 2027 12:48:28.512             8.943
                      92     5 Jun 2027 12:50:00.564     5 Jun 2027 12:52:52.484           171.920
                      93     5 Jun 2027 17:55:58.836     5 Jun 2027 17:58:20.672           141.836
                      94     5 Jun 2027 17:58:43.347     5 Jun 2027 18:01:00.954           137.607
                      95     5 Jun 2027 19:31:53.269     5 Jun 2027 19:38:47.628           414.359
                      96     5 Jun 2027 21:08:36.887     5 Jun 2027 21:15:02.600           385.713
                      97     5 Jun 2027 22:44:05.125     5 Jun 2027 22:51:35.157           450.032
                      98     6 Jun 2027 00:22:28.866     6 Jun 2027 00:22:47.945            19.079
                      99     6 Jun 2027 00:23:01.496     6 Jun 2027 00:28:28.532           327.036
                     100     6 Jun 2027 02:00:36.317     6 Jun 2027 02:05:10.727           274.411
                     101     6 Jun 2027 03:23:58.121     6 Jun 2027 03:26:32.948           154.827
                     102     6 Jun 2027 05:00:20.167     6 Jun 2027 05:03:54.289           214.122
                     103     6 Jun 2027 06:32:37.007     6 Jun 2027 06:32:55.605            18.598
                     104     6 Jun 2027 06:34:24.173     6 Jun 2027 06:41:19.090           414.917
                     105     6 Jun 2027 06:41:21.232     6 Jun 2027 06:42:22.460            61.229
                     106     6 Jun 2027 08:11:28.665     6 Jun 2027 08:18:11.427           402.761
                     107     6 Jun 2027 09:48:24.805     6 Jun 2027 09:52:48.861           264.056
                     108     6 Jun 2027 09:52:49.394     6 Jun 2027 09:53:24.211            34.818
                     109     6 Jun 2027 11:25:11.408     6 Jun 2027 11:29:52.915           281.507
                     110     6 Jun 2027 13:03:23.398     6 Jun 2027 13:04:21.641            58.243
                     111     6 Jun 2027 18:08:01.259     6 Jun 2027 18:10:15.591           134.331
                     112     6 Jun 2027 18:11:39.359     6 Jun 2027 18:11:43.285             3.926
                     113     6 Jun 2027 19:43:57.575     6 Jun 2027 19:50:29.145           391.570
                     114     6 Jun 2027 21:20:39.572     6 Jun 2027 21:27:05.727           386.156
                     115     6 Jun 2027 22:56:13.300     6 Jun 2027 23:03:43.192           449.892
                     116     7 Jun 2027 00:34:33.136     7 Jun 2027 00:35:28.459            55.322
                     117     7 Jun 2027 00:35:34.184     7 Jun 2027 00:40:34.770           300.586
                     118     7 Jun 2027 02:13:01.418     7 Jun 2027 02:16:58.445           237.027
                     119     7 Jun 2027 03:36:01.603     7 Jun 2027 03:39:02.730           181.127
                     120     7 Jun 2027 05:12:30.721     7 Jun 2027 05:16:00.140           209.419
                     121     7 Jun 2027 06:47:35.621     7 Jun 2027 06:54:23.504           407.883
                     122     7 Jun 2027 08:23:57.412     7 Jun 2027 08:30:17.775           380.362
                     123     7 Jun 2027 10:01:27.905     7 Jun 2027 10:05:53.656           265.751
                     124     7 Jun 2027 11:37:32.521     7 Jun 2027 11:41:46.989           254.468
                     125     7 Jun 2027 18:20:05.823     7 Jun 2027 18:22:52.623           166.799
                     126     7 Jun 2027 19:56:01.362     7 Jun 2027 20:01:56.437           355.075
                     127     7 Jun 2027 21:32:43.868     7 Jun 2027 21:38:54.996           371.128
                     128     7 Jun 2027 23:08:14.516     7 Jun 2027 23:15:20.430           425.914
                     129     8 Jun 2027 00:46:22.567     8 Jun 2027 00:47:21.493            58.926
                     130     8 Jun 2027 00:47:30.060     8 Jun 2027 00:52:31.594           301.534
                     131     8 Jun 2027 02:24:39.522     8 Jun 2027 02:25:14.740            35.219
                     132     8 Jun 2027 02:25:27.921     8 Jun 2027 02:28:24.665           176.745
                     133     8 Jun 2027 03:47:57.629     8 Jun 2027 03:51:13.426           195.797
                     134     8 Jun 2027 05:24:35.425     8 Jun 2027 05:28:00.807           205.382
                     135     8 Jun 2027 06:59:45.693     8 Jun 2027 07:06:22.075           396.383
                     136     8 Jun 2027 08:36:00.800     8 Jun 2027 08:41:50.325           349.525
                     137     8 Jun 2027 08:41:58.976     8 Jun 2027 08:42:07.892             8.916
                     138     8 Jun 2027 10:13:33.458     8 Jun 2027 10:18:05.122           271.664
                     139     8 Jun 2027 11:49:34.780     8 Jun 2027 11:53:46.820           252.040
                     140     8 Jun 2027 11:53:50.974     8 Jun 2027 11:54:34.570            43.596
                     141     8 Jun 2027 16:56:35.424     8 Jun 2027 16:56:52.994            17.570
                     142     8 Jun 2027 18:32:13.889     8 Jun 2027 18:35:10.269           176.380
                     143     8 Jun 2027 20:08:05.660     8 Jun 2027 20:13:41.263           335.604
                     144     8 Jun 2027 21:44:41.121     8 Jun 2027 21:51:22.359           401.237
                     145     8 Jun 2027 23:20:11.739     8 Jun 2027 23:27:06.243           414.503
                     146     9 Jun 2027 00:59:28.815     9 Jun 2027 01:04:41.798           312.982
                     147     9 Jun 2027 01:05:48.196     9 Jun 2027 01:07:20.457            92.261
                     148     9 Jun 2027 02:25:45.791     9 Jun 2027 02:26:02.422            16.631
                     149     9 Jun 2027 02:36:35.657     9 Jun 2027 02:40:11.525           215.868
                     150     9 Jun 2027 04:00:33.482     9 Jun 2027 04:03:17.432           163.950
                     151     9 Jun 2027 05:36:19.051     9 Jun 2027 05:40:32.961           253.911
                     152     9 Jun 2027 07:11:10.264     9 Jun 2027 07:18:32.310           442.047
                     153     9 Jun 2027 08:47:45.940     9 Jun 2027 08:54:09.761           383.820
                     154     9 Jun 2027 10:26:03.561     9 Jun 2027 10:29:58.369           234.808
                     155     9 Jun 2027 11:59:24.315     9 Jun 2027 11:59:32.530             8.215
                     156     9 Jun 2027 12:01:23.438     9 Jun 2027 12:05:35.269           251.831
                     157     9 Jun 2027 12:05:54.887     9 Jun 2027 12:06:53.363            58.476
                     158     9 Jun 2027 17:07:52.212     9 Jun 2027 17:09:54.114           121.902
                     159     9 Jun 2027 18:44:00.861     9 Jun 2027 18:47:20.652           199.791
                     160     9 Jun 2027 20:20:35.972     9 Jun 2027 20:26:24.235           348.263
                     161     9 Jun 2027 21:56:46.847     9 Jun 2027 22:03:35.039           408.191
                     162     9 Jun 2027 23:32:52.109     9 Jun 2027 23:39:17.283           385.175
                     163    10 Jun 2027 01:11:33.200    10 Jun 2027 01:19:12.763           459.563
                     164    10 Jun 2027 02:37:02.677    10 Jun 2027 02:38:19.712            77.035
                     165    10 Jun 2027 02:48:32.977    10 Jun 2027 02:50:12.340            99.363
                     166    10 Jun 2027 04:11:12.230    10 Jun 2027 04:12:11.117            58.887
                     167    10 Jun 2027 04:12:47.744    10 Jun 2027 04:15:52.041           184.297
                     168    10 Jun 2027 05:46:32.053    10 Jun 2027 05:47:31.073            59.021
                     169    10 Jun 2027 05:48:04.087    10 Jun 2027 05:52:50.395           286.309
                     170    10 Jun 2027 07:23:02.443    10 Jun 2027 07:30:32.715           450.272
                     171    10 Jun 2027 09:00:07.028    10 Jun 2027 09:05:57.466           350.438
                     172    10 Jun 2027 09:05:59.225    10 Jun 2027 09:06:18.460            19.235
                     173    10 Jun 2027 10:38:01.269    10 Jun 2027 10:42:00.937           239.668
                     174    10 Jun 2027 12:11:10.031    10 Jun 2027 12:17:34.530           384.499
                     175    10 Jun 2027 12:17:54.400    10 Jun 2027 12:19:05.512            71.113
                     176    10 Jun 2027 17:19:45.189    10 Jun 2027 17:22:28.715           163.526
                     177    10 Jun 2027 18:56:05.138    10 Jun 2027 18:59:28.872           203.734
                     178    10 Jun 2027 19:02:00.857    10 Jun 2027 19:02:34.702            33.845
                     179    10 Jun 2027 20:32:42.388    10 Jun 2027 20:38:54.192           371.805
                     180    10 Jun 2027 22:08:50.008    10 Jun 2027 22:15:29.928           399.920
                     181    10 Jun 2027 23:44:57.567    10 Jun 2027 23:51:05.668           368.101
                     182    11 Jun 2027 01:24:02.675    11 Jun 2027 01:31:09.455           426.780
                     183    11 Jun 2027 02:48:19.655    11 Jun 2027 02:50:29.690           130.035
                     184    11 Jun 2027 03:00:32.467    11 Jun 2027 03:01:33.274            60.807
                     185    11 Jun 2027 04:22:48.041    11 Jun 2027 04:23:54.570            66.529
                     186    11 Jun 2027 04:24:43.450    11 Jun 2027 04:28:05.915           202.465
                     187    11 Jun 2027 05:57:41.763    11 Jun 2027 05:59:44.754           122.991
                     188    11 Jun 2027 05:59:51.238    11 Jun 2027 06:05:03.862           312.625
                     189    11 Jun 2027 06:05:43.476    11 Jun 2027 06:06:11.162            27.687
                     190    11 Jun 2027 07:35:15.507    11 Jun 2027 07:42:36.171           440.664
                     191    11 Jun 2027 09:11:58.044    11 Jun 2027 09:18:11.467           373.423
                     192    11 Jun 2027 09:18:15.656    11 Jun 2027 09:18:35.946            20.290
                     193    11 Jun 2027 10:50:01.163    11 Jun 2027 10:54:10.685           249.522
                     194    11 Jun 2027 12:23:38.596    11 Jun 2027 12:31:01.914           443.318
                     195    11 Jun 2027 17:31:45.619    11 Jun 2027 17:34:36.326           170.707
                     196    11 Jun 2027 19:08:17.493    11 Jun 2027 19:11:49.362           211.870
                     197    11 Jun 2027 19:13:00.347    11 Jun 2027 19:15:59.798           179.450
                     198    11 Jun 2027 20:44:55.597    11 Jun 2027 20:51:05.509           369.912
                     199    11 Jun 2027 22:20:24.234    11 Jun 2027 22:21:04.109            39.875
                     200    11 Jun 2027 22:21:05.896    11 Jun 2027 22:27:59.321           413.425
                     201    11 Jun 2027 23:57:17.458    11 Jun 2027 23:57:44.201            26.743
                     202    11 Jun 2027 23:57:49.571    11 Jun 2027 23:58:23.348            33.778
                     203    11 Jun 2027 23:58:27.314    11 Jun 2027 23:59:20.723            53.409
                     204    11 Jun 2027 23:59:23.031    12 Jun 2027 00:03:19.665           236.633
                     205    12 Jun 2027 01:36:05.214    12 Jun 2027 01:43:01.228           416.014
                     206    12 Jun 2027 03:00:25.242    12 Jun 2027 03:02:18.583           113.341
                     207    12 Jun 2027 03:12:41.034    12 Jun 2027 03:13:07.573            26.539
                     208    12 Jun 2027 04:34:17.170    12 Jun 2027 04:35:40.287            83.117
                     209    12 Jun 2027 04:36:17.454    12 Jun 2027 04:40:17.909           240.455
                     210    12 Jun 2027 06:09:12.472    12 Jun 2027 06:17:20.225           487.753
                     211    12 Jun 2027 06:17:40.567    12 Jun 2027 06:18:38.608            58.041
                     212    12 Jun 2027 07:47:09.447    12 Jun 2027 07:54:37.646           448.199
                     213    12 Jun 2027 09:24:03.802    12 Jun 2027 09:29:26.124           322.321
                     214    12 Jun 2027 09:29:44.992    12 Jun 2027 09:30:35.723            50.731
                     215    12 Jun 2027 11:01:47.502    12 Jun 2027 11:06:09.249           261.747
                     216    12 Jun 2027 12:37:47.036    12 Jun 2027 12:41:22.228           215.192
                     217    12 Jun 2027 17:43:52.823    12 Jun 2027 17:47:03.567           190.744
                     218    12 Jun 2027 17:47:17.586    12 Jun 2027 17:48:18.454            60.868
                     219    12 Jun 2027 19:20:14.016    12 Jun 2027 19:24:44.233           270.218
                     220    12 Jun 2027 19:25:02.019    12 Jun 2027 19:26:49.903           107.885
                     221    12 Jun 2027 20:56:47.949    12 Jun 2027 21:03:22.956           395.007
                     222    12 Jun 2027 22:32:20.591    12 Jun 2027 22:40:05.839           465.248
                     223    13 Jun 2027 00:10:00.117    13 Jun 2027 00:10:14.898            14.780
                     224    13 Jun 2027 00:10:23.952    13 Jun 2027 00:11:25.225            61.273
                     225    13 Jun 2027 00:11:44.045    13 Jun 2027 00:11:48.682             4.637
                     226    13 Jun 2027 00:12:10.665    13 Jun 2027 00:15:36.474           205.809
                     227    13 Jun 2027 01:48:30.958    13 Jun 2027 01:53:34.022           303.064
                     228    13 Jun 2027 03:12:20.987    13 Jun 2027 03:14:37.268           136.281
                     229    13 Jun 2027 04:48:20.950    13 Jun 2027 04:52:08.273           227.324
                     230    13 Jun 2027 06:22:05.959    13 Jun 2027 06:30:39.920           513.962
                     231    13 Jun 2027 07:59:30.322    13 Jun 2027 08:06:31.210           420.889
                     232    13 Jun 2027 09:36:34.127    13 Jun 2027 09:41:03.401           269.274
                     233    13 Jun 2027 09:41:10.961    13 Jun 2027 09:42:24.447            73.486
                     234    13 Jun 2027 11:13:18.906    13 Jun 2027 11:18:07.311           288.405
                     235    13 Jun 2027 12:48:35.151    13 Jun 2027 12:48:43.408             8.257
                     236    13 Jun 2027 12:50:16.199    13 Jun 2027 12:53:07.059           170.860
                     237    13 Jun 2027 17:56:13.848    13 Jun 2027 17:58:36.690           142.842
                     238    13 Jun 2027 17:58:58.687    13 Jun 2027 18:01:14.543           135.856
                     239    13 Jun 2027 19:32:08.345    13 Jun 2027 19:39:02.283           413.938
                     240    13 Jun 2027 21:08:51.857    13 Jun 2027 21:15:17.663           385.806
                     241    13 Jun 2027 22:44:20.190    13 Jun 2027 22:51:50.042           449.852

Min Duration         112     6 Jun 2027 18:11:39.359     6 Jun 2027 18:11:43.285             3.926
Max Duration         230    13 Jun 2027 06:22:05.959    13 Jun 2027 06:30:39.920           513.962
Mean Duration                                                                              222.638
Total Duration                                                                           53655.878


Russia-To-KinoSat_110903
------------------------
                  Access        Start Time (UTCG)           Stop Time (UTCG)        Duration (sec)
                  ------    ------------------------    ------------------------    --------------
                       1     1 Jun 2027 00:48:34.566     1 Jun 2027 00:49:20.028            45.462
                       2     1 Jun 2027 00:49:40.961     1 Jun 2027 00:54:43.164           302.203
                       3     1 Jun 2027 02:26:48.015     1 Jun 2027 02:27:25.940            37.925
                       4     1 Jun 2027 02:27:55.301     1 Jun 2027 02:30:22.637           147.335
                       5     1 Jun 2027 03:50:15.773     1 Jun 2027 03:53:24.809           189.037
                       6     1 Jun 2027 05:26:44.006     1 Jun 2027 05:30:09.089           205.083
                       7     1 Jun 2027 07:01:56.696     1 Jun 2027 07:08:35.993           399.296
                       8     1 Jun 2027 08:37:51.528     1 Jun 2027 08:44:09.431           377.904
                       9     1 Jun 2027 10:15:48.298     1 Jun 2027 10:20:14.586           266.288
                      10     1 Jun 2027 11:51:41.798     1 Jun 2027 11:55:55.118           253.320
                      11     1 Jun 2027 11:56:00.720     1 Jun 2027 11:56:50.953            50.233
                      12     1 Jun 2027 16:58:37.160     1 Jun 2027 16:59:43.501            66.340
                      13     1 Jun 2027 18:34:24.286     1 Jun 2027 18:37:24.207           179.921
                      14     1 Jun 2027 20:10:24.381     1 Jun 2027 20:15:51.443           327.062
                      15     1 Jun 2027 21:46:53.171     1 Jun 2027 21:53:13.924           380.753
                      16     1 Jun 2027 23:22:21.782     1 Jun 2027 23:29:23.365           421.583
                      17     2 Jun 2027 01:01:39.797     2 Jun 2027 01:06:57.027           317.230
                      18     2 Jun 2027 01:07:52.934     2 Jun 2027 01:09:28.652            95.718
                      19     2 Jun 2027 02:27:49.371     2 Jun 2027 02:28:16.624            27.253
                      20     2 Jun 2027 02:38:45.603     2 Jun 2027 02:42:16.672           211.069
                      21     2 Jun 2027 04:02:42.260     2 Jun 2027 04:05:37.987           175.728
                      22     2 Jun 2027 05:38:27.156     2 Jun 2027 05:42:45.825           258.670
                      23     2 Jun 2027 07:13:10.940     2 Jun 2027 07:20:43.767           452.827
                      24     2 Jun 2027 08:49:58.567     2 Jun 2027 08:56:19.611           381.044
                      25     2 Jun 2027 10:28:13.849     2 Jun 2027 10:32:08.868           235.019
                      26     2 Jun 2027 12:01:31.363     2 Jun 2027 12:03:03.536            92.173
                      27     2 Jun 2027 12:03:20.209     2 Jun 2027 12:07:50.781           270.572
                      28     2 Jun 2027 12:08:09.237     2 Jun 2027 12:09:13.424            64.187
                      29     2 Jun 2027 17:09:57.994     2 Jun 2027 17:12:11.807           133.813
                      30     2 Jun 2027 18:46:11.413     2 Jun 2027 18:49:35.451           204.038
                      31     2 Jun 2027 20:22:48.982     2 Jun 2027 20:28:58.292           369.310
                      32     2 Jun 2027 21:59:00.648     2 Jun 2027 22:05:45.856           405.208
                      33     2 Jun 2027 23:35:02.529     2 Jun 2027 23:41:26.149           383.620
                      34     3 Jun 2027 01:14:00.209     3 Jun 2027 01:21:23.740           443.532
                      35     3 Jun 2027 02:39:05.618     3 Jun 2027 02:40:31.204            85.586
                      36     3 Jun 2027 02:50:43.963     3 Jun 2027 02:52:11.858            87.895
                      37     3 Jun 2027 04:13:18.064     3 Jun 2027 04:14:18.376            60.311
                      38     3 Jun 2027 04:14:58.828     3 Jun 2027 04:18:04.321           185.492
                      39     3 Jun 2027 05:48:21.954     3 Jun 2027 05:49:38.983            77.029
                      40     3 Jun 2027 05:50:11.640     3 Jun 2027 05:55:04.150           292.511
                      41     3 Jun 2027 07:25:19.101     3 Jun 2027 07:32:43.229           444.127
                      42     3 Jun 2027 09:02:17.789     3 Jun 2027 09:08:09.762           351.973
                      43     3 Jun 2027 09:08:13.770     3 Jun 2027 09:08:25.285            11.515
                      44     3 Jun 2027 10:40:12.019     3 Jun 2027 10:44:11.342           239.324
                      45     3 Jun 2027 12:13:30.936     3 Jun 2027 12:19:47.268           376.331
                      46     3 Jun 2027 12:19:51.987     3 Jun 2027 12:21:18.663            86.676
                      47     3 Jun 2027 17:21:55.917     3 Jun 2027 17:24:34.501           158.584
                      48     3 Jun 2027 18:58:17.261     3 Jun 2027 19:01:41.317           204.056
                      49     3 Jun 2027 19:03:20.089     3 Jun 2027 19:05:00.921           100.832
                      50     3 Jun 2027 20:34:50.532     3 Jun 2027 20:41:07.576           377.044
                      51     3 Jun 2027 22:11:06.184     3 Jun 2027 22:17:42.440           396.256
                      52     3 Jun 2027 23:47:09.255     3 Jun 2027 23:53:15.175           365.920
                      53     4 Jun 2027 01:26:15.768     4 Jun 2027 01:33:19.013           423.246
                      54     4 Jun 2027 02:50:26.767     4 Jun 2027 02:52:42.543           135.776
                      55     4 Jun 2027 03:02:42.919     4 Jun 2027 03:03:39.969            57.050
                      56     4 Jun 2027 04:24:47.891     4 Jun 2027 04:26:05.380            77.489
                      57     4 Jun 2027 04:26:50.374     4 Jun 2027 04:30:18.475           208.101
                      58     4 Jun 2027 05:59:46.923     4 Jun 2027 06:07:23.445           456.521
                      59     4 Jun 2027 06:07:52.561     4 Jun 2027 06:08:23.888            31.327
                      60     4 Jun 2027 07:37:23.118     4 Jun 2027 07:44:46.887           443.769
                      61     4 Jun 2027 09:14:06.913     4 Jun 2027 09:19:37.962           331.049
                      62     4 Jun 2027 09:19:38.735     4 Jun 2027 09:20:13.952            35.217
                      63     4 Jun 2027 09:20:16.760     4 Jun 2027 09:20:47.914            31.155
                      64     4 Jun 2027 10:52:11.435     4 Jun 2027 10:56:20.720           249.286
                      65     4 Jun 2027 12:25:56.521     4 Jun 2027 12:32:47.015           410.494
                      66     4 Jun 2027 17:33:58.543     4 Jun 2027 17:36:53.162           174.619
                      67     4 Jun 2027 19:10:28.492     4 Jun 2027 19:14:05.808           217.316
                      68     4 Jun 2027 19:15:11.728     4 Jun 2027 19:18:17.138           185.410
                      69     4 Jun 2027 20:47:01.047     4 Jun 2027 20:53:21.579           380.532
                      70     4 Jun 2027 22:22:33.225     4 Jun 2027 22:23:16.509            43.284
                      71     4 Jun 2027 22:23:23.383     4 Jun 2027 22:30:10.743           407.359
                      72     4 Jun 2027 23:59:36.606     4 Jun 2027 23:59:54.564            17.958
                      73     5 Jun 2027 00:00:02.216     5 Jun 2027 00:00:31.858            29.643
                      74     5 Jun 2027 00:00:36.662     5 Jun 2027 00:01:30.737            54.075
                      75     5 Jun 2027 00:01:32.763     5 Jun 2027 00:05:32.749           239.986
                      76     5 Jun 2027 01:38:20.143     5 Jun 2027 01:45:11.507           411.364
                      77     5 Jun 2027 03:02:34.205     5 Jun 2027 03:04:28.715           114.510
                      78     5 Jun 2027 03:14:59.089     5 Jun 2027 03:15:09.936            10.848
                      79     5 Jun 2027 04:36:24.002     5 Jun 2027 04:42:23.013           359.011
                      80     5 Jun 2027 06:11:17.523     5 Jun 2027 06:19:31.526           494.003
                      81     5 Jun 2027 06:19:49.923     5 Jun 2027 06:20:50.348            60.424
                      82     5 Jun 2027 07:49:21.313     5 Jun 2027 07:56:48.573           447.260
                      83     5 Jun 2027 09:26:14.530     5 Jun 2027 09:31:23.672           309.142
                      84     5 Jun 2027 09:31:49.585     5 Jun 2027 09:32:43.266            53.681
                      85     5 Jun 2027 11:03:24.681     5 Jun 2027 11:08:19.016           294.334
                      86     5 Jun 2027 12:38:11.473     5 Jun 2027 12:39:23.817            72.344
                      87     5 Jun 2027 12:40:07.166     5 Jun 2027 12:43:29.118           201.953
                      88     5 Jun 2027 17:46:04.150     5 Jun 2027 17:50:51.274           287.124
                      89     5 Jun 2027 19:22:24.987     5 Jun 2027 19:27:02.820           277.832
                      90     5 Jun 2027 19:27:13.916     5 Jun 2027 19:29:04.354           110.438
                      91     5 Jun 2027 19:29:49.467     5 Jun 2027 19:30:31.571            42.105
                      92     5 Jun 2027 20:58:58.842     5 Jun 2027 21:05:34.048           395.206
                      93     5 Jun 2027 22:34:31.028     5 Jun 2027 22:42:16.668           465.640
                      94     6 Jun 2027 00:12:12.341     6 Jun 2027 00:12:24.784            12.443
                      95     6 Jun 2027 00:12:35.491     6 Jun 2027 00:13:36.914            61.423
                      96     6 Jun 2027 00:13:43.350     6 Jun 2027 00:14:14.337            30.987
                      97     6 Jun 2027 00:14:15.317     6 Jun 2027 00:17:50.863           215.546
                      98     6 Jun 2027 01:50:42.939     6 Jun 2027 01:55:40.744           297.805
                      99     6 Jun 2027 03:14:31.113     6 Jun 2027 03:16:49.110           137.997
                     100     6 Jun 2027 04:50:42.733     6 Jun 2027 04:54:14.329           211.597
                     101     6 Jun 2027 06:24:16.194     6 Jun 2027 06:31:47.247           451.053
                     102     6 Jun 2027 06:31:48.895     6 Jun 2027 06:32:49.885            60.991
                     103     6 Jun 2027 08:01:43.274     6 Jun 2027 08:08:33.405           410.130
                     104     6 Jun 2027 09:38:43.437     6 Jun 2027 09:43:13.094           269.657
                     105     6 Jun 2027 09:43:19.152     6 Jun 2027 09:44:34.817            75.665
                     106     6 Jun 2027 11:15:37.440     6 Jun 2027 11:20:14.114           276.674
                     107     6 Jun 2027 12:52:46.661     6 Jun 2027 12:55:15.918           149.258
                     108     6 Jun 2027 17:58:22.533     6 Jun 2027 18:00:53.334           150.801
                     109     6 Jun 2027 18:01:24.551     6 Jun 2027 18:03:11.123           106.571
