DATA_Files/Russia2Constellation/AreaTarget-Russia-To-Satellite-KinoSat_15_plane.txt

                                                                                                                                                                                                                                                                                           10 May 2023 22:32:54
Civil Air Patrol Use Only
AreaTarget-Russia-To-Satellite-KinoSat_111501, Satellite-KinoSat_111502, Satellite-KinoSat_111503, Satellite-KinoSat_111504, Satellite-KinoSat_111505, Satellite-KinoSat_111506, Satellite-KinoSat_111507, Satellite-KinoSat_111508, Satellite-KinoSat_111509, Satellite-KinoSat_111510:  Access Summary Report


Russia-To-KinoSat_111501
------------------------
                  Access        Start Time (UTCG)           Stop Time (UTCG)        Duration (sec)
                  ------    ------------------------    ------------------------    --------------
                       1     1 Jun 2027 00:43:02.262     1 Jun 2027 00:49:38.009           395.746
                       2     1 Jun 2027 02:19:05.234     1 Jun 2027 02:25:10.611           365.377
                       3     1 Jun 2027 03:58:10.180     1 Jun 2027 04:05:17.824           427.644
                       4     1 Jun 2027 05:22:59.479     1 Jun 2027 05:24:34.471            94.992
                       5     1 Jun 2027 05:34:40.001     1 Jun 2027 05:35:41.179            61.177
                       6     1 Jun 2027 06:56:58.104     1 Jun 2027 06:58:04.289            66.185
                       7     1 Jun 2027 06:58:52.290     1 Jun 2027 07:02:10.917           198.627
                       8     1 Jun 2027 08:31:54.344     1 Jun 2027 08:33:51.896           117.551
                       9     1 Jun 2027 08:33:59.979     1 Jun 2027 08:39:07.627           307.648
                      10     1 Jun 2027 08:39:54.774     1 Jun 2027 08:40:17.952            23.178
                      11     1 Jun 2027 10:09:24.436     1 Jun 2027 10:16:43.251           438.815
                      12     1 Jun 2027 11:46:09.194     1 Jun 2027 11:52:22.270           373.076
                      13     1 Jun 2027 11:52:26.755     1 Jun 2027 11:52:42.175            15.420
                      14     1 Jun 2027 13:24:07.984     1 Jun 2027 13:28:19.031           251.047
                      15     1 Jun 2027 14:57:45.532     1 Jun 2027 15:05:10.307           444.776
                      16     1 Jun 2027 20:05:53.168     1 Jun 2027 20:08:41.195           168.028
                      17     1 Jun 2027 21:42:25.089     1 Jun 2027 21:45:53.942           208.853
                      18     1 Jun 2027 21:47:06.268     1 Jun 2027 21:50:02.625           176.357
                      19     1 Jun 2027 23:19:03.066     1 Jun 2027 23:25:09.878           366.812
                      20     2 Jun 2027 00:54:31.087     2 Jun 2027 00:55:11.393            40.306
                      21     2 Jun 2027 00:55:17.446     2 Jun 2027 01:02:05.905           408.459
                      22     2 Jun 2027 02:31:25.302     2 Jun 2027 02:31:51.918            26.616
                      23     2 Jun 2027 02:31:58.899     2 Jun 2027 02:32:30.893            31.994
                      24     2 Jun 2027 02:32:34.932     2 Jun 2027 02:33:28.616            53.684
                      25     2 Jun 2027 02:33:30.724     2 Jun 2027 02:37:26.524           235.800
                      26     2 Jun 2027 04:10:12.705     2 Jun 2027 04:17:10.387           417.682
                      27     2 Jun 2027 05:34:33.114     2 Jun 2027 05:36:39.117           126.003
                      28     2 Jun 2027 05:46:48.677     2 Jun 2027 05:47:15.488            26.812
                      29     2 Jun 2027 07:08:30.097     2 Jun 2027 07:09:49.866            79.769
                      30     2 Jun 2027 07:10:38.426     2 Jun 2027 07:14:23.912           225.486
                      31     2 Jun 2027 08:43:23.623     2 Jun 2027 08:51:27.744           484.121
                      32     2 Jun 2027 08:51:48.190     2 Jun 2027 08:52:46.016            57.826
                      33     2 Jun 2027 10:21:18.652     2 Jun 2027 10:28:42.999           444.347
                      34     2 Jun 2027 11:58:03.235     2 Jun 2027 12:04:46.614           403.378
                      35     2 Jun 2027 13:35:56.273     2 Jun 2027 13:40:18.365           262.092
                      36     2 Jun 2027 15:11:54.297     2 Jun 2027 15:16:15.311           261.014
                      37     2 Jun 2027 20:18:00.596     2 Jun 2027 20:20:55.465           174.870
                      38     2 Jun 2027 20:21:24.907     2 Jun 2027 20:22:24.633            59.726
                      39     2 Jun 2027 21:54:21.774     2 Jun 2027 21:58:50.347           268.573
                      40     2 Jun 2027 21:59:08.687     2 Jun 2027 22:00:56.504           107.816
                      41     2 Jun 2027 23:30:55.634     2 Jun 2027 23:37:30.782           395.149
                      42     3 Jun 2027 01:06:28.275     3 Jun 2027 01:14:13.991           465.717
                      43     3 Jun 2027 02:44:08.190     3 Jun 2027 02:44:22.349            14.158
                      44     3 Jun 2027 02:44:31.778     3 Jun 2027 02:45:33.047            61.269
                      45     3 Jun 2027 02:45:52.276     3 Jun 2027 02:45:56.199             3.923
                      46     3 Jun 2027 02:46:18.639     3 Jun 2027 02:49:44.680           206.040
                      47     3 Jun 2027 04:22:38.590     3 Jun 2027 04:27:42.829           304.239
                      48     3 Jun 2027 05:46:28.949     3 Jun 2027 05:48:45.653           136.704
                      49     3 Jun 2027 07:22:28.970     3 Jun 2027 07:26:22.604           233.634
                      50     3 Jun 2027 08:56:16.988     3 Jun 2027 09:03:36.071           439.083
                      51     3 Jun 2027 09:03:39.821     3 Jun 2027 09:04:48.164            68.343
                      52     3 Jun 2027 10:33:28.568     3 Jun 2027 10:40:44.541           435.973
                      53     3 Jun 2027 12:10:42.272     3 Jun 2027 12:15:12.329           270.057
                      54     3 Jun 2027 12:15:22.208     3 Jun 2027 12:16:33.322            71.114
                      55     3 Jun 2027 13:47:22.773     3 Jun 2027 13:52:14.624           291.851
                      56     3 Jun 2027 15:22:35.922     3 Jun 2027 15:22:49.450            13.527
                      57     3 Jun 2027 15:24:23.202     3 Jun 2027 15:27:17.365           174.163
                      58     3 Jun 2027 20:30:21.834     3 Jun 2027 20:32:43.139           141.306
                      59     3 Jun 2027 20:33:06.146     3 Jun 2027 20:35:25.847           139.701
                      60     3 Jun 2027 22:06:16.412     3 Jun 2027 22:13:12.968           416.556
                      61     3 Jun 2027 23:42:59.833     3 Jun 2027 23:49:25.588           385.755
                      62     4 Jun 2027 01:18:28.616     4 Jun 2027 01:25:58.429           449.812
                      63     4 Jun 2027 02:56:51.339     4 Jun 2027 02:57:10.816            19.477
                      64     4 Jun 2027 02:57:24.223     4 Jun 2027 03:02:51.769           327.547
                      65     4 Jun 2027 04:34:59.371     4 Jun 2027 04:39:34.864           275.493
                      66     4 Jun 2027 05:58:21.404     4 Jun 2027 06:00:56.440           155.036
                      67     4 Jun 2027 07:34:42.459     4 Jun 2027 07:38:12.828           210.368
                      68     4 Jun 2027 09:08:45.471     4 Jun 2027 09:15:44.563           419.092
                      69     4 Jun 2027 09:15:46.073     4 Jun 2027 09:16:46.884            60.811
                      70     4 Jun 2027 10:45:52.202     4 Jun 2027 10:52:33.557           401.355
                      71     4 Jun 2027 12:22:49.844     4 Jun 2027 12:28:02.017           312.173
                      72     4 Jun 2027 13:59:37.520     4 Jun 2027 14:04:08.278           270.758
                      73     4 Jun 2027 15:37:47.776     4 Jun 2027 15:38:48.437            60.661
                      74     4 Jun 2027 20:42:24.535     4 Jun 2027 20:44:38.727           134.192
                      75     4 Jun 2027 20:46:01.214     4 Jun 2027 20:46:16.064            14.849
                      76     4 Jun 2027 22:18:20.829     4 Jun 2027 22:24:51.913           391.084
                      77     4 Jun 2027 23:55:02.710     5 Jun 2027 00:01:28.252           385.543
                      78     5 Jun 2027 01:30:41.370     5 Jun 2027 01:38:01.801           440.431
                      79     5 Jun 2027 03:08:53.442     5 Jun 2027 03:09:51.645            58.204
                      80     5 Jun 2027 03:09:57.419     5 Jun 2027 03:14:55.912           298.493
                      81     5 Jun 2027 04:47:25.441     5 Jun 2027 04:51:21.789           236.348
                      82     5 Jun 2027 06:10:22.976     5 Jun 2027 06:12:58.056           155.080
                      83     5 Jun 2027 07:46:48.947     5 Jun 2027 07:50:21.842           212.896
                      84     5 Jun 2027 09:21:57.300     5 Jun 2027 09:27:42.657           345.357
                      85     5 Jun 2027 09:27:43.869     5 Jun 2027 09:28:45.367            61.498
                      86     5 Jun 2027 10:58:18.021     5 Jun 2027 11:04:40.101           382.080
                      87     5 Jun 2027 12:35:51.960     5 Jun 2027 12:40:13.927           261.967
                      88     5 Jun 2027 14:11:55.411     5 Jun 2027 14:16:06.809           251.398
                      89     5 Jun 2027 20:54:29.296     5 Jun 2027 20:57:34.303           185.007
                      90     5 Jun 2027 22:30:24.850     5 Jun 2027 22:36:20.710           355.860
                      91     6 Jun 2027 00:07:07.535     6 Jun 2027 00:13:18.501           370.967
                      92     6 Jun 2027 01:42:34.479     6 Jun 2027 01:49:44.402           429.924
                      93     6 Jun 2027 03:20:46.490     6 Jun 2027 03:21:43.666            57.176
                      94     6 Jun 2027 03:21:53.555     6 Jun 2027 03:26:56.550           302.995
                      95     6 Jun 2027 04:59:02.787     6 Jun 2027 05:02:48.284           225.497
                      96     6 Jun 2027 06:22:22.989     6 Jun 2027 06:25:36.312           193.323
                      97     6 Jun 2027 07:58:59.433     6 Jun 2027 08:02:26.960           207.527
                      98     6 Jun 2027 09:34:09.569     6 Jun 2027 09:40:45.394           395.825
                      99     6 Jun 2027 11:10:26.821     6 Jun 2027 11:16:13.561           346.740
                     100     6 Jun 2027 11:16:15.885     6 Jun 2027 11:16:39.039            23.154
                     101     6 Jun 2027 12:47:56.854     6 Jun 2027 12:52:28.737           271.883
                     102     6 Jun 2027 14:23:59.666     6 Jun 2027 14:28:10.299           250.632
                     103     6 Jun 2027 14:28:15.282     6 Jun 2027 14:28:51.926            36.644
                     104     6 Jun 2027 19:30:58.126     6 Jun 2027 19:31:16.919            18.793
                     105     6 Jun 2027 21:06:37.588     6 Jun 2027 21:09:42.790           185.202
                     106     6 Jun 2027 22:42:36.857     6 Jun 2027 22:48:05.135           328.278
                     107     7 Jun 2027 00:19:05.202     7 Jun 2027 00:25:16.594           371.391
                     108     7 Jun 2027 01:54:34.739     7 Jun 2027 02:01:29.629           414.890
                     109     7 Jun 2027 03:33:52.512     7 Jun 2027 03:39:04.919           312.408
                     110     7 Jun 2027 03:40:12.881     7 Jun 2027 03:41:44.802            91.921
                     111     7 Jun 2027 05:00:15.243     7 Jun 2027 05:00:19.696             4.453
                     112     7 Jun 2027 05:10:59.048     7 Jun 2027 05:11:40.945            41.896
                     113     7 Jun 2027 05:11:47.840     7 Jun 2027 05:14:35.140           167.300
                     114     7 Jun 2027 06:34:58.581     7 Jun 2027 06:37:40.602           162.021
                     115     7 Jun 2027 08:10:43.850     7 Jun 2027 08:14:56.334           252.483
                     116     7 Jun 2027 09:45:38.322     7 Jun 2027 09:52:54.588           436.266
                     117     7 Jun 2027 11:22:09.635     7 Jun 2027 11:28:33.368           383.733
                     118     7 Jun 2027 13:00:27.649     7 Jun 2027 13:04:10.831           223.182
                     119     7 Jun 2027 14:34:29.573     7 Jun 2027 14:35:12.102            42.529
                     120     7 Jun 2027 14:35:49.135     7 Jun 2027 14:39:56.751           247.616
                     121     7 Jun 2027 14:40:16.772     7 Jun 2027 14:41:15.901            59.128
                     122     7 Jun 2027 19:42:14.575     7 Jun 2027 19:44:17.998           123.423
                     123     7 Jun 2027 21:18:24.647     7 Jun 2027 21:21:44.507           199.860
                     124     7 Jun 2027 22:55:00.150     7 Jun 2027 23:00:47.268           347.118
                     125     8 Jun 2027 00:31:11.394     8 Jun 2027 00:37:58.800           407.406
                     126     8 Jun 2027 02:07:16.095     8 Jun 2027 02:13:41.078           384.983
                     127     8 Jun 2027 03:46:00.610     8 Jun 2027 03:53:36.352           455.742
                     128     8 Jun 2027 05:11:33.093     8 Jun 2027 05:12:43.109            70.016
                     129     8 Jun 2027 05:22:56.907     8 Jun 2027 05:24:36.046            99.139
                     130     8 Jun 2027 06:45:33.739     8 Jun 2027 06:46:35.324            61.585
                     131     8 Jun 2027 06:47:07.382     8 Jun 2027 06:50:14.823           187.441
                     132     8 Jun 2027 08:20:58.780     8 Jun 2027 08:21:53.922            55.142
                     133     8 Jun 2027 08:22:29.776     8 Jun 2027 08:27:11.621           281.845
                     134     8 Jun 2027 09:57:24.201     8 Jun 2027 10:04:55.638           451.436
                     135     8 Jun 2027 11:34:30.330     8 Jun 2027 11:40:33.524           363.194
                     136     8 Jun 2027 11:40:35.765     8 Jun 2027 11:40:48.927            13.162
                     137     8 Jun 2027 13:12:25.454     8 Jun 2027 13:16:23.294           237.840
                     138     8 Jun 2027 14:45:31.683     8 Jun 2027 14:51:51.916           380.233
                     139     8 Jun 2027 14:52:21.565     8 Jun 2027 14:53:32.290            70.725
                     140     8 Jun 2027 19:54:09.577     8 Jun 2027 19:56:52.590           163.013
                     141     8 Jun 2027 21:30:29.528     8 Jun 2027 21:33:53.112           203.584
                     142     8 Jun 2027 21:36:30.381     8 Jun 2027 21:36:58.040            27.659
                     143     8 Jun 2027 23:07:04.890     8 Jun 2027 23:13:18.312           373.422
                     144     9 Jun 2027 00:43:19.303     9 Jun 2027 00:49:54.130           394.827
                     145     9 Jun 2027 02:19:22.169     9 Jun 2027 02:25:29.767           367.598
                     146     9 Jun 2027 03:58:26.691     9 Jun 2027 04:05:33.779           427.088
                     147     9 Jun 2027 05:23:16.578     9 Jun 2027 05:24:52.397            95.820
                     148     9 Jun 2027 05:34:56.257     9 Jun 2027 05:35:56.677            60.420
                     149     9 Jun 2027 06:57:13.847     9 Jun 2027 06:58:20.167            66.320
                     150     9 Jun 2027 06:59:07.904     9 Jun 2027 07:02:28.584           200.680
                     151     9 Jun 2027 08:32:07.807     9 Jun 2027 08:34:08.978           121.171
                     152     9 Jun 2027 08:34:15.882     9 Jun 2027 08:39:24.995           309.114
                     153     9 Jun 2027 08:40:10.582     9 Jun 2027 08:40:35.011            24.429
                     154     9 Jun 2027 10:09:40.002     9 Jun 2027 10:17:00.000           439.997
                     155     9 Jun 2027 11:46:23.672     9 Jun 2027 11:52:38.542           374.870
                     156     9 Jun 2027 11:52:42.415     9 Jun 2027 11:52:59.115            16.700
                     157     9 Jun 2027 13:24:25.524     9 Jun 2027 13:28:35.486           249.962
                     158     9 Jun 2027 14:58:02.130     9 Jun 2027 15:05:26.765           444.635
                     159     9 Jun 2027 20:06:10.327     9 Jun 2027 20:09:01.681           171.354
                     160     9 Jun 2027 21:42:42.239     9 Jun 2027 21:46:14.132           211.893
                     161     9 Jun 2027 21:47:24.671     9 Jun 2027 21:50:22.727           178.057
                     162     9 Jun 2027 23:19:15.729     9 Jun 2027 23:25:29.142           373.412
                     163    10 Jun 2027 00:54:47.154    10 Jun 2027 00:55:23.762            36.608
                     164    10 Jun 2027 00:55:35.003    10 Jun 2027 01:02:23.549           408.547
                     165    10 Jun 2027 02:31:42.837    10 Jun 2027 02:32:08.605            25.767
                     166    10 Jun 2027 02:32:15.500    10 Jun 2027 02:32:45.363            29.863
                     167    10 Jun 2027 02:32:50.892    10 Jun 2027 02:33:44.646            53.755
                     168    10 Jun 2027 02:33:47.042    10 Jun 2027 02:37:44.004           236.961
                     169    10 Jun 2027 04:10:30.372    10 Jun 2027 04:17:25.677           415.305
                     170    10 Jun 2027 05:34:49.879    10 Jun 2027 05:36:45.943           116.064
                     171    10 Jun 2027 05:47:09.836    10 Jun 2027 05:47:30.868            21.033
                     172    10 Jun 2027 07:08:45.460    10 Jun 2027 07:10:05.901            80.441
                     173    10 Jun 2027 07:10:54.195    10 Jun 2027 07:14:41.256           227.061
                     174    10 Jun 2027 08:43:38.771    10 Jun 2027 08:51:44.670           485.900
                     175    10 Jun 2027 08:52:04.834    10 Jun 2027 08:53:03.001            58.168
                     176    10 Jun 2027 10:21:35.059    10 Jun 2027 10:29:00.095           445.036
                     177    10 Jun 2027 11:58:22.959    10 Jun 2027 12:04:03.375           340.416
                     178    10 Jun 2027 12:04:06.362    10 Jun 2027 12:05:02.822            56.460
                     179    10 Jun 2027 13:36:13.133    10 Jun 2027 13:40:34.923           261.790
                     180    10 Jun 2027 15:12:11.978    10 Jun 2027 15:16:30.107           258.130
                     181    10 Jun 2027 20:18:17.330    10 Jun 2027 20:21:28.406           191.076
                     182    10 Jun 2027 20:21:42.257    10 Jun 2027 20:22:43.245            60.988
                     183    10 Jun 2027 21:54:38.468    10 Jun 2027 21:59:09.091           270.623
                     184    10 Jun 2027 21:59:26.601    10 Jun 2027 22:01:14.353           107.752
                     185    10 Jun 2027 23:31:12.135    10 Jun 2027 23:37:47.437           395.302
                     186    11 Jun 2027 01:06:44.849    11 Jun 2027 01:14:30.328           465.478
                     187    11 Jun 2027 02:44:25.314    11 Jun 2027 02:44:38.889            13.575
                     188    11 Jun 2027 02:44:48.588    11 Jun 2027 02:45:49.652            61.065
                     189    11 Jun 2027 02:46:06.981    11 Jun 2027 02:46:15.222             8.241
                     190    11 Jun 2027 02:46:34.998    11 Jun 2027 02:50:00.895           205.897
                     191    11 Jun 2027 04:22:56.691    11 Jun 2027 04:27:58.538           301.847
                     192    11 Jun 2027 05:46:45.748    11 Jun 2027 05:49:01.931           136.184
                     193    11 Jun 2027 07:22:45.347    11 Jun 2027 07:26:38.692           233.346
                     194    11 Jun 2027 08:56:32.693    11 Jun 2027 09:03:53.357           440.663
                     195    11 Jun 2027 09:03:56.007    11 Jun 2027 09:05:04.571            68.564
                     196    11 Jun 2027 10:33:47.652    11 Jun 2027 10:41:00.629           432.977
                     197    11 Jun 2027 12:10:59.769    11 Jun 2027 12:15:28.143           268.374
                     198    11 Jun 2027 12:15:38.299    11 Jun 2027 12:16:49.690            71.391
                     199    11 Jun 2027 13:47:42.763    11 Jun 2027 13:52:31.716           288.953
                     200    11 Jun 2027 15:22:58.026    11 Jun 2027 15:23:07.856             9.830
                     201    11 Jun 2027 15:24:39.730    11 Jun 2027 15:27:33.221           173.491
                     202    11 Jun 2027 20:30:38.790    11 Jun 2027 20:33:02.304           143.515
                     203    11 Jun 2027 20:33:23.918    11 Jun 2027 20:35:38.408           134.490
                     204    11 Jun 2027 22:06:33.212    11 Jun 2027 22:13:26.906           413.694
                     205    11 Jun 2027 23:43:16.506    11 Jun 2027 23:49:42.364           385.857
                     206    12 Jun 2027 01:18:45.721    12 Jun 2027 01:26:14.689           448.968
                     207    12 Jun 2027 02:57:03.509    12 Jun 2027 02:57:27.087            23.578
                     208    12 Jun 2027 02:57:38.992    12 Jun 2027 03:03:08.420           329.428
                     209    12 Jun 2027 04:35:15.939    12 Jun 2027 04:39:50.287           274.348
                     210    12 Jun 2027 05:58:37.772    12 Jun 2027 06:01:13.087           155.315
                     211    12 Jun 2027 07:34:59.610    12 Jun 2027 07:38:30.967           211.357
                     212    12 Jun 2027 09:07:17.624    12 Jun 2027 09:07:38.351            20.728
                     213    12 Jun 2027 09:09:04.508    12 Jun 2027 09:15:57.974           413.466
                     214    12 Jun 2027 09:16:02.307    12 Jun 2027 09:17:03.521            61.215
                     215    12 Jun 2027 10:46:08.474    12 Jun 2027 10:52:50.867           402.393
                     216    12 Jun 2027 12:23:06.419    12 Jun 2027 12:28:04.854           298.435
                     217    12 Jun 2027 13:59:52.004    12 Jun 2027 14:04:25.346           273.342
                     218    12 Jun 2027 15:38:03.786    12 Jun 2027 15:39:03.968            60.182
                     219    12 Jun 2027 20:42:41.007    12 Jun 2027 20:44:56.321           135.315
                     220    12 Jun 2027 22:18:37.608    12 Jun 2027 22:25:09.663           392.055
                     221    12 Jun 2027 23:55:19.229    13 Jun 2027 00:01:47.425           388.196
                     222    13 Jun 2027 01:30:54.724    13 Jun 2027 01:38:23.895           449.170
                     223    13 Jun 2027 03:09:07.164    13 Jun 2027 03:10:08.025            60.861
                     224    13 Jun 2027 03:10:13.653    13 Jun 2027 03:15:16.262           302.609
                     225    13 Jun 2027 04:48:08.342    13 Jun 2027 04:51:38.123           209.781
                     226    13 Jun 2027 06:10:41.174    13 Jun 2027 06:13:19.587           158.412
                     227    13 Jun 2027 07:47:07.190    13 Jun 2027 07:50:38.599           211.409
                     228    13 Jun 2027 09:22:14.901    13 Jun 2027 09:27:59.876           344.975
                     229    13 Jun 2027 09:28:00.048    13 Jun 2027 09:29:03.082            63.034
                     230    13 Jun 2027 10:58:36.510    13 Jun 2027 11:04:57.132           380.622
                     231    13 Jun 2027 12:36:08.174    13 Jun 2027 12:40:31.961           263.787
                     232    13 Jun 2027 14:12:12.816    13 Jun 2027 14:16:25.934           253.117
                     233    13 Jun 2027 20:54:46.307    13 Jun 2027 20:57:51.099           184.792
                     234    13 Jun 2027 22:30:41.811    13 Jun 2027 22:36:33.947           352.136

Min Duration          45     3 Jun 2027 02:45:52.276     3 Jun 2027 02:45:56.199             3.923
Max Duration         174    10 Jun 2027 08:43:38.771    10 Jun 2027 08:51:44.670           485.900
Mean Duration                                                                              225.660
Total Duration                                                                           52804.409


Russia-To-KinoSat_111502
------------------------
                  Access        Start Time (UTCG)           Stop Time (UTCG)        Duration (sec)
                  ------    ------------------------    ------------------------    --------------
                       1     1 Jun 2027 00:33:23.651     1 Jun 2027 00:40:07.419           403.768
                       2     1 Jun 2027 02:09:24.888     1 Jun 2027 02:15:51.510           386.622
                       3     1 Jun 2027 03:48:22.715     1 Jun 2027 03:55:47.197           444.482
                       4     1 Jun 2027 05:13:35.046     1 Jun 2027 05:14:52.956            77.910
                       5     1 Jun 2027 05:25:06.474     1 Jun 2027 05:26:34.335            87.861
                       6     1 Jun 2027 06:47:45.216     1 Jun 2027 06:48:43.713            58.497
                       7     1 Jun 2027 06:49:20.841     1 Jun 2027 06:52:25.130           184.289
                       8     1 Jun 2027 08:22:53.278     1 Jun 2027 08:24:05.481            72.203
                       9     1 Jun 2027 08:24:36.152     1 Jun 2027 08:29:23.464           287.312
                      10     1 Jun 2027 09:59:37.540     1 Jun 2027 10:07:05.423           447.883
                      11     1 Jun 2027 11:36:40.315     1 Jun 2027 11:42:30.593           350.278
                      12     1 Jun 2027 11:42:32.166     1 Jun 2027 11:42:52.549            20.383
                      13     1 Jun 2027 13:14:34.497     1 Jun 2027 13:18:34.237           239.741
                      14     1 Jun 2027 14:47:49.318     1 Jun 2027 14:54:08.576           379.258
                      15     1 Jun 2027 14:54:27.245     1 Jun 2027 14:55:38.585            71.339
                      16     1 Jun 2027 19:56:18.455     1 Jun 2027 19:58:57.575           159.119
                      17     1 Jun 2027 21:32:40.212     1 Jun 2027 21:36:03.738           203.526
                      18     1 Jun 2027 21:37:51.544     1 Jun 2027 21:39:17.313            85.769
                      19     1 Jun 2027 23:09:13.227     1 Jun 2027 23:15:29.041           375.814
                      20     2 Jun 2027 00:45:28.851     2 Jun 2027 00:52:05.110           396.259
                      21     2 Jun 2027 02:21:32.694     2 Jun 2027 02:27:38.575           365.882
                      22     2 Jun 2027 04:00:38.470     2 Jun 2027 04:07:42.545           424.075
                      23     2 Jun 2027 05:24:52.419     2 Jun 2027 05:27:03.104           130.685
                      24     2 Jun 2027 05:37:05.628     2 Jun 2027 05:38:02.645            57.017
                      25     2 Jun 2027 06:59:20.910     2 Jun 2027 07:00:27.282            66.372
                      26     2 Jun 2027 07:01:16.409     2 Jun 2027 07:04:39.262           202.854
                      27     2 Jun 2027 08:34:13.516     2 Jun 2027 08:36:19.938           126.422
                      28     2 Jun 2027 08:36:24.142     2 Jun 2027 08:41:36.762           312.620
                      29     2 Jun 2027 08:42:17.598     2 Jun 2027 08:42:44.676            27.078
                      30     2 Jun 2027 10:11:48.015     2 Jun 2027 10:19:08.981           440.966
                      31     2 Jun 2027 11:48:30.790     2 Jun 2027 11:54:45.085           374.295
                      32     2 Jun 2027 11:54:49.316     2 Jun 2027 11:55:09.395            20.079
                      33     2 Jun 2027 13:26:34.674     2 Jun 2027 13:30:44.177           249.503
                      34     2 Jun 2027 15:00:17.091     2 Jun 2027 15:07:35.422           438.332
                      35     2 Jun 2027 20:08:21.446     2 Jun 2027 20:11:15.971           174.524
                      36     2 Jun 2027 21:44:50.575     2 Jun 2027 21:48:27.655           217.080
                      37     2 Jun 2027 21:49:34.750     2 Jun 2027 21:52:38.292           183.542
                      38     2 Jun 2027 23:21:23.391     2 Jun 2027 23:27:44.539           381.147
                      39     3 Jun 2027 00:56:55.964     3 Jun 2027 00:57:41.778            45.814
                      40     3 Jun 2027 00:57:47.738     3 Jun 2027 01:04:33.412           405.673
                      41     3 Jun 2027 02:33:59.658     3 Jun 2027 02:34:16.605            16.947
                      42     3 Jun 2027 02:34:25.565     3 Jun 2027 02:34:54.636            29.071
                      43     3 Jun 2027 02:34:59.359     3 Jun 2027 02:35:53.662            54.304
                      44     3 Jun 2027 02:35:54.620     3 Jun 2027 02:39:55.108           240.487
                      45     3 Jun 2027 04:12:43.394     3 Jun 2027 04:19:34.590           411.197
                      46     3 Jun 2027 05:36:58.393     3 Jun 2027 05:38:52.231           113.839
                      47     3 Jun 2027 05:49:26.836     3 Jun 2027 05:49:32.894             6.058
                      48     3 Jun 2027 07:10:49.399     3 Jun 2027 07:12:12.540            83.141
                      49     3 Jun 2027 07:12:51.980     3 Jun 2027 07:16:51.583           239.603
                      50     3 Jun 2027 08:45:43.637     3 Jun 2027 08:53:53.938           490.302
                      51     3 Jun 2027 08:54:14.267     3 Jun 2027 08:55:12.390            58.123
                      52     3 Jun 2027 10:23:42.812     3 Jun 2027 10:31:10.998           448.186
                      53     3 Jun 2027 12:00:39.246     3 Jun 2027 12:05:59.195           319.950
                      54     3 Jun 2027 12:06:18.621     3 Jun 2027 12:07:09.694            51.073
                      55     3 Jun 2027 13:37:52.419     3 Jun 2027 13:42:42.886           290.467
                      56     3 Jun 2027 15:14:21.370     3 Jun 2027 15:17:54.904           213.534
                      57     3 Jun 2027 20:20:27.222     3 Jun 2027 20:25:13.676           286.454
                      58     3 Jun 2027 21:56:47.672     3 Jun 2027 22:01:23.207           275.535
                      59     3 Jun 2027 22:01:36.645     3 Jun 2027 22:03:27.330           110.685
                      60     3 Jun 2027 22:04:12.636     3 Jun 2027 22:04:52.839            40.203
                      61     3 Jun 2027 23:33:21.884     3 Jun 2027 23:39:57.161           395.277
                      62     4 Jun 2027 01:08:53.833     4 Jun 2027 01:16:39.776           465.942
                      63     4 Jun 2027 02:46:36.113     4 Jun 2027 02:46:47.395            11.283
                      64     4 Jun 2027 02:46:58.949     4 Jun 2027 02:48:00.417            61.467
                      65     4 Jun 2027 02:48:06.273     4 Jun 2027 02:48:42.652            36.380
                      66     4 Jun 2027 02:48:44.463     4 Jun 2027 02:52:13.291           208.828
                      67     4 Jun 2027 04:25:06.002     4 Jun 2027 04:30:03.664           297.662
                      68     4 Jun 2027 05:48:54.422     4 Jun 2027 05:51:11.270           136.848
                      69     4 Jun 2027 07:25:06.921     4 Jun 2027 07:28:42.188           215.267
                      70     4 Jun 2027 08:58:38.674     4 Jun 2027 09:07:13.987           515.313
                      71     4 Jun 2027 10:36:04.681     4 Jun 2027 10:43:08.925           424.244
                      72     4 Jun 2027 12:13:08.288     4 Jun 2027 12:17:37.190           268.903
                      73     4 Jun 2027 12:17:44.626     4 Jun 2027 12:18:58.362            73.737
                      74     4 Jun 2027 13:49:54.402     4 Jun 2027 13:54:41.185           286.783
                      75     4 Jun 2027 15:25:10.226     4 Jun 2027 15:25:14.264             4.038
                      76     4 Jun 2027 15:26:51.595     4 Jun 2027 15:29:40.215           168.620
                      77     4 Jun 2027 20:32:44.648     4 Jun 2027 20:35:16.454           151.806
                      78     4 Jun 2027 20:35:42.194     4 Jun 2027 20:37:35.495           113.301
                      79     4 Jun 2027 22:08:42.640     4 Jun 2027 22:15:27.442           404.802
                      80     4 Jun 2027 23:45:25.444     4 Jun 2027 23:51:49.038           383.594
                      81     5 Jun 2027 01:20:56.065     5 Jun 2027 01:28:26.487           450.423
                      82     5 Jun 2027 02:59:07.585     5 Jun 2027 02:59:34.045            26.460
                      83     5 Jun 2027 02:59:40.987     5 Jun 2027 03:05:17.184           336.197
                      84     5 Jun 2027 04:37:06.355     5 Jun 2027 04:41:58.885           292.530
                      85     5 Jun 2027 06:00:46.167     5 Jun 2027 06:03:22.737           156.570
                      86     5 Jun 2027 07:37:10.094     5 Jun 2027 07:40:44.129           214.035
                      87     5 Jun 2027 09:11:16.208     5 Jun 2027 09:18:08.197           411.989
                      88     5 Jun 2027 09:18:10.302     5 Jun 2027 09:19:11.896            61.594
                      89     5 Jun 2027 10:48:16.497     5 Jun 2027 10:55:00.563           404.065
                      90     5 Jun 2027 12:25:17.357     5 Jun 2027 12:29:38.772           261.415
                      91     5 Jun 2027 12:29:39.679     5 Jun 2027 12:30:14.624            34.945
                      92     5 Jun 2027 14:01:59.369     5 Jun 2027 14:06:43.369           284.000
                      93     5 Jun 2027 15:40:18.626     5 Jun 2027 15:41:09.484            50.858
                      94     5 Jun 2027 20:44:50.614     5 Jun 2027 20:47:07.882           137.267
                      95     5 Jun 2027 22:20:47.110     5 Jun 2027 22:27:19.113           392.003
                      96     5 Jun 2027 23:57:28.573     6 Jun 2027 00:03:57.942           389.369
                      97     6 Jun 2027 01:33:01.451     6 Jun 2027 01:40:35.614           454.163
                      98     6 Jun 2027 03:11:13.593     6 Jun 2027 03:12:15.355            61.762
                      99     6 Jun 2027 03:12:21.837     6 Jun 2027 03:17:28.736           306.899
                     100     6 Jun 2027 04:50:19.533     6 Jun 2027 04:53:52.569           213.036
                     101     6 Jun 2027 06:12:51.442     6 Jun 2027 06:15:52.719           181.277
                     102     6 Jun 2027 07:49:20.671     6 Jun 2027 07:52:50.020           209.350
                     103     6 Jun 2027 09:24:28.032     6 Jun 2027 09:31:12.874           404.842
                     104     6 Jun 2027 11:00:49.380     6 Jun 2027 11:07:07.172           377.792
                     105     6 Jun 2027 12:38:15.854     6 Jun 2027 12:42:43.842           267.988
                     106     6 Jun 2027 14:14:26.800     6 Jun 2027 14:18:36.649           249.849
                     107     6 Jun 2027 20:56:57.338     6 Jun 2027 20:59:58.997           181.659
                     108     6 Jun 2027 22:32:52.126     6 Jun 2027 22:38:38.065           345.939
                     109     7 Jun 2027 00:09:33.843     7 Jun 2027 00:15:44.891           371.048
                     110     7 Jun 2027 01:44:59.781     7 Jun 2027 01:52:04.337           424.556
                     111     7 Jun 2027 03:23:14.232     7 Jun 2027 03:23:56.709            42.477
                     112     7 Jun 2027 03:24:19.428     7 Jun 2027 03:29:21.938           302.510
                     113     7 Jun 2027 05:01:26.518     7 Jun 2027 05:02:04.677            38.159
                     114     7 Jun 2027 05:02:17.421     7 Jun 2027 05:05:01.146           163.725
                     115     7 Jun 2027 06:24:55.105     7 Jun 2027 06:28:02.989           187.883
                     116     7 Jun 2027 08:01:24.083     7 Jun 2027 08:04:49.679           205.596
                     117     7 Jun 2027 09:36:35.158     7 Jun 2027 09:43:11.624           396.466
                     118     7 Jun 2027 11:12:31.669     7 Jun 2027 11:18:26.343           354.674
                     119     7 Jun 2027 11:18:30.725     7 Jun 2027 11:18:40.114             9.389
                     120     7 Jun 2027 11:18:48.846     7 Jun 2027 11:18:56.960             8.114
                     121     7 Jun 2027 12:50:22.883     7 Jun 2027 12:54:54.126           271.243
                     122     7 Jun 2027 14:26:21.389     7 Jun 2027 14:30:35.656           254.267
                     123     7 Jun 2027 14:30:39.784     7 Jun 2027 14:31:25.687            45.903
                     124     7 Jun 2027 19:33:13.780     7 Jun 2027 19:34:22.857            69.077
                     125     7 Jun 2027 21:08:55.841     7 Jun 2027 21:12:03.135           187.293
                     126     7 Jun 2027 22:45:03.782     7 Jun 2027 22:50:30.356           326.574
                     127     8 Jun 2027 00:21:32.554     8 Jun 2027 00:27:53.023           380.469
                     128     8 Jun 2027 01:57:01.258     8 Jun 2027 02:04:02.720           421.462
                     129     8 Jun 2027 03:36:18.996     8 Jun 2027 03:41:36.027           317.031
                     130     8 Jun 2027 03:42:31.672     8 Jun 2027 03:44:07.583            95.912
                     131     8 Jun 2027 05:02:33.128     8 Jun 2027 05:02:53.473            20.345
                     132     8 Jun 2027 05:13:24.210     8 Jun 2027 05:16:54.805           210.595
                     133     8 Jun 2027 06:37:21.966     8 Jun 2027 06:40:07.399           165.433
                     134     8 Jun 2027 08:13:08.481     8 Jun 2027 08:17:22.704           254.223
                     135     8 Jun 2027 09:47:51.206     8 Jun 2027 09:55:21.991           450.786
                     136     8 Jun 2027 11:24:37.123     8 Jun 2027 11:30:59.425           382.302
                     137     8 Jun 2027 13:02:53.207     8 Jun 2027 13:06:48.106           234.899
                     138     8 Jun 2027 14:36:11.703     8 Jun 2027 14:37:41.405            89.702
                     139     8 Jun 2027 14:38:01.213     8 Jun 2027 14:42:26.287           265.074
                     140     8 Jun 2027 14:42:46.540     8 Jun 2027 14:43:50.581            64.040
                     141     8 Jun 2027 19:44:36.628     8 Jun 2027 19:46:51.922           135.294
                     142     8 Jun 2027 21:20:50.498     8 Jun 2027 21:24:14.846           204.348
                     143     8 Jun 2027 22:57:29.409     8 Jun 2027 23:03:37.565           368.156
                     144     9 Jun 2027 00:33:40.654     9 Jun 2027 00:40:25.035           404.380
                     145     9 Jun 2027 02:09:41.670     9 Jun 2027 02:16:05.548           383.877
                     146     9 Jun 2027 03:48:39.741     9 Jun 2027 03:56:02.725           442.984
                     147     9 Jun 2027 05:13:48.480     9 Jun 2027 05:15:09.465            80.985
                     148     9 Jun 2027 05:25:23.737     9 Jun 2027 05:26:50.871            87.134
                     149     9 Jun 2027 06:47:59.709     9 Jun 2027 06:48:58.429            58.719
                     150     9 Jun 2027 06:49:37.513     9 Jun 2027 06:52:42.206           184.693
                     151     9 Jun 2027 08:23:09.046     9 Jun 2027 08:24:23.185            74.139
                     152     9 Jun 2027 08:24:51.687     9 Jun 2027 08:29:42.057           290.370
                     153     9 Jun 2027 09:59:56.795     9 Jun 2027 10:07:22.667           445.872
                     154     9 Jun 2027 11:36:57.794     9 Jun 2027 11:42:47.736           349.941
                     155     9 Jun 2027 11:42:50.834     9 Jun 2027 11:43:07.239            16.405
                     156     9 Jun 2027 13:14:51.165     9 Jun 2027 13:18:50.632           239.468
                     157     9 Jun 2027 14:48:08.554     9 Jun 2027 14:54:26.723           378.169
                     158     9 Jun 2027 14:54:42.343     9 Jun 2027 14:55:57.497            75.154
                     159     9 Jun 2027 19:56:35.018     9 Jun 2027 19:59:13.539           158.522
                     160     9 Jun 2027 21:32:57.590     9 Jun 2027 21:36:20.775           203.185
                     161     9 Jun 2027 21:37:59.153     9 Jun 2027 21:39:40.932           101.780
                     162     9 Jun 2027 23:09:48.445     9 Jun 2027 23:15:47.097           358.652
                     163    10 Jun 2027 00:45:45.428    10 Jun 2027 00:52:22.013           396.585
                     164    10 Jun 2027 02:21:49.965    10 Jun 2027 02:27:54.001           364.035
                     165    10 Jun 2027 04:00:55.587    10 Jun 2027 04:07:58.184           422.597
                     166    10 Jun 2027 05:25:08.472    10 Jun 2027 05:27:20.288           131.816
                     167    10 Jun 2027 05:37:22.358    10 Jun 2027 05:38:18.117            55.759
                     168    10 Jun 2027 06:59:35.427    10 Jun 2027 07:00:43.974            68.546
                     169    10 Jun 2027 07:01:32.215    10 Jun 2027 07:04:56.674           204.459
                     170    10 Jun 2027 08:34:28.812    10 Jun 2027 08:36:37.766           128.954
                     171    10 Jun 2027 08:36:39.811    10 Jun 2027 08:42:01.796           321.985
                     172    10 Jun 2027 08:42:33.550    10 Jun 2027 08:43:01.327            27.777
                     173    10 Jun 2027 10:12:03.841    10 Jun 2027 10:19:26.385           442.544
                     174    10 Jun 2027 11:48:47.070    10 Jun 2027 11:55:01.206           374.136
                     175    10 Jun 2027 11:55:05.439    10 Jun 2027 11:55:26.145            20.705
                     176    10 Jun 2027 13:26:50.786    10 Jun 2027 13:31:00.623           249.837
                     177    10 Jun 2027 15:00:34.812    10 Jun 2027 15:07:27.671           412.859
                     178    10 Jun 2027 20:08:38.483    10 Jun 2027 20:11:32.236           173.753
                     179    10 Jun 2027 21:45:06.597    10 Jun 2027 21:48:54.783           228.185
                     180    10 Jun 2027 21:49:50.962    10 Jun 2027 21:52:57.071           186.109
                     181    10 Jun 2027 23:21:39.492    10 Jun 2027 23:28:01.042           381.549
                     182    11 Jun 2027 00:57:12.435    11 Jun 2027 00:57:59.101            46.666
                     183    11 Jun 2027 00:58:04.825    11 Jun 2027 01:04:50.530           405.705
                     184    11 Jun 2027 02:34:16.505    11 Jun 2027 02:34:29.929            13.424
                     185    11 Jun 2027 02:34:43.062    11 Jun 2027 02:35:11.438            28.376
                     186    11 Jun 2027 02:35:15.673    11 Jun 2027 02:40:12.844           297.171
                     187    11 Jun 2027 04:13:01.610    11 Jun 2027 04:19:03.821           362.211
                     188    11 Jun 2027 05:37:14.242    11 Jun 2027 05:39:08.661           114.418
                     189    11 Jun 2027 05:49:44.933    11 Jun 2027 05:49:49.560             4.626
                     190    11 Jun 2027 07:11:04.597    11 Jun 2027 07:17:08.112           363.515
                     191    11 Jun 2027 08:45:59.288    11 Jun 2027 08:54:10.449           491.161
                     192    11 Jun 2027 08:54:30.614    11 Jun 2027 08:55:29.026            58.411
                     193    11 Jun 2027 10:23:59.763    11 Jun 2027 10:31:28.093           448.330
                     194    11 Jun 2027 12:00:54.223    11 Jun 2027 12:06:14.076           319.853
                     195    11 Jun 2027 12:06:32.668    11 Jun 2027 12:07:25.227            52.560
                     196    11 Jun 2027 13:38:28.402    11 Jun 2027 13:42:59.341           270.939
                     197    11 Jun 2027 15:14:41.082    11 Jun 2027 15:18:09.890           208.808
                     198    11 Jun 2027 20:20:44.155    11 Jun 2027 20:25:32.174           288.019
                     199    11 Jun 2027 21:57:03.831    11 Jun 2027 22:01:44.831           281.000
                     200    11 Jun 2027 22:01:54.304    11 Jun 2027 22:03:44.225           109.921
                     201    11 Jun 2027 22:04:29.100    11 Jun 2027 22:05:15.296            46.196
                     202    11 Jun 2027 23:33:38.563    11 Jun 2027 23:40:13.357           394.794
                     203    12 Jun 2027 01:09:10.296    12 Jun 2027 01:16:56.940           466.644
                     204    12 Jun 2027 02:46:53.577    12 Jun 2027 02:47:03.888            10.311
                     205    12 Jun 2027 02:47:15.844    12 Jun 2027 02:48:17.549            61.704
                     206    12 Jun 2027 02:48:22.700    12 Jun 2027 02:48:59.780            37.079
                     207    12 Jun 2027 02:49:01.449    12 Jun 2027 02:52:30.919           209.470
                     208    12 Jun 2027 04:25:27.152    12 Jun 2027 04:30:21.156           294.004
                     209    12 Jun 2027 05:49:10.892    12 Jun 2027 05:51:28.347           137.454
                     210    12 Jun 2027 07:25:22.907    12 Jun 2027 07:28:53.208           210.300
                     211    12 Jun 2027 08:58:56.240    12 Jun 2027 09:07:30.545           514.306
                     212    12 Jun 2027 10:36:22.069    12 Jun 2027 10:43:24.794           422.725
                     213    12 Jun 2027 12:13:23.775    12 Jun 2027 12:17:53.545           269.770
                     214    12 Jun 2027 12:18:00.084    12 Jun 2027 12:19:14.718            74.634
                     215    12 Jun 2027 13:50:13.767    12 Jun 2027 13:54:57.457           283.690
                     216    12 Jun 2027 15:27:26.503    12 Jun 2027 15:29:56.385           149.883
                     217    12 Jun 2027 20:33:00.513    12 Jun 2027 20:35:35.699           155.186
                     218    12 Jun 2027 20:36:06.994    12 Jun 2027 20:37:49.344           102.350
                     219    12 Jun 2027 22:08:59.496    12 Jun 2027 22:15:39.673           400.177
                     220    12 Jun 2027 23:45:42.375    12 Jun 2027 23:52:04.701           382.327
                     221    13 Jun 2027 01:21:13.528    13 Jun 2027 01:28:45.012           451.484
                     222    13 Jun 2027 02:59:21.782    13 Jun 2027 02:59:50.144            28.362
                     223    13 Jun 2027 02:59:55.785    13 Jun 2027 03:05:33.067           337.283
                     224    13 Jun 2027 04:37:22.200    13 Jun 2027 04:42:15.117           292.917
                     225    13 Jun 2027 06:01:02.038    13 Jun 2027 06:03:40.008           157.970
                     226    13 Jun 2027 07:37:29.484    13 Jun 2027 07:41:01.461           211.977
                     227    13 Jun 2027 09:09:40.587    13 Jun 2027 09:09:47.134             6.547
                     228    13 Jun 2027 09:11:34.936    13 Jun 2027 09:18:24.474           409.538
                     229    13 Jun 2027 09:18:26.778    13 Jun 2027 09:19:28.068            61.290
                     230    13 Jun 2027 10:48:32.843    13 Jun 2027 10:55:17.189           404.346
                     231    13 Jun 2027 12:25:43.747    13 Jun 2027 12:29:56.568           252.821
                     232    13 Jun 2027 12:30:00.676    13 Jun 2027 12:30:52.696            52.020
                     233    13 Jun 2027 14:02:16.542    13 Jun 2027 14:07:24.680           308.138
                     234    13 Jun 2027 15:40:34.870    13 Jun 2027 15:41:25.171            50.301
                     235    13 Jun 2027 20:45:07.764    13 Jun 2027 20:47:25.448           137.685
                     236    13 Jun 2027 22:21:03.747    13 Jun 2027 22:27:35.045           391.298
                     237    13 Jun 2027 23:57:44.939    14 Jun 2027 00:00:01.000           136.061

Min Duration          75     4 Jun 2027 15:25:10.226     4 Jun 2027 15:25:14.264             4.038
Max Duration          70     4 Jun 2027 08:58:38.674     4 Jun 2027 09:07:13.987           515.313
Mean Duration                                                                              228.108
Total Duration                                                                           54061.603


Russia-To-KinoSat_111503
------------------------
                  Access        Start Time (UTCG)           Stop Time (UTCG)        Duration (sec)
                  ------    ------------------------    ------------------------    --------------
                       1     1 Jun 2027 00:23:42.168     1 Jun 2027 00:30:31.446           409.278
                       2     1 Jun 2027 01:59:10.988     1 Jun 2027 02:06:18.396           427.408
                       3     1 Jun 2027 03:38:28.787     1 Jun 2027 03:44:05.851           337.064
                       4     1 Jun 2027 03:44:38.320     1 Jun 2027 03:46:15.760            97.439
                       5     1 Jun 2027 05:04:36.496     1 Jun 2027 05:05:05.046            28.550
                       6     1 Jun 2027 05:15:32.658     1 Jun 2027 05:18:59.281           206.623
                       7     1 Jun 2027 06:39:29.647     1 Jun 2027 06:42:26.389           176.742
                       8     1 Jun 2027 08:15:15.289     1 Jun 2027 08:19:34.047           258.759
                       9     1 Jun 2027 09:49:59.157     1 Jun 2027 09:57:31.897           452.740
                      10     1 Jun 2027 11:26:48.892     1 Jun 2027 11:33:07.931           379.039
                      11     1 Jun 2027 13:05:00.444     1 Jun 2027 13:08:57.183           236.739
                      12     1 Jun 2027 14:38:17.840     1 Jun 2027 14:40:00.124           102.284
                      13     1 Jun 2027 14:40:06.728     1 Jun 2027 14:44:40.397           273.669
                      14     1 Jun 2027 14:44:57.957     1 Jun 2027 14:46:01.939            63.982
                      15     1 Jun 2027 19:46:44.767     1 Jun 2027 19:49:07.601           142.834
                      16     1 Jun 2027 21:22:59.897     1 Jun 2027 21:26:23.626           203.729
                      17     1 Jun 2027 22:59:42.630     1 Jun 2027 23:05:52.352           369.723
                      18     2 Jun 2027 00:35:51.300     2 Jun 2027 00:42:31.584           400.284
                      19     2 Jun 2027 02:11:51.283     2 Jun 2027 02:18:16.022           384.739
                      20     2 Jun 2027 03:50:51.099     2 Jun 2027 03:58:09.301           438.202
                      21     2 Jun 2027 05:15:53.962     2 Jun 2027 05:17:19.807            85.845
                      22     2 Jun 2027 05:27:33.809     2 Jun 2027 05:28:54.100            80.290
                      23     2 Jun 2027 06:49:50.929     2 Jun 2027 06:51:06.091            75.161
                      24     2 Jun 2027 06:51:47.009     2 Jun 2027 06:54:52.873           185.865
                      25     2 Jun 2027 08:25:05.721     2 Jun 2027 08:26:27.401            81.679
                      26     2 Jun 2027 08:26:58.903     2 Jun 2027 08:31:52.635           293.732
                      27     2 Jun 2027 10:02:07.054     2 Jun 2027 10:09:31.966           444.912
                      28     2 Jun 2027 11:39:05.037     2 Jun 2027 11:44:58.454           353.417
                      29     2 Jun 2027 11:45:01.925     2 Jun 2027 11:45:13.729            11.804
                      30     2 Jun 2027 13:17:01.516     2 Jun 2027 13:20:59.970           238.454
                      31     2 Jun 2027 14:50:21.971     2 Jun 2027 14:56:36.757           374.787
                      32     2 Jun 2027 14:56:38.771     2 Jun 2027 14:58:07.002            88.230
                      33     2 Jun 2027 19:58:44.627     2 Jun 2027 20:01:22.628           158.001
                      34     2 Jun 2027 21:35:08.315     2 Jun 2027 21:38:30.535           202.220
                      35     2 Jun 2027 21:40:06.620     2 Jun 2027 21:42:09.952           123.332
                      36     2 Jun 2027 23:11:58.162     2 Jun 2027 23:17:56.658           358.496
                      37     3 Jun 2027 00:47:51.181     3 Jun 2027 00:54:36.316           405.135
                      38     3 Jun 2027 02:24:07.330     3 Jun 2027 02:30:04.139           356.809
                      39     3 Jun 2027 04:03:10.512     3 Jun 2027 04:10:07.437           416.925
                      40     3 Jun 2027 05:27:15.098     3 Jun 2027 05:29:31.636           136.538
                      41     3 Jun 2027 05:39:31.118     3 Jun 2027 05:40:10.876            39.758
                      42     3 Jun 2027 07:01:30.022     3 Jun 2027 07:02:54.064            84.042
                      43     3 Jun 2027 07:03:37.619     3 Jun 2027 07:07:07.199           209.579
                      44     3 Jun 2027 08:36:30.544     3 Jun 2027 08:44:12.119           461.575
                      45     3 Jun 2027 08:44:41.402     3 Jun 2027 08:45:12.306            30.904
                      46     3 Jun 2027 10:14:09.139     3 Jun 2027 10:21:35.760           446.621
                      47     3 Jun 2027 11:50:55.425     3 Jun 2027 11:56:59.073           363.648
                      48     3 Jun 2027 11:57:06.054     3 Jun 2027 11:57:36.673            30.619
                      49     3 Jun 2027 13:29:00.640     3 Jun 2027 13:33:09.322           248.681
                      50     3 Jun 2027 15:02:49.275     3 Jun 2027 15:09:35.278           406.003
                      51     3 Jun 2027 20:10:48.507     3 Jun 2027 20:13:35.738           167.231
                      52     3 Jun 2027 20:14:42.401     3 Jun 2027 20:14:43.091             0.690
                      53     3 Jun 2027 21:47:14.579     3 Jun 2027 21:51:09.891           235.312
                      54     3 Jun 2027 21:52:11.097     3 Jun 2027 21:55:12.045           180.948
                      55     3 Jun 2027 23:23:47.766     3 Jun 2027 23:30:13.180           385.414
                      56     4 Jun 2027 00:59:20.103     4 Jun 2027 01:07:05.913           465.809
                      57     4 Jun 2027 02:36:33.185     4 Jun 2027 02:36:39.227             6.042
                      58     4 Jun 2027 02:36:53.949     4 Jun 2027 02:42:24.029           330.081
                      59     4 Jun 2027 04:15:15.049     4 Jun 2027 04:21:57.609           402.560
                      60     4 Jun 2027 05:39:23.042     4 Jun 2027 05:41:17.686           114.644
                      61     4 Jun 2027 07:13:12.194     4 Jun 2027 07:19:11.895           359.700
                      62     4 Jun 2027 08:48:04.210     4 Jun 2027 08:56:20.456           496.245
                      63     4 Jun 2027 08:56:38.899     4 Jun 2027 08:57:39.107            60.208
                      64     4 Jun 2027 10:26:10.414     4 Jun 2027 10:33:37.547           447.133
                      65     4 Jun 2027 12:03:05.319     4 Jun 2027 12:08:11.637           306.318
                      66     4 Jun 2027 12:08:22.961     4 Jun 2027 12:09:31.935            68.975
                      67     4 Jun 2027 13:40:13.523     4 Jun 2027 13:45:07.799           294.276
                      68     4 Jun 2027 15:15:05.854     4 Jun 2027 15:16:10.757            64.903
                      69     4 Jun 2027 15:16:55.461     4 Jun 2027 15:20:17.150           201.689
                      70     4 Jun 2027 20:22:53.775     4 Jun 2027 20:25:20.517           146.741
                      71     4 Jun 2027 20:25:31.694     4 Jun 2027 20:27:56.982           145.288
                      72     4 Jun 2027 21:59:08.564     4 Jun 2027 22:03:58.266           289.702
                      73     4 Jun 2027 22:04:02.933     4 Jun 2027 22:06:00.926           117.993
                      74     4 Jun 2027 22:06:37.358     4 Jun 2027 22:07:09.510            32.152
                      75     4 Jun 2027 23:35:48.761     4 Jun 2027 23:42:22.640           393.879
                      76     5 Jun 2027 01:11:19.202     5 Jun 2027 01:19:02.140           462.939
                      77     5 Jun 2027 02:49:04.273     5 Jun 2027 02:49:07.705             3.432
                      78     5 Jun 2027 02:49:25.896     5 Jun 2027 02:50:25.822            59.927
                      79     5 Jun 2027 02:50:30.908     5 Jun 2027 02:54:44.606           253.698
                      80     5 Jun 2027 04:27:51.645     5 Jun 2027 04:32:33.640           281.995
                      81     5 Jun 2027 05:51:19.134     5 Jun 2027 05:53:38.991           139.857
                      82     5 Jun 2027 07:27:32.227     5 Jun 2027 07:31:04.137           211.910
                      83     5 Jun 2027 09:01:05.360     5 Jun 2027 09:08:36.397           451.037
                      84     5 Jun 2027 09:08:37.997     5 Jun 2027 09:09:39.199            61.202
                      85     5 Jun 2027 10:38:37.774     5 Jun 2027 10:45:22.543           404.769
                      86     5 Jun 2027 12:15:33.114     5 Jun 2027 12:20:02.367           269.253
                      87     5 Jun 2027 12:20:07.629     5 Jun 2027 12:21:24.065            76.436
                      88     5 Jun 2027 13:52:27.219     5 Jun 2027 13:57:02.426           275.207
                      89     5 Jun 2027 15:29:37.158     5 Jun 2027 15:32:03.984           146.826
                      90     5 Jun 2027 20:35:07.980     5 Jun 2027 20:37:42.333           154.353
                      91     5 Jun 2027 20:38:22.929     5 Jun 2027 20:39:50.246            87.317
                      92     5 Jun 2027 22:11:09.622     5 Jun 2027 22:17:48.426           398.804
                      93     5 Jun 2027 23:47:51.508     5 Jun 2027 23:54:15.041           383.533
                      94     6 Jun 2027 01:23:23.763     6 Jun 2027 01:30:56.634           452.871
                      95     6 Jun 2027 03:01:29.058     6 Jun 2027 03:01:56.968            27.910
                      96     6 Jun 2027 03:02:00.972     6 Jun 2027 03:07:39.601           338.629
                      97     6 Jun 2027 04:39:31.235     6 Jun 2027 04:44:22.061           290.826
                      98     6 Jun 2027 06:03:10.298     6 Jun 2027 06:05:49.380           159.082
                      99     6 Jun 2027 07:39:37.382     6 Jun 2027 07:43:12.892           215.510
                     100     6 Jun 2027 09:11:45.219     6 Jun 2027 09:11:56.078            10.859
                     101     6 Jun 2027 09:13:44.299     6 Jun 2027 09:20:32.230           407.931
                     102     6 Jun 2027 09:20:35.364     6 Jun 2027 09:21:33.950            58.586
                     103     6 Jun 2027 10:50:42.803     6 Jun 2027 10:57:27.292           404.488
                     104     6 Jun 2027 12:28:11.005     6 Jun 2027 12:32:08.483           237.478
                     105     6 Jun 2027 12:32:10.961     6 Jun 2027 12:32:49.662            38.701
                     106     6 Jun 2027 14:04:30.964     6 Jun 2027 14:09:21.331           290.367
                     107     6 Jun 2027 15:42:46.890     6 Jun 2027 15:43:18.543            31.653
                     108     6 Jun 2027 20:47:17.986     6 Jun 2027 20:49:34.658           136.672
                     109     6 Jun 2027 22:23:13.458     6 Jun 2027 22:29:39.099           385.641
                     110     6 Jun 2027 23:59:54.753     7 Jun 2027 00:06:24.582           389.829
                     111     7 Jun 2027 01:35:26.657     7 Jun 2027 01:42:54.091           447.434
                     112     7 Jun 2027 03:13:36.365     7 Jun 2027 03:14:37.687            61.322
                     113     7 Jun 2027 03:14:45.532     7 Jun 2027 03:19:52.076           306.545
