DATA_Files/Russia2Constellation/AreaTarget-Russia-To-Satellite-KinoSat_14_plane.txt

                                                                                                                                                                                                                                                                                           10 May 2023 22:30:22
Civil Air Patrol Use Only
AreaTarget-Russia-To-Satellite-KinoSat_111401, Satellite-KinoSat_111402, Satellite-KinoSat_111403, Satellite-KinoSat_111404, Satellite-KinoSat_111405, Satellite-KinoSat_111406, Satellite-KinoSat_111407, Satellite-KinoSat_111408, Satellite-KinoSat_111409, Satellite-KinoSat_111410:  Access Summary Report


Russia-To-KinoSat_111401
------------------------
                  Access        Start Time (UTCG)           Stop Time (UTCG)        Duration (sec)
                  ------    ------------------------    ------------------------    --------------
                       1     1 Jun 2027 00:46:09.098     1 Jun 2027 00:53:55.631           466.533
                       2     1 Jun 2027 02:23:52.891     1 Jun 2027 02:24:02.308             9.416
                       3     1 Jun 2027 02:24:14.732     1 Jun 2027 02:25:16.305            61.573
                       4     1 Jun 2027 02:25:21.231     1 Jun 2027 02:30:24.690           303.459
                       5     1 Jun 2027 04:02:39.466     1 Jun 2027 04:07:20.742           281.275
                       6     1 Jun 2027 05:26:10.210     1 Jun 2027 05:28:27.473           137.263
                       7     1 Jun 2027 07:02:21.325     1 Jun 2027 07:05:51.068           209.743
                       8     1 Jun 2027 08:35:54.739     1 Jun 2027 08:43:25.036           450.297
                       9     1 Jun 2027 08:43:28.320     1 Jun 2027 08:44:28.939            60.619
                      10     1 Jun 2027 10:13:22.481     1 Jun 2027 10:20:11.861           409.380
                      11     1 Jun 2027 11:50:21.954     1 Jun 2027 11:54:51.638           269.684
                      12     1 Jun 2027 11:54:57.821     1 Jun 2027 11:56:13.411            75.590
                      13     1 Jun 2027 13:27:15.958     1 Jun 2027 13:31:55.400           279.442
                      14     1 Jun 2027 15:04:25.378     1 Jun 2027 15:06:54.607           149.229
                      15     1 Jun 2027 20:09:59.049     1 Jun 2027 20:12:35.527           156.478
                      16     1 Jun 2027 20:13:08.866     1 Jun 2027 20:14:46.199            97.334
                      17     1 Jun 2027 21:45:58.472     1 Jun 2027 21:52:39.095           400.623
                      18     1 Jun 2027 23:22:41.351     1 Jun 2027 23:29:03.198           381.847
                      19     2 Jun 2027 00:58:13.149     2 Jun 2027 01:05:45.256           452.107
                      20     2 Jun 2027 02:36:20.202     2 Jun 2027 02:36:48.330            28.128
                      21     2 Jun 2027 02:36:52.333     2 Jun 2027 02:42:30.393           338.060
                      22     2 Jun 2027 04:14:20.761     2 Jun 2027 04:19:13.612           292.851
                      23     2 Jun 2027 05:38:00.164     2 Jun 2027 05:40:38.958           158.794
                      24     2 Jun 2027 07:14:27.051     2 Jun 2027 07:18:01.568           214.517
                      25     2 Jun 2027 08:46:36.711     2 Jun 2027 08:46:46.216             9.505
                      26     2 Jun 2027 08:48:33.854     2 Jun 2027 08:55:21.462           407.608
                      27     2 Jun 2027 08:55:25.158     2 Jun 2027 08:56:25.731            60.573
                      28     2 Jun 2027 10:25:32.063     2 Jun 2027 10:32:16.317           404.253
                      29     2 Jun 2027 12:02:50.201     2 Jun 2027 12:06:57.069           246.868
                      30     2 Jun 2027 12:06:59.529     2 Jun 2027 12:07:34.890            35.361
                      31     2 Jun 2027 13:39:17.303     2 Jun 2027 13:44:23.872           306.569
                      32     2 Jun 2027 15:17:33.758     2 Jun 2027 15:18:17.401            43.643
                      33     2 Jun 2027 20:22:06.682     2 Jun 2027 20:24:24.155           137.473
                      34     2 Jun 2027 21:58:02.574     2 Jun 2027 22:04:32.332           389.758
                      35     2 Jun 2027 23:34:43.684     2 Jun 2027 23:41:14.185           390.501
                      36     3 Jun 2027 01:10:16.519     3 Jun 2027 01:17:47.142           450.622
                      37     3 Jun 2027 02:48:26.174     3 Jun 2027 02:49:29.507            63.333
                      38     3 Jun 2027 02:49:36.805     3 Jun 2027 02:54:43.082           306.277
                      39     3 Jun 2027 04:27:34.323     3 Jun 2027 04:31:07.550           213.227
                      40     3 Jun 2027 05:50:08.198     3 Jun 2027 05:53:10.423           182.225
                      41     3 Jun 2027 07:26:36.346     3 Jun 2027 07:30:15.216           218.871
                      42     3 Jun 2027 09:01:47.223     3 Jun 2027 09:08:27.563           400.340
                      43     3 Jun 2027 10:38:06.206     3 Jun 2027 10:44:22.881           376.675
                      44     3 Jun 2027 12:15:29.591     3 Jun 2027 12:20:01.270           271.679
                      45     3 Jun 2027 13:51:40.560     3 Jun 2027 13:55:53.991           253.432
                      46     3 Jun 2027 18:59:26.191     3 Jun 2027 18:59:28.639             2.448
                      47     3 Jun 2027 20:34:13.485     3 Jun 2027 20:37:16.990           183.505
                      48     3 Jun 2027 22:10:07.921     3 Jun 2027 22:15:49.495           341.574
                      49     3 Jun 2027 23:46:49.518     3 Jun 2027 23:52:59.256           369.739
                      50     4 Jun 2027 01:22:14.885     4 Jun 2027 01:29:17.307           422.422
                      51     4 Jun 2027 03:00:29.989     4 Jun 2027 03:01:11.398            41.409
                      52     4 Jun 2027 03:01:34.045     4 Jun 2027 03:06:38.160           304.115
                      53     4 Jun 2027 04:38:43.354     4 Jun 2027 04:39:19.736            36.383
                      54     4 Jun 2027 04:39:48.338     4 Jun 2027 04:42:14.337           145.999
                      55     4 Jun 2027 06:02:09.574     4 Jun 2027 06:05:18.922           189.348
                      56     4 Jun 2027 07:38:37.320     4 Jun 2027 07:42:03.270           205.950
                      57     4 Jun 2027 09:13:49.897     4 Jun 2027 09:20:27.850           397.953
                      58     4 Jun 2027 10:49:45.163     4 Jun 2027 10:56:03.406           378.243
                      59     4 Jun 2027 12:27:44.668     4 Jun 2027 12:32:08.760           264.092
                      60     4 Jun 2027 14:03:35.784     4 Jun 2027 14:07:49.196           253.411
                      61     4 Jun 2027 14:07:54.864     4 Jun 2027 14:08:45.264            50.400
                      62     4 Jun 2027 19:10:24.403     4 Jun 2027 19:11:41.843            77.440
                      63     4 Jun 2027 20:46:09.237     4 Jun 2027 20:49:18.433           189.196
                      64     4 Jun 2027 22:22:21.088     4 Jun 2027 22:27:47.072           325.984
                      65     4 Jun 2027 23:58:48.082     5 Jun 2027 00:05:37.671           409.588
                      66     5 Jun 2027 01:34:16.672     5 Jun 2027 01:41:20.640           423.968
                      67     5 Jun 2027 03:13:34.614     5 Jun 2027 03:18:57.144           322.530
                      68     5 Jun 2027 03:19:44.421     5 Jun 2027 03:21:21.757            97.336
                      69     5 Jun 2027 04:39:43.144     5 Jun 2027 04:40:10.965            27.821
                      70     5 Jun 2027 04:50:38.985     5 Jun 2027 04:54:06.846           207.861
                      71     5 Jun 2027 06:14:36.045     5 Jun 2027 06:17:32.192           176.148
                      72     5 Jun 2027 07:50:21.251     5 Jun 2027 07:54:39.493           258.242
                      73     5 Jun 2027 09:25:05.127     5 Jun 2027 09:32:37.913           452.786
                      74     5 Jun 2027 11:01:54.857     5 Jun 2027 11:08:13.997           379.140
                      75     5 Jun 2027 12:40:06.976     5 Jun 2027 12:44:03.212           236.236
                      76     5 Jun 2027 14:13:24.426     5 Jun 2027 14:14:56.970            92.544
                      77     5 Jun 2027 14:14:57.544     5 Jun 2027 14:19:45.895           288.351
                      78     5 Jun 2027 14:20:03.796     5 Jun 2027 14:21:07.839            64.043
                      79     5 Jun 2027 19:21:51.142     5 Jun 2027 19:24:12.240           141.098
                      80     5 Jun 2027 20:58:05.846     5 Jun 2027 21:01:29.459           203.613
                      81     5 Jun 2027 22:34:47.871     5 Jun 2027 22:40:56.533           368.662
                      82     6 Jun 2027 00:10:56.553     6 Jun 2027 00:17:38.294           401.741
                      83     6 Jun 2027 01:46:57.137     6 Jun 2027 01:53:19.802           382.665
                      84     6 Jun 2027 03:25:56.191     6 Jun 2027 03:33:15.361           439.169
                      85     6 Jun 2027 04:50:59.981     6 Jun 2027 04:52:25.705            85.724
                      86     6 Jun 2027 05:02:39.925     6 Jun 2027 05:04:03.985            84.060
                      87     6 Jun 2027 06:25:11.121     6 Jun 2027 06:26:12.337            61.216
                      88     6 Jun 2027 06:26:53.206     6 Jun 2027 06:29:58.623           185.418
                      89     6 Jun 2027 08:00:14.352     6 Jun 2027 08:01:33.657            79.305
                      90     6 Jun 2027 08:02:05.324     6 Jun 2027 08:06:58.554           293.230
                      91     6 Jun 2027 09:37:13.272     6 Jun 2027 09:44:37.949           444.678
                      92     6 Jun 2027 11:14:11.328     6 Jun 2027 11:20:04.278           352.949
                      93     6 Jun 2027 11:20:08.247     6 Jun 2027 11:20:19.828            11.581
                      94     6 Jun 2027 12:52:07.067     6 Jun 2027 12:56:05.917           238.850
                      95     6 Jun 2027 14:25:27.352     6 Jun 2027 14:31:42.044           374.692
                      96     6 Jun 2027 14:31:45.049     6 Jun 2027 14:33:13.107            88.058
                      97     6 Jun 2027 19:33:50.321     6 Jun 2027 19:36:28.264           157.943
                      98     6 Jun 2027 21:10:13.723     6 Jun 2027 21:13:36.316           202.593
                      99     6 Jun 2027 21:15:13.919     6 Jun 2027 21:17:09.853           115.934
                     100     6 Jun 2027 22:47:03.470     6 Jun 2027 22:53:02.763           359.293
                     101     7 Jun 2027 00:22:57.522     7 Jun 2027 00:29:41.390           403.869
                     102     7 Jun 2027 01:59:12.889     7 Jun 2027 02:05:09.234           356.345
                     103     7 Jun 2027 03:38:13.164     7 Jun 2027 03:45:13.522           420.358
                     104     7 Jun 2027 05:02:21.012     7 Jun 2027 05:04:37.361           136.348
                     105     7 Jun 2027 05:14:37.152     7 Jun 2027 05:15:32.086            54.933
                     106     7 Jun 2027 06:36:35.883     7 Jun 2027 06:38:00.259            84.376
                     107     7 Jun 2027 06:38:43.909     7 Jun 2027 06:42:13.078           209.169
                     108     7 Jun 2027 08:11:37.577     7 Jun 2027 08:19:17.986           460.409
                     109     7 Jun 2027 08:19:47.366     7 Jun 2027 08:20:18.255            30.889
                     110     7 Jun 2027 09:49:15.282     7 Jun 2027 09:56:41.713           446.431
                     111     7 Jun 2027 11:26:01.358     7 Jun 2027 11:32:08.271           366.914
                     112     7 Jun 2027 11:32:18.294     7 Jun 2027 11:32:42.541            24.247
                     113     7 Jun 2027 13:04:06.414     7 Jun 2027 13:08:15.318           248.904
                     114     7 Jun 2027 14:37:54.899     7 Jun 2027 14:44:41.415           406.516
                     115     7 Jun 2027 19:45:54.285     7 Jun 2027 19:48:39.961           165.677
                     116     7 Jun 2027 21:22:20.983     7 Jun 2027 21:26:12.107           231.124
                     117     7 Jun 2027 21:27:12.609     7 Jun 2027 21:30:15.981           183.371
                     118     7 Jun 2027 22:58:53.845     7 Jun 2027 23:05:18.350           384.506
                     119     8 Jun 2027 00:34:26.854     8 Jun 2027 00:42:11.607           464.753
                     120     8 Jun 2027 02:11:39.024     8 Jun 2027 02:11:45.228             6.204
                     121     8 Jun 2027 02:11:59.442     8 Jun 2027 02:12:27.114            27.672
                     122     8 Jun 2027 02:12:29.316     8 Jun 2027 02:17:29.669           300.353
                     123     8 Jun 2027 03:50:19.973     8 Jun 2027 03:56:21.901           361.928
                     124     8 Jun 2027 05:14:28.952     8 Jun 2027 05:16:23.548           114.596
                     125     8 Jun 2027 06:48:18.419     8 Jun 2027 06:54:17.809           359.390
                     126     8 Jun 2027 08:23:10.393     8 Jun 2027 08:31:26.267           495.874
                     127     8 Jun 2027 08:31:44.850     8 Jun 2027 08:32:45.019            60.169
                     128     8 Jun 2027 10:01:16.198     8 Jun 2027 10:08:43.456           447.258
                     129     8 Jun 2027 11:38:10.744     8 Jun 2027 11:43:17.781           307.036
                     130     8 Jun 2027 11:43:43.924     8 Jun 2027 11:44:38.036            54.111
                     131     8 Jun 2027 13:15:19.469     8 Jun 2027 13:20:13.741           294.272
                     132     8 Jun 2027 14:50:10.297     8 Jun 2027 14:51:17.826            67.529
                     133     8 Jun 2027 14:52:01.411     8 Jun 2027 14:55:23.328           201.917
                     134     8 Jun 2027 19:57:59.596     8 Jun 2027 20:02:49.331           289.735
                     135     8 Jun 2027 21:34:15.087     8 Jun 2027 21:39:03.291           288.205
                     136     8 Jun 2027 21:39:08.997     8 Jun 2027 21:41:03.326           114.328
                     137     8 Jun 2027 21:41:42.758     8 Jun 2027 21:42:32.316            49.558
                     138     8 Jun 2027 23:10:54.120     8 Jun 2027 23:17:28.328           394.208
                     139     9 Jun 2027 00:46:25.344     9 Jun 2027 00:54:09.675           464.331
                     140     9 Jun 2027 02:24:09.726     9 Jun 2027 02:24:16.982             7.256
                     141     9 Jun 2027 02:24:31.208     9 Jun 2027 02:25:32.283            61.075
                     142     9 Jun 2027 02:25:37.142     9 Jun 2027 02:29:49.924           252.782
                     143     9 Jun 2027 04:02:56.423     9 Jun 2027 04:07:37.576           281.154
                     144     9 Jun 2027 05:26:25.105     9 Jun 2027 05:28:44.420           139.314
                     145     9 Jun 2027 07:02:37.881     9 Jun 2027 07:06:09.553           211.672
                     146     9 Jun 2027 08:36:11.165     9 Jun 2027 08:43:42.143           450.978
                     147     9 Jun 2027 08:43:43.942     9 Jun 2027 08:44:45.047            61.105
                     148     9 Jun 2027 10:13:42.675     9 Jun 2027 10:20:28.377           405.702
                     149     9 Jun 2027 11:50:38.790     9 Jun 2027 11:55:08.200           269.409
                     150     9 Jun 2027 11:55:13.734     9 Jun 2027 11:56:29.879            76.145
                     151     9 Jun 2027 13:27:32.690     9 Jun 2027 13:32:08.734           276.044
                     152     9 Jun 2027 15:04:42.784     9 Jun 2027 15:07:10.244           147.460
                     153     9 Jun 2027 20:10:14.662     9 Jun 2027 20:12:51.960           157.298
                     154     9 Jun 2027 20:13:27.328     9 Jun 2027 20:15:00.062            92.733
                     155     9 Jun 2027 21:46:15.104     9 Jun 2027 21:52:55.057           399.953
                     156     9 Jun 2027 23:22:57.576     9 Jun 2027 23:29:20.056           382.479
                     157    10 Jun 2027 00:58:29.474    10 Jun 2027 01:06:01.928           452.454
                     158    10 Jun 2027 02:36:36.280    10 Jun 2027 02:37:03.714            27.435
                     159    10 Jun 2027 02:37:07.494    10 Jun 2027 02:42:44.165           336.672
                     160    10 Jun 2027 04:14:37.095    10 Jun 2027 04:19:29.415           292.320
                     161    10 Jun 2027 05:38:16.148    10 Jun 2027 05:40:55.234           159.085
                     162    10 Jun 2027 07:14:43.076    10 Jun 2027 07:18:18.587           215.511
                     163    10 Jun 2027 08:46:51.188    10 Jun 2027 08:47:02.235            11.047
                     164    10 Jun 2027 08:48:50.012    10 Jun 2027 08:55:38.005           407.993
                     165    10 Jun 2027 08:55:41.208    10 Jun 2027 08:56:39.793            58.584
                     166    10 Jun 2027 10:25:48.759    10 Jun 2027 10:32:33.046           404.287
                     167    10 Jun 2027 12:03:13.451    10 Jun 2027 12:07:14.127           240.675
                     168    10 Jun 2027 12:07:16.435    10 Jun 2027 12:07:55.182            38.747
                     169    10 Jun 2027 13:39:35.409    10 Jun 2027 13:44:40.061           304.653
                     170    10 Jun 2027 15:17:52.941    10 Jun 2027 15:18:30.972            38.031
                     171    10 Jun 2027 20:22:23.264    10 Jun 2027 20:24:40.199           136.935
                     172    10 Jun 2027 21:58:19.054    10 Jun 2027 22:04:47.962           388.908
                     173    10 Jun 2027 23:35:00.175    10 Jun 2027 23:41:30.520           390.345
                     174    11 Jun 2027 01:10:32.596    11 Jun 2027 01:18:01.677           449.081
                     175    11 Jun 2027 02:48:42.242    11 Jun 2027 02:49:45.112            62.869
                     176    11 Jun 2027 02:49:51.882    11 Jun 2027 02:54:58.676           306.794
                     177    11 Jun 2027 04:27:50.415    11 Jun 2027 04:31:22.210           211.794
                     178    11 Jun 2027 05:50:24.554    11 Jun 2027 05:53:27.586           183.033
                     179    11 Jun 2027 07:26:53.020    11 Jun 2027 07:30:31.459           218.439
                     180    11 Jun 2027 09:02:04.269    11 Jun 2027 09:08:41.981           397.712
                     181    11 Jun 2027 10:38:23.008    11 Jun 2027 10:44:39.349           376.341
                     182    11 Jun 2027 12:15:45.908    11 Jun 2027 12:20:18.208           272.300
                     183    11 Jun 2027 13:51:55.921    11 Jun 2027 13:56:31.614           275.693
                     184    11 Jun 2027 18:59:40.584    11 Jun 2027 18:59:47.556             6.972
                     185    11 Jun 2027 20:34:30.479    11 Jun 2027 20:37:36.591           186.113
                     186    11 Jun 2027 22:10:24.644    11 Jun 2027 22:16:05.760           341.116
                     187    11 Jun 2027 23:47:05.869    11 Jun 2027 23:53:15.233           369.364
                     188    12 Jun 2027 01:22:30.865    12 Jun 2027 01:29:32.805           421.940
                     189    12 Jun 2027 03:00:46.635    12 Jun 2027 03:01:28.118            41.483
                     190    12 Jun 2027 03:01:50.204    12 Jun 2027 03:06:54.113           303.909
                     191    12 Jun 2027 04:38:59.386    12 Jun 2027 04:39:35.776            36.390
                     192    12 Jun 2027 04:40:04.383    12 Jun 2027 04:42:30.524           146.141
                     193    12 Jun 2027 06:03:07.025    12 Jun 2027 06:05:35.493           148.468
                     194    12 Jun 2027 07:38:52.174    12 Jun 2027 07:42:23.000           210.826
                     195    12 Jun 2027 09:14:05.280    12 Jun 2027 09:20:46.594           401.314
                     196    12 Jun 2027 10:50:01.804    12 Jun 2027 10:56:20.840           379.037
                     197    12 Jun 2027 12:27:59.576    12 Jun 2027 12:32:24.909           265.333
                     198    12 Jun 2027 14:03:50.982    12 Jun 2027 14:08:05.240           254.258
                     199    12 Jun 2027 14:08:11.186    12 Jun 2027 14:09:02.876            51.689
                     200    12 Jun 2027 19:10:38.403    12 Jun 2027 19:11:59.349            80.945
                     201    12 Jun 2027 20:46:24.843    12 Jun 2027 20:49:32.771           187.927
                     202    12 Jun 2027 22:22:56.473    12 Jun 2027 22:28:04.351           307.877
                     203    12 Jun 2027 23:59:04.550    13 Jun 2027 00:05:53.757           409.207
                     204    13 Jun 2027 01:34:33.221    13 Jun 2027 01:41:40.969           427.748
                     205    13 Jun 2027 03:13:51.167    13 Jun 2027 03:19:28.501           337.334
                     206    13 Jun 2027 03:20:00.782    13 Jun 2027 03:21:38.191            97.409
                     207    13 Jun 2027 04:39:57.188    13 Jun 2027 04:40:27.628            30.441
                     208    13 Jun 2027 04:50:55.049    13 Jun 2027 04:54:21.707           206.657
                     209    13 Jun 2027 06:14:13.918    13 Jun 2027 06:17:49.275           215.357
                     210    13 Jun 2027 07:50:36.737    13 Jun 2027 07:54:58.811           262.075
                     211    13 Jun 2027 09:25:21.797    13 Jun 2027 09:32:54.484           452.686
                     212    13 Jun 2027 11:02:11.144    13 Jun 2027 11:08:30.567           379.424
                     213    13 Jun 2027 12:40:22.103    13 Jun 2027 12:44:19.511           237.408
                     214    13 Jun 2027 14:13:39.637    13 Jun 2027 14:15:23.040           103.403
                     215    13 Jun 2027 14:15:27.725    13 Jun 2027 14:20:03.713           275.988
                     216    13 Jun 2027 14:20:20.628    13 Jun 2027 14:21:25.796            65.168
                     217    13 Jun 2027 19:22:07.138    13 Jun 2027 19:24:30.120           142.982
                     218    13 Jun 2027 20:58:22.248    13 Jun 2027 21:01:45.939           203.691
                     219    13 Jun 2027 22:35:04.961    13 Jun 2027 22:41:15.107           370.146

Min Duration          46     3 Jun 2027 18:59:26.191     3 Jun 2027 18:59:28.639             2.448
Max Duration         126     8 Jun 2027 08:23:10.393     8 Jun 2027 08:31:26.267           495.874
Mean Duration                                                                              237.480
Total Duration                                                                           52008.058


Russia-To-KinoSat_111402
------------------------
                  Access        Start Time (UTCG)           Stop Time (UTCG)        Duration (sec)
                  ------    ------------------------    ------------------------    --------------
                       1     1 Jun 2027 00:36:35.015     1 Jun 2027 00:44:23.569           468.554
                       2     1 Jun 2027 02:13:49.100     1 Jun 2027 02:13:53.396             4.296
                       3     1 Jun 2027 02:14:10.524     1 Jun 2027 02:19:40.192           329.668
                       4     1 Jun 2027 03:52:31.757     1 Jun 2027 03:58:33.110           361.353
                       5     1 Jun 2027 05:16:38.086     1 Jun 2027 05:18:39.576           121.489
                       6     1 Jun 2027 06:50:24.435     1 Jun 2027 06:56:27.928           363.493
                       7     1 Jun 2027 08:26:24.922     1 Jun 2027 08:33:36.517           431.596
                       8     1 Jun 2027 08:33:53.736     1 Jun 2027 08:34:54.708            60.972
                       9     1 Jun 2027 10:03:27.530     1 Jun 2027 10:10:51.878           444.348
                      10     1 Jun 2027 11:40:22.314     1 Jun 2027 11:45:26.003           303.690
                      11     1 Jun 2027 11:45:37.528     1 Jun 2027 11:46:44.884            67.357
                      12     1 Jun 2027 13:17:28.527     1 Jun 2027 13:22:22.416           293.888
                      13     1 Jun 2027 14:52:28.370     1 Jun 2027 14:53:14.114            45.745
                      14     1 Jun 2027 14:54:10.546     1 Jun 2027 14:57:30.907           200.361
                      15     1 Jun 2027 20:00:09.327     1 Jun 2027 20:02:19.935           130.608
                      16     1 Jun 2027 20:02:48.831     1 Jun 2027 20:05:23.527           154.696
                      17     1 Jun 2027 21:36:23.148     1 Jun 2027 21:43:17.145           413.997
                      18     1 Jun 2027 23:13:05.677     1 Jun 2027 23:19:39.028           393.351
                      19     2 Jun 2027 00:48:34.541     2 Jun 2027 00:56:14.066           459.525
                      20     2 Jun 2027 02:26:42.737     2 Jun 2027 02:27:36.468            53.731
                      21     2 Jun 2027 02:27:45.990     2 Jun 2027 02:32:54.163           308.173
                      22     2 Jun 2027 04:05:07.992     2 Jun 2027 04:09:48.735           280.743
                      23     2 Jun 2027 05:28:32.941     2 Jun 2027 05:30:56.162           143.220
                      24     2 Jun 2027 07:04:52.138     2 Jun 2027 07:08:20.704           208.565
                      25     2 Jun 2027 08:38:21.838     2 Jun 2027 08:46:54.234           512.396
                      26     2 Jun 2027 10:15:53.623     2 Jun 2027 10:22:38.579           404.955
                      27     2 Jun 2027 11:52:50.024     2 Jun 2027 11:57:16.754           266.730
                      28     2 Jun 2027 11:57:21.644     2 Jun 2027 11:58:38.349            76.705
                      29     2 Jun 2027 13:29:40.653     2 Jun 2027 13:34:13.363           272.710
                      30     2 Jun 2027 15:07:16.788     2 Jun 2027 15:09:17.955           121.167
                      31     2 Jun 2027 20:12:22.944     2 Jun 2027 20:14:56.980           154.036
                      32     2 Jun 2027 20:15:43.280     2 Jun 2027 20:16:58.304            75.025
                      33     2 Jun 2027 21:48:25.658     2 Jun 2027 21:55:01.503           395.845
                      34     2 Jun 2027 23:25:06.954     2 Jun 2027 23:31:30.231           383.277
                      35     3 Jun 2027 01:00:39.606     3 Jun 2027 01:08:12.030           452.424
                      36     3 Jun 2027 02:38:43.716     3 Jun 2027 02:39:11.800            28.083
                      37     3 Jun 2027 02:39:14.211     3 Jun 2027 02:44:57.813           343.603
                      38     3 Jun 2027 04:16:46.618     3 Jun 2027 04:21:33.117           286.500
                      39     3 Jun 2027 05:40:24.401     3 Jun 2027 05:43:05.791           161.390
                      40     3 Jun 2027 07:16:53.801     3 Jun 2027 07:20:28.660           214.859
                      41     3 Jun 2027 08:51:01.595     3 Jun 2027 08:57:47.833           406.239
                      42     3 Jun 2027 08:57:50.961     3 Jun 2027 08:58:48.684            57.723
                      43     3 Jun 2027 10:27:59.986     3 Jun 2027 10:34:42.981           402.995
                      44     3 Jun 2027 12:05:39.575     3 Jun 2027 12:10:06.847           267.272
                      45     3 Jun 2027 13:41:43.718     3 Jun 2027 13:46:32.568           288.851
                      46     3 Jun 2027 15:20:27.548     3 Jun 2027 15:20:30.572             3.024
                      47     3 Jun 2027 20:24:33.974     3 Jun 2027 20:26:52.247           138.273
                      48     3 Jun 2027 22:00:29.206     3 Jun 2027 22:06:48.736           379.531
                      49     3 Jun 2027 23:37:10.747     3 Jun 2027 23:43:39.218           388.471
                      50     4 Jun 2027 01:12:42.251     4 Jun 2027 01:20:05.673           443.422
                      51     4 Jun 2027 02:50:51.674     4 Jun 2027 02:51:52.066            60.392
                      52     4 Jun 2027 02:52:00.728     4 Jun 2027 02:57:12.423           311.695
                      53     4 Jun 2027 04:29:12.913     4 Jun 2027 04:29:38.070            25.158
                      54     4 Jun 2027 04:29:59.892     4 Jun 2027 04:33:22.400           202.508
                      55     4 Jun 2027 05:52:33.508     4 Jun 2027 05:55:38.671           185.163
                      56     4 Jun 2027 07:29:04.038     4 Jun 2027 07:32:39.727           215.689
                      57     4 Jun 2027 09:04:14.134     4 Jun 2027 09:10:51.095           396.961
                      58     4 Jun 2027 10:40:36.281     4 Jun 2027 10:46:49.652           373.371
                      59     4 Jun 2027 12:17:53.433     4 Jun 2027 12:22:29.357           275.924
                      60     4 Jun 2027 13:54:06.356     4 Jun 2027 13:58:45.586           279.230
                      61     4 Jun 2027 20:36:45.667     4 Jun 2027 20:39:46.334           180.667
                      62     4 Jun 2027 22:12:35.012     4 Jun 2027 22:18:12.179           337.168
                      63     4 Jun 2027 23:49:15.337     4 Jun 2027 23:55:23.783           368.445
                      64     5 Jun 2027 01:24:39.674     5 Jun 2027 01:31:40.248           420.575
                      65     5 Jun 2027 03:02:56.333     5 Jun 2027 03:03:12.591            16.258
                      66     5 Jun 2027 03:03:58.910     5 Jun 2027 03:09:02.067           303.157
                      67     5 Jun 2027 03:10:33.743     5 Jun 2027 03:10:40.883             7.140
                      68     5 Jun 2027 04:41:07.656     5 Jun 2027 04:41:45.333            37.677
                      69     5 Jun 2027 04:42:15.245     5 Jun 2027 04:44:42.514           147.269
                      70     5 Jun 2027 06:05:13.506     5 Jun 2027 06:07:45.341           151.836
                      71     5 Jun 2027 07:40:59.105     5 Jun 2027 07:44:35.331           216.226
                      72     5 Jun 2027 09:15:56.343     5 Jun 2027 09:22:57.980           421.637
                      73     5 Jun 2027 10:52:08.869     5 Jun 2027 10:58:33.453           384.584
                      74     5 Jun 2027 12:30:10.081     5 Jun 2027 12:34:21.532           251.450
                      75     5 Jun 2027 14:05:49.744     5 Jun 2027 14:10:14.012           264.267
                      76     5 Jun 2027 14:10:20.294     5 Jun 2027 14:11:16.405            56.111
                      77     5 Jun 2027 19:12:40.935     5 Jun 2027 19:14:11.894            90.959
                      78     5 Jun 2027 20:48:32.464     5 Jun 2027 20:51:41.991           189.527
                      79     5 Jun 2027 22:25:05.493     5 Jun 2027 22:30:14.966           309.473
                      80     6 Jun 2027 00:01:14.416     6 Jun 2027 00:08:02.725           408.309
                      81     6 Jun 2027 01:36:44.470     6 Jun 2027 01:43:49.079           424.609
                      82     6 Jun 2027 03:16:01.654     6 Jun 2027 03:21:40.036           338.383
                      83     6 Jun 2027 03:22:10.748     6 Jun 2027 03:23:45.663            94.915
                      84     6 Jun 2027 04:42:00.287     6 Jun 2027 04:42:40.138            39.851
                      85     6 Jun 2027 04:53:03.858     6 Jun 2027 04:54:46.818           102.959
                      86     6 Jun 2027 04:54:59.836     6 Jun 2027 04:56:23.173            83.338
                      87     6 Jun 2027 06:16:02.698     6 Jun 2027 06:20:02.634           239.936
                      88     6 Jun 2027 07:51:34.936     6 Jun 2027 07:51:42.745             7.809
                      89     6 Jun 2027 07:52:45.078     6 Jun 2027 07:57:11.552           266.475
                      90     6 Jun 2027 09:27:30.060     6 Jun 2027 09:35:04.102           454.042
                      91     6 Jun 2027 11:04:30.851     6 Jun 2027 11:10:39.180           368.329
                      92     6 Jun 2027 12:42:31.637     6 Jun 2027 12:46:28.155           236.518
                      93     6 Jun 2027 14:15:44.993     6 Jun 2027 14:22:15.676           390.683
                      94     6 Jun 2027 14:22:31.872     6 Jun 2027 14:23:38.093            66.221
                      95     6 Jun 2027 19:24:15.685     6 Jun 2027 19:26:44.417           148.732
                      96     6 Jun 2027 21:00:32.347     6 Jun 2027 21:03:55.530           203.183
                      97     6 Jun 2027 22:37:14.789     6 Jun 2027 22:43:27.863           373.074
                      98     7 Jun 2027 00:13:22.529     7 Jun 2027 00:19:59.126           396.597
                      99     7 Jun 2027 01:49:23.776     7 Jun 2027 01:55:49.304           385.527
                     100     7 Jun 2027 03:28:26.014     7 Jun 2027 03:35:38.341           432.327
                     101     7 Jun 2027 04:53:23.456     7 Jun 2027 04:54:53.581            90.124
                     102     7 Jun 2027 05:05:05.902     7 Jun 2027 05:06:25.173            79.271
                     103     7 Jun 2027 06:27:18.957     7 Jun 2027 06:28:32.765            73.807
                     104     7 Jun 2027 06:29:20.168     7 Jun 2027 06:32:28.296           188.128
                     105     7 Jun 2027 08:02:26.615     7 Jun 2027 08:04:06.716           100.101
                     106     7 Jun 2027 08:04:28.375     7 Jun 2027 08:09:25.220           296.845
                     107     7 Jun 2027 08:10:24.884     7 Jun 2027 08:10:27.867             2.982
                     108     7 Jun 2027 09:39:39.119     7 Jun 2027 09:47:04.774           445.655
                     109     7 Jun 2027 11:16:36.261     7 Jun 2027 11:22:44.957           368.696
                     110     7 Jun 2027 12:54:29.349     7 Jun 2027 12:58:31.126           241.778
                     111     7 Jun 2027 14:27:59.185     7 Jun 2027 14:35:35.979           456.793
                     112     7 Jun 2027 19:36:16.507     7 Jun 2027 19:38:55.292           158.786
                     113     7 Jun 2027 21:12:42.166     7 Jun 2027 21:16:04.577           202.411
                     114     7 Jun 2027 21:17:36.439     7 Jun 2027 21:19:52.679           136.240
                     115     7 Jun 2027 22:49:29.443     7 Jun 2027 22:55:25.347           355.903
                     116     8 Jun 2027 00:25:23.474     8 Jun 2027 00:32:13.310           409.836
                     117     8 Jun 2027 02:01:41.629     8 Jun 2027 02:07:38.940           357.311
                     118     8 Jun 2027 03:40:42.993     8 Jun 2027 03:47:42.371           419.378
                     119     8 Jun 2027 05:04:50.794     8 Jun 2027 05:07:05.425           134.631
                     120     8 Jun 2027 05:17:02.758     8 Jun 2027 05:17:41.020            38.262
                     121     8 Jun 2027 06:39:04.266     8 Jun 2027 06:40:25.078            80.813
                     122     8 Jun 2027 06:41:07.679     8 Jun 2027 06:44:40.590           212.911
                     123     8 Jun 2027 08:13:56.170     8 Jun 2027 08:21:46.716           470.546
                     124     8 Jun 2027 08:22:12.271     8 Jun 2027 08:22:45.166            32.894
                     125     8 Jun 2027 09:51:41.237     8 Jun 2027 09:59:07.089           445.853
                     126     8 Jun 2027 11:28:28.993     8 Jun 2027 11:34:22.876           353.883
                     127     8 Jun 2027 11:34:31.622     8 Jun 2027 11:35:11.198            39.575
                     128     8 Jun 2027 13:06:32.696     8 Jun 2027 13:10:40.324           247.628
                     129     8 Jun 2027 14:40:23.004     8 Jun 2027 14:47:04.515           401.512
                     130     8 Jun 2027 19:48:21.089     8 Jun 2027 19:51:16.094           175.005
                     131     8 Jun 2027 19:52:05.263     8 Jun 2027 19:52:19.484            14.221
                     132     8 Jun 2027 21:24:44.956     8 Jun 2027 21:28:46.918           241.962
                     133     8 Jun 2027 21:29:39.488     8 Jun 2027 21:32:46.970           187.482
                     134     8 Jun 2027 23:01:21.254     8 Jun 2027 23:07:47.227           385.973
                     135     9 Jun 2027 00:36:51.085     9 Jun 2027 00:44:39.549           468.464
                     136     9 Jun 2027 02:14:27.516     9 Jun 2027 02:20:02.024           334.508
                     137     9 Jun 2027 03:52:50.121     9 Jun 2027 03:58:48.783           358.662
                     138     9 Jun 2027 05:16:54.185     9 Jun 2027 05:18:57.351           123.165
                     139     9 Jun 2027 06:52:51.343     9 Jun 2027 06:56:44.951           233.608
                     140     9 Jun 2027 08:26:41.188     9 Jun 2027 08:34:00.436           439.249
                     141     9 Jun 2027 08:34:10.185     9 Jun 2027 08:35:10.992            60.806
                     142     9 Jun 2027 10:03:44.413     9 Jun 2027 10:11:05.147           440.734
                     143     9 Jun 2027 11:40:38.798     9 Jun 2027 11:45:41.982           303.184
                     144     9 Jun 2027 11:45:53.352     9 Jun 2027 11:47:00.351            66.999
                     145     9 Jun 2027 13:17:45.190     9 Jun 2027 13:22:38.559           293.369
                     146     9 Jun 2027 14:52:46.925     9 Jun 2027 14:53:29.945            43.020
                     147     9 Jun 2027 14:54:26.310     9 Jun 2027 14:57:46.406           200.096
                     148     9 Jun 2027 20:00:25.882     9 Jun 2027 20:02:55.711           149.830
                     149     9 Jun 2027 20:03:08.164     9 Jun 2027 20:05:41.746           153.582
                     150     9 Jun 2027 21:36:39.063     9 Jun 2027 21:43:34.314           415.251
                     151     9 Jun 2027 23:13:22.415     9 Jun 2027 23:19:55.459           393.044
                     152    10 Jun 2027 00:48:50.755    10 Jun 2027 00:56:30.107           459.353
                     153    10 Jun 2027 02:27:00.175    10 Jun 2027 02:27:51.891            51.716
                     154    10 Jun 2027 02:28:01.946    10 Jun 2027 02:28:43.961            42.015
                     155    10 Jun 2027 02:28:44.564    10 Jun 2027 02:32:16.585           212.021
                     156    10 Jun 2027 04:05:24.318    10 Jun 2027 04:10:05.552           281.233
                     157    10 Jun 2027 05:28:48.582    10 Jun 2027 05:31:12.815           144.233
                     158    10 Jun 2027 07:05:09.330    10 Jun 2027 07:08:37.193           207.863
                     159    10 Jun 2027 08:38:39.398    10 Jun 2027 08:47:10.458           511.060
                     160    10 Jun 2027 10:16:10.511    10 Jun 2027 10:22:55.199           404.688
                     161    10 Jun 2027 11:53:06.338    10 Jun 2027 11:57:31.404           265.066
                     162    10 Jun 2027 11:57:37.969    10 Jun 2027 11:58:53.703            75.734
                     163    10 Jun 2027 13:29:56.795    10 Jun 2027 13:34:29.251           272.456
                     164    10 Jun 2027 15:07:33.946    10 Jun 2027 15:09:16.727           102.781
                     165    10 Jun 2027 20:12:39.287    10 Jun 2027 20:15:13.093           153.806
                     166    10 Jun 2027 20:16:00.334    10 Jun 2027 20:17:10.927            70.593
                     167    10 Jun 2027 21:48:42.357    10 Jun 2027 21:55:16.656           394.298
                     168    10 Jun 2027 23:25:23.338    10 Jun 2027 23:31:45.836           382.498
                     169    11 Jun 2027 01:00:56.312    11 Jun 2027 01:08:28.781           452.469
                     170    11 Jun 2027 02:38:59.850    11 Jun 2027 02:39:07.801             7.950
                     171    11 Jun 2027 02:39:14.867    11 Jun 2027 02:45:14.919           360.051
                     172    11 Jun 2027 04:17:03.070    11 Jun 2027 04:21:43.955           280.886
                     173    11 Jun 2027 05:40:39.520    11 Jun 2027 05:43:22.297           162.777
                     174    11 Jun 2027 07:17:11.247    11 Jun 2027 07:20:44.982           213.735
                     175    11 Jun 2027 08:51:38.822    11 Jun 2027 08:58:04.477           385.655
                     176    11 Jun 2027 08:58:07.168    11 Jun 2027 08:59:04.908            57.740
                     177    11 Jun 2027 10:28:18.536    11 Jun 2027 10:34:59.576           401.040
                     178    11 Jun 2027 12:05:58.914    11 Jun 2027 12:10:25.069           266.155
                     179    11 Jun 2027 13:41:59.479    11 Jun 2027 13:46:47.828           288.349
                     180    11 Jun 2027 20:24:50.398    11 Jun 2027 20:27:11.337           140.939
                     181    11 Jun 2027 22:00:45.758    11 Jun 2027 22:07:00.338           374.580
                     182    11 Jun 2027 23:37:27.606    11 Jun 2027 23:43:55.249           387.643
                     183    12 Jun 2027 01:12:58.854    12 Jun 2027 01:20:20.438           441.584
                     184    12 Jun 2027 02:51:08.061    12 Jun 2027 02:52:08.110            60.049
                     185    12 Jun 2027 02:52:17.180    12 Jun 2027 02:57:29.243           312.064
                     186    12 Jun 2027 04:29:27.669    12 Jun 2027 04:29:55.328            27.659
                     187    12 Jun 2027 04:30:15.931    12 Jun 2027 04:33:23.406           187.476
                     188    12 Jun 2027 05:52:49.711    12 Jun 2027 05:55:55.475           185.764
                     189    12 Jun 2027 07:29:20.924    12 Jun 2027 07:32:55.390           214.467
                     190    12 Jun 2027 09:04:30.428    12 Jun 2027 09:11:07.340           396.912
                     191    12 Jun 2027 10:40:53.480    12 Jun 2027 10:47:06.204           372.723
                     192    12 Jun 2027 12:18:07.943    12 Jun 2027 12:22:46.116           278.173
                     193    12 Jun 2027 13:54:24.577    12 Jun 2027 13:59:05.639           281.062
                     194    12 Jun 2027 20:37:03.202    12 Jun 2027 20:40:02.222           179.020
                     195    12 Jun 2027 22:12:51.532    12 Jun 2027 22:18:27.995           336.463
                     196    12 Jun 2027 23:49:26.379    12 Jun 2027 23:55:40.563           374.184
                     197    13 Jun 2027 01:24:56.057    13 Jun 2027 01:31:55.861           419.804
                     198    13 Jun 2027 03:03:12.722    13 Jun 2027 03:03:26.775            14.053
                     199    13 Jun 2027 03:04:15.095    13 Jun 2027 03:09:21.683           306.588
                     200    13 Jun 2027 03:10:49.460    13 Jun 2027 03:10:59.200             9.740
                     201    13 Jun 2027 04:41:23.805    13 Jun 2027 04:42:01.884            38.079
                     202    13 Jun 2027 04:42:31.169    13 Jun 2027 04:45:00.454           149.285
                     203    13 Jun 2027 06:05:29.628    13 Jun 2027 06:08:01.813           152.185
                     204    13 Jun 2027 07:41:14.858    13 Jun 2027 07:44:52.462           217.604
                     205    13 Jun 2027 09:16:12.497    13 Jun 2027 09:23:14.793           422.295
                     206    13 Jun 2027 10:52:25.389    13 Jun 2027 10:58:52.288           386.899
                     207    13 Jun 2027 12:30:26.228    13 Jun 2027 12:34:37.029           250.801
                     208    13 Jun 2027 14:06:05.558    13 Jun 2027 14:10:29.729           264.171
                     209    13 Jun 2027 14:10:36.743    13 Jun 2027 14:11:33.574            56.831
                     210    13 Jun 2027 19:12:55.086    13 Jun 2027 19:14:29.413            94.327
                     211    13 Jun 2027 20:48:48.376    13 Jun 2027 20:51:58.160           189.784
                     212    13 Jun 2027 22:25:21.634    13 Jun 2027 22:30:31.755           310.121

Min Duration         107     7 Jun 2027 08:10:24.884     7 Jun 2027 08:10:27.867             2.982
Max Duration          25     2 Jun 2027 08:38:21.838     2 Jun 2027 08:46:54.234           512.396
Mean Duration                                                                              245.177
Total Duration                                                                           51977.575


Russia-To-KinoSat_111403
------------------------
                  Access        Start Time (UTCG)           Stop Time (UTCG)        Duration (sec)
                  ------    ------------------------    ------------------------    --------------
                       1     1 Jun 2027 00:27:08.825     1 Jun 2027 00:27:25.884            17.058
                       2     1 Jun 2027 00:27:35.502     1 Jun 2027 00:34:25.668           410.166
                       3     1 Jun 2027 02:03:53.309     1 Jun 2027 02:09:53.970           360.661
                       4     1 Jun 2027 03:42:41.616     1 Jun 2027 03:49:48.225           426.610
                       5     1 Jun 2027 05:07:03.286     1 Jun 2027 05:09:16.588           133.302
                       6     1 Jun 2027 05:19:16.949     1 Jun 2027 05:19:48.665            31.717
                       7     1 Jun 2027 06:41:13.105     1 Jun 2027 06:42:27.961            74.856
                       8     1 Jun 2027 06:43:15.845     1 Jun 2027 06:46:51.354           215.509
                       9     1 Jun 2027 08:16:01.282     1 Jun 2027 08:23:57.436           476.153
                      10     1 Jun 2027 08:24:21.275     1 Jun 2027 08:24:55.760            34.485
                      11     1 Jun 2027 09:53:50.244     1 Jun 2027 10:01:16.351           446.108
                      12     1 Jun 2027 11:30:34.639     1 Jun 2027 11:36:30.961           356.322
                      13     1 Jun 2027 11:36:38.155     1 Jun 2027 11:37:21.021            42.866
                      14     1 Jun 2027 13:08:42.253     1 Jun 2027 13:12:50.063           247.810
                      15     1 Jun 2027 14:42:33.492     1 Jun 2027 14:49:11.538           398.046
                      16     1 Jun 2027 19:50:30.847     1 Jun 2027 19:54:26.960           236.113
                      17     1 Jun 2027 21:26:54.334     1 Jun 2027 21:31:04.390           250.056
                      18     1 Jun 2027 21:31:44.299     1 Jun 2027 21:34:58.485           194.186
                      19     1 Jun 2027 23:03:29.396     1 Jun 2027 23:10:00.360           390.964
                      20     2 Jun 2027 00:39:00.244     2 Jun 2027 00:46:46.363           466.118
                      21     2 Jun 2027 02:16:38.037     2 Jun 2027 02:18:18.758           100.720
                      22     2 Jun 2027 02:18:39.521     2 Jun 2027 02:22:12.255           212.733
                      23     2 Jun 2027 03:55:00.883     2 Jun 2027 04:00:14.055           313.171
                      24     2 Jun 2027 05:19:02.413     2 Jun 2027 05:21:18.584           136.171
                      25     2 Jun 2027 06:54:59.212     2 Jun 2027 06:58:55.570           236.358
                      26     2 Jun 2027 08:28:49.988     2 Jun 2027 08:36:10.145           440.158
                      27     2 Jun 2027 08:36:20.429     2 Jun 2027 08:37:20.263            59.835
                      28     2 Jun 2027 10:05:56.850     2 Jun 2027 10:13:13.734           436.884
                      29     2 Jun 2027 11:42:59.514     2 Jun 2027 11:47:49.927           290.413
                      30     2 Jun 2027 11:47:56.717     2 Jun 2027 11:49:07.482            70.765
                      31     2 Jun 2027 13:19:56.923     2 Jun 2027 13:24:47.772           290.849
                      32     2 Jun 2027 14:55:00.517     2 Jun 2027 14:55:26.874            26.358
                      33     2 Jun 2027 14:56:39.839     2 Jun 2027 14:59:53.499           193.659
                      34     2 Jun 2027 20:02:36.091     2 Jun 2027 20:05:04.829           148.738
                      35     2 Jun 2027 20:05:21.130     2 Jun 2027 20:07:58.999           157.869
                      36     2 Jun 2027 21:38:48.054     2 Jun 2027 21:45:45.244           417.190
                      37     2 Jun 2027 23:15:33.096     2 Jun 2027 23:22:02.556           389.460
                      38     3 Jun 2027 00:50:59.992     3 Jun 2027 00:58:39.119           459.127
                      39     3 Jun 2027 02:29:15.458     3 Jun 2027 02:29:59.521            44.064
                      40     3 Jun 2027 02:30:06.271     3 Jun 2027 02:30:51.753            45.482
                      41     3 Jun 2027 02:30:53.594     3 Jun 2027 02:34:44.513           230.919
                      42     3 Jun 2027 04:07:35.467     3 Jun 2027 04:12:14.244           278.777
                      43     3 Jun 2027 05:30:56.811     3 Jun 2027 05:33:23.424           146.613
                      44     3 Jun 2027 07:07:21.121     3 Jun 2027 07:10:47.081           205.960
                      45     3 Jun 2027 08:41:02.190     3 Jun 2027 08:48:18.036           435.846
                      46     3 Jun 2027 08:48:18.215     3 Jun 2027 08:49:19.698            61.483
                      47     3 Jun 2027 10:18:23.127     3 Jun 2027 10:25:04.982           401.855
                      48     3 Jun 2027 11:55:20.121     3 Jun 2027 11:59:40.797           260.676
                      49     3 Jun 2027 11:59:43.485     3 Jun 2027 12:00:53.361            69.877
                      50     3 Jun 2027 13:32:10.582     3 Jun 2027 13:36:38.800           268.218
                      51     3 Jun 2027 15:09:50.627     3 Jun 2027 15:11:27.374            96.746
                      52     3 Jun 2027 20:14:53.324     3 Jun 2027 20:17:11.728           138.404
                      53     3 Jun 2027 20:18:14.247     3 Jun 2027 20:19:12.103            57.857
                      54     3 Jun 2027 21:50:52.755     3 Jun 2027 21:57:25.497           392.742
                      55     3 Jun 2027 23:27:34.322     3 Jun 2027 23:33:55.709           381.387
                      56     4 Jun 2027 01:03:07.396     4 Jun 2027 01:10:39.048           451.652
                      57     4 Jun 2027 02:41:08.991     4 Jun 2027 02:41:14.483             5.491
                      58     4 Jun 2027 02:41:35.103     4 Jun 2027 02:47:24.581           349.478
                      59     4 Jun 2027 04:19:50.151     4 Jun 2027 04:23:50.546           240.395
                      60     4 Jun 2027 05:42:44.205     4 Jun 2027 05:45:31.301           167.096
                      61     4 Jun 2027 07:19:23.071     4 Jun 2027 07:22:54.571           211.500
                      62     4 Jun 2027 08:54:22.640     4 Jun 2027 09:00:13.776           351.137
                      63     4 Jun 2027 09:00:17.726     4 Jun 2027 09:01:15.482            57.757
                      64     4 Jun 2027 10:30:30.802     4 Jun 2027 10:37:10.272           399.470
                      65     4 Jun 2027 12:08:14.636     4 Jun 2027 12:12:38.133           263.498
                      66     4 Jun 2027 13:44:20.829     4 Jun 2027 13:48:54.135           273.306
                      67     4 Jun 2027 20:26:58.692     4 Jun 2027 20:29:35.225           156.534
                      68     4 Jun 2027 22:02:55.581     4 Jun 2027 22:09:05.150           369.569
                      69     4 Jun 2027 23:39:38.187     4 Jun 2027 23:46:02.686           384.499
                      70     5 Jun 2027 01:15:08.844     5 Jun 2027 01:22:24.826           435.982
                      71     5 Jun 2027 02:53:17.733     5 Jun 2027 02:54:19.687            61.954
                      72     5 Jun 2027 02:54:26.746     5 Jun 2027 02:59:32.910           306.165
                      73     5 Jun 2027 04:31:36.355     5 Jun 2027 04:32:07.491            31.136
                      74     5 Jun 2027 04:32:25.911     5 Jun 2027 04:35:27.835           181.923
                      75     5 Jun 2027 05:54:58.737     5 Jun 2027 05:58:06.350           187.613
                      76     5 Jun 2027 07:31:30.525     5 Jun 2027 07:35:02.924           212.399
                      77     5 Jun 2027 09:06:40.714     5 Jun 2027 09:13:17.190           396.476
                      78     5 Jun 2027 10:43:04.792     5 Jun 2027 10:49:14.515           369.723
                      79     5 Jun 2027 12:20:21.032     5 Jun 2027 12:24:57.124           276.092
                      80     5 Jun 2027 13:56:34.980     5 Jun 2027 14:01:17.175           282.196
                      81     5 Jun 2027 20:39:08.887     5 Jun 2027 20:42:15.394           186.507
                      82     5 Jun 2027 22:15:00.840     5 Jun 2027 22:20:38.923           338.082
                      83     5 Jun 2027 23:51:35.583     5 Jun 2027 23:57:50.586           375.003
                      84     6 Jun 2027 01:27:06.514     6 Jun 2027 01:34:03.599           417.084
                      85     6 Jun 2027 03:05:23.398     6 Jun 2027 03:05:27.392             3.994
                      86     6 Jun 2027 03:06:24.340     6 Jun 2027 03:11:32.455           308.116
                      87     6 Jun 2027 03:12:57.099     6 Jun 2027 03:13:20.695            23.597
                      88     6 Jun 2027 04:43:33.202     6 Jun 2027 04:44:12.093            38.891
                      89     6 Jun 2027 04:44:34.471     6 Jun 2027 04:47:05.986           151.515
                      90     6 Jun 2027 06:07:28.665     6 Jun 2027 06:10:11.574           162.909
                      91     6 Jun 2027 07:43:23.434     6 Jun 2027 07:47:25.635           242.201
                      92     6 Jun 2027 09:18:19.424     6 Jun 2027 09:25:25.087           425.663
                      93     6 Jun 2027 10:54:38.635     6 Jun 2027 11:01:03.169           384.534
                      94     6 Jun 2027 12:32:54.024     6 Jun 2027 12:36:46.574           232.550
                      95     6 Jun 2027 14:08:14.720     6 Jun 2027 14:12:25.608           250.889
                      96     6 Jun 2027 14:12:46.611     6 Jun 2027 14:13:45.119            58.508
                      97     6 Jun 2027 19:14:57.959     6 Jun 2027 19:16:43.372           105.413
                      98     6 Jun 2027 20:50:57.003     6 Jun 2027 20:54:17.178           200.175
                      99     6 Jun 2027 22:27:31.097     6 Jun 2027 22:32:43.410           312.313
                     100     7 Jun 2027 00:03:41.381     7 Jun 2027 00:10:28.163           406.782
                     101     7 Jun 2027 01:39:35.802     7 Jun 2027 01:46:19.386           403.585
                     102     7 Jun 2027 03:18:27.994     7 Jun 2027 03:24:00.059           332.065
                     103     7 Jun 2027 03:24:30.438     7 Jun 2027 03:26:05.123            94.686
                     104     7 Jun 2027 04:44:16.957     7 Jun 2027 04:45:08.633            51.676
                     105     7 Jun 2027 04:55:29.200     7 Jun 2027 04:57:10.015           100.816
                     106     7 Jun 2027 04:58:06.867     7 Jun 2027 04:58:36.932            30.065
                     107     7 Jun 2027 06:18:05.978     7 Jun 2027 06:22:43.449           277.470
                     108     7 Jun 2027 07:53:41.575     7 Jun 2027 07:54:21.790            40.215
                     109     7 Jun 2027 07:55:07.811     7 Jun 2027 07:59:41.124           273.313
                     110     7 Jun 2027 09:29:52.807     7 Jun 2027 09:37:28.894           456.088
                     111     7 Jun 2027 11:06:58.613     7 Jun 2027 11:13:20.238           381.625
                     112     7 Jun 2027 12:44:56.941     7 Jun 2027 12:48:52.353           235.411
                     113     7 Jun 2027 14:18:05.721     7 Jun 2027 14:24:38.467           392.747
                     114     7 Jun 2027 14:25:00.275     7 Jun 2027 14:26:02.304            62.029
                     115     7 Jun 2027 19:26:40.619     7 Jun 2027 19:29:17.960           157.341
                     116     7 Jun 2027 21:02:59.297     7 Jun 2027 21:06:26.704           207.407
                     117     7 Jun 2027 22:39:40.135     7 Jun 2027 22:45:53.174           373.039
                     118     8 Jun 2027 00:15:46.576     8 Jun 2027 00:22:26.124           399.549
                     119     8 Jun 2027 01:51:51.179     8 Jun 2027 01:58:05.141           373.963
                     120     8 Jun 2027 03:30:57.499     8 Jun 2027 03:38:04.433           426.934
                     121     8 Jun 2027 04:55:48.995     8 Jun 2027 04:57:22.091            93.096
                     122     8 Jun 2027 05:07:31.795     8 Jun 2027 05:08:38.563            66.768
                     123     8 Jun 2027 06:29:45.469     8 Jun 2027 06:30:55.341            69.872
                     124     8 Jun 2027 06:31:45.708     8 Jun 2027 06:34:57.257           191.549
                     125     8 Jun 2027 08:04:47.982     8 Jun 2027 08:06:32.079           104.098
                     126     8 Jun 2027 08:06:52.248     8 Jun 2027 08:11:53.525           301.276
                     127     8 Jun 2027 08:12:44.685     8 Jun 2027 08:13:04.965            20.281
                     128     8 Jun 2027 09:42:12.390     8 Jun 2027 09:49:30.874           438.484
                     129     8 Jun 2027 11:19:00.228     8 Jun 2027 11:25:27.280           387.052
                     130     8 Jun 2027 12:56:57.320     8 Jun 2027 13:00:55.967           238.647
                     131     8 Jun 2027 14:30:33.128     8 Jun 2027 14:38:01.488           448.360
                     132     8 Jun 2027 19:38:41.328     8 Jun 2027 19:41:23.936           162.607
                     133     8 Jun 2027 21:15:11.228     8 Jun 2027 21:18:32.736           201.508
                     134     8 Jun 2027 21:19:56.925     8 Jun 2027 21:22:32.611           155.686
                     135     8 Jun 2027 22:51:53.945     8 Jun 2027 22:57:51.122           357.177
                     136     9 Jun 2027 00:27:24.649     9 Jun 2027 00:27:42.676            18.027
                     137     9 Jun 2027 00:27:51.894     9 Jun 2027 00:34:44.772           412.878
                     138     9 Jun 2027 02:04:10.042     9 Jun 2027 02:05:20.555            70.513
                     139     9 Jun 2027 02:05:21.659     9 Jun 2027 02:06:22.332            60.673
                     140     9 Jun 2027 02:06:23.584     9 Jun 2027 02:10:10.679           227.095
                     141     9 Jun 2027 03:42:58.314     9 Jun 2027 03:50:03.439           425.126
                     142     9 Jun 2027 05:07:20.305     9 Jun 2027 05:09:32.792           132.487
                     143     9 Jun 2027 05:19:33.414     9 Jun 2027 05:20:04.982            31.568
                     144     9 Jun 2027 06:41:28.402     9 Jun 2027 06:42:42.399            73.997
                     145     9 Jun 2027 06:43:31.485     9 Jun 2027 06:47:08.305           216.821
                     146     9 Jun 2027 08:16:16.623     9 Jun 2027 08:24:14.516           477.894
                     147     9 Jun 2027 08:24:37.263     9 Jun 2027 08:25:12.737            35.474
                     148     9 Jun 2027 09:54:06.509     9 Jun 2027 10:01:32.453           445.944
                     149     9 Jun 2027 11:30:51.010     9 Jun 2027 11:36:46.597           355.587
                     150     9 Jun 2027 11:36:51.879     9 Jun 2027 11:37:37.070            45.190
                     151     9 Jun 2027 13:08:59.586     9 Jun 2027 13:13:05.696           246.109
                     152     9 Jun 2027 14:42:50.453     9 Jun 2027 14:49:07.243           376.790
                     153     9 Jun 2027 19:50:47.189     9 Jun 2027 19:53:39.691           172.503
