DATA_Files/Russia2Constellation/AreaTarget-Russia-To-Satellite-KinoSat_11_plane.txt

                                                                                                                                                                                                                                                                                           10 May 2023 22:22:32
Civil Air Patrol Use Only
AreaTarget-Russia-To-Satellite-KinoSat_111101, Satellite-KinoSat_111102, Satellite-KinoSat_111103, Satellite-KinoSat_111104, Satellite-KinoSat_111105, Satellite-KinoSat_111106, Satellite-KinoSat_111107, Satellite-KinoSat_111108, Satellite-KinoSat_111109, Satellite-KinoSat_111110:  Access Summary Report


Russia-To-KinoSat_111101
------------------------
                  Access        Start Time (UTCG)           Stop Time (UTCG)        Duration (sec)
                  ------    ------------------------    ------------------------    --------------
                       1     1 Jun 2027 00:58:52.364     1 Jun 2027 00:58:57.054             4.690
                       2     1 Jun 2027 00:59:13.786     1 Jun 2027 01:04:44.801           331.015
                       3     1 Jun 2027 02:37:35.559     1 Jun 2027 02:44:15.290           399.731
                       4     1 Jun 2027 04:01:40.967     1 Jun 2027 04:03:45.417           124.449
                       5     1 Jun 2027 05:37:38.356     1 Jun 2027 05:41:32.565           234.209
                       6     1 Jun 2027 07:11:28.093     1 Jun 2027 07:18:47.771           439.678
                       7     1 Jun 2027 07:18:57.940     1 Jun 2027 07:19:57.770            59.829
                       8     1 Jun 2027 08:48:31.629     1 Jun 2027 08:55:51.469           439.840
                       9     1 Jun 2027 10:25:26.335     1 Jun 2027 10:30:28.495           302.160
                      10     1 Jun 2027 10:30:39.117     1 Jun 2027 10:31:46.178            67.061
                      11     1 Jun 2027 12:02:32.463     1 Jun 2027 12:07:25.302           292.839
                      12     1 Jun 2027 13:37:35.149     1 Jun 2027 13:38:17.510            42.362
                      13     1 Jun 2027 13:39:13.558     1 Jun 2027 13:42:32.642           199.084
                      14     1 Jun 2027 18:45:12.644     1 Jun 2027 18:47:42.079           149.435
                      15     1 Jun 2027 18:47:53.644     1 Jun 2027 18:50:28.477           154.833
                      16     1 Jun 2027 20:21:26.403     1 Jun 2027 20:28:21.110           414.707
                      17     1 Jun 2027 21:58:08.942     1 Jun 2027 22:04:42.431           393.489
                      18     1 Jun 2027 23:33:37.823     1 Jun 2027 23:41:17.060           459.237
                      19     2 Jun 2027 01:11:45.984     2 Jun 2027 01:12:39.443            53.459
                      20     2 Jun 2027 01:12:49.152     2 Jun 2027 01:17:03.302           254.150
                      21     2 Jun 2027 02:50:11.173     2 Jun 2027 02:54:52.439           281.266
                      22     2 Jun 2027 04:13:34.999     2 Jun 2027 04:16:00.247           145.248
                      23     2 Jun 2027 05:49:57.045     2 Jun 2027 05:53:24.264           207.218
                      24     2 Jun 2027 07:23:26.248     2 Jun 2027 07:31:57.074           510.826
                      25     2 Jun 2027 09:00:57.990     2 Jun 2027 09:07:42.006           404.015
                      26     2 Jun 2027 10:37:53.123     2 Jun 2027 10:42:16.590           263.467
                      27     2 Jun 2027 10:42:21.756     2 Jun 2027 10:43:39.982            78.226
                      28     2 Jun 2027 12:14:43.720     2 Jun 2027 12:19:16.265           272.545
                      29     2 Jun 2027 13:52:20.662     2 Jun 2027 13:54:04.577           103.915
                      30     2 Jun 2027 18:57:26.092     2 Jun 2027 19:00:00.107           154.016
                      31     2 Jun 2027 19:00:46.933     2 Jun 2027 19:01:58.949            72.016
                      32     2 Jun 2027 20:33:28.804     2 Jun 2027 20:40:03.926           395.122
                      33     2 Jun 2027 22:10:10.112     2 Jun 2027 22:16:32.633           382.521
                      34     2 Jun 2027 23:45:42.570     2 Jun 2027 23:53:15.285           452.716
                      35     3 Jun 2027 01:23:46.875     3 Jun 2027 01:24:14.933            28.058
                      36     3 Jun 2027 01:24:17.313     3 Jun 2027 01:30:01.641           344.328
                      37     3 Jun 2027 03:01:49.768     3 Jun 2027 03:06:31.223           281.454
                      38     3 Jun 2027 04:25:25.966     3 Jun 2027 04:28:09.071           163.105
                      39     3 Jun 2027 06:01:58.772     3 Jun 2027 06:05:31.598           212.825
                      40     3 Jun 2027 07:36:27.869     3 Jun 2027 07:42:51.254           383.384
                      41     3 Jun 2027 07:42:54.172     3 Jun 2027 07:43:52.280            58.108
                      42     3 Jun 2027 09:13:05.376     3 Jun 2027 09:19:46.815           401.438
                      43     3 Jun 2027 10:50:46.990     3 Jun 2027 10:55:14.037           267.047
                      44     3 Jun 2027 12:26:46.180     3 Jun 2027 12:31:33.553           287.373
                      45     3 Jun 2027 19:09:37.055     3 Jun 2027 19:11:56.575           139.520
                      46     3 Jun 2027 20:45:32.234     3 Jun 2027 20:51:47.588           375.354
                      47     3 Jun 2027 22:22:13.727     3 Jun 2027 22:28:42.125           388.398
                      48     3 Jun 2027 23:57:45.137     4 Jun 2027 00:05:07.729           442.592
                      49     4 Jun 2027 01:35:54.697     4 Jun 2027 01:36:55.058            60.361
                      50     4 Jun 2027 01:37:03.758     4 Jun 2027 01:42:15.916           312.158
                      51     4 Jun 2027 03:14:15.354     4 Jun 2027 03:14:41.326            25.972
                      52     4 Jun 2027 03:15:02.886     4 Jun 2027 03:18:25.019           202.133
                      53     4 Jun 2027 04:37:36.302     4 Jun 2027 04:40:42.641           186.339
                      54     4 Jun 2027 06:14:07.853     4 Jun 2027 06:17:41.213           213.360
                      55     4 Jun 2027 07:49:16.995     4 Jun 2027 07:55:54.097           397.102
                      56     4 Jun 2027 09:25:40.533     4 Jun 2027 09:31:52.705           372.172
                      57     4 Jun 2027 11:02:54.487     4 Jun 2027 11:07:33.064           278.577
                      58     4 Jun 2027 12:39:13.306     4 Jun 2027 12:43:53.874           280.568
                      59     4 Jun 2027 19:21:48.695     4 Jun 2027 19:24:49.006           180.311
                      60     4 Jun 2027 20:57:37.918     4 Jun 2027 21:03:14.783           336.864
                      61     4 Jun 2027 22:34:18.285     4 Jun 2027 22:40:26.995           368.710
                      62     5 Jun 2027 00:09:42.693     5 Jun 2027 00:16:42.747           420.055
                      63     5 Jun 2027 01:47:59.274     5 Jun 2027 01:48:15.777            16.503
                      64     5 Jun 2027 01:48:27.382     5 Jun 2027 01:48:39.138            11.756
                      65     5 Jun 2027 01:49:01.815     5 Jun 2027 01:54:07.532           305.717
                      66     5 Jun 2027 01:55:36.222     5 Jun 2027 01:55:45.187             8.966
                      67     5 Jun 2027 03:26:10.542     5 Jun 2027 03:26:48.281            37.739
                      68     5 Jun 2027 03:27:18.061     5 Jun 2027 03:29:46.606           148.545
                      69     5 Jun 2027 04:50:13.206     5 Jun 2027 04:52:48.505           155.298
                      70     5 Jun 2027 06:26:01.081     5 Jun 2027 06:30:01.113           240.032
                      71     5 Jun 2027 08:00:58.658     5 Jun 2027 08:08:01.498           422.840
                      72     5 Jun 2027 09:37:12.311     5 Jun 2027 09:43:39.528           387.217
                      73     5 Jun 2027 11:15:32.424     5 Jun 2027 11:19:23.037           230.613
                      74     5 Jun 2027 12:50:51.925     5 Jun 2027 12:55:15.363           263.438
                      75     5 Jun 2027 12:55:23.379     5 Jun 2027 12:56:20.920            57.540
                      76     5 Jun 2027 17:57:43.458     5 Jun 2027 17:59:15.133            91.675
                      77     5 Jun 2027 19:33:35.327     5 Jun 2027 19:36:44.746           189.419
                      78     5 Jun 2027 21:10:08.377     5 Jun 2027 21:15:17.929           309.552
                      79     5 Jun 2027 22:46:17.206     5 Jun 2027 22:53:05.849           408.643
                      80     6 Jun 2027 00:21:46.304     6 Jun 2027 00:28:51.882           425.578
                      81     6 Jun 2027 02:01:04.462     6 Jun 2027 02:06:42.635           338.173
                      82     6 Jun 2027 02:07:13.429     6 Jun 2027 02:08:43.420            89.991
                      83     6 Jun 2027 03:26:58.821     6 Jun 2027 03:27:44.258            45.437
                      84     6 Jun 2027 03:38:06.656     6 Jun 2027 03:39:49.285           102.629
                      85     6 Jun 2027 03:40:03.473     6 Jun 2027 03:41:25.836            82.363
                      86     6 Jun 2027 05:01:03.512     6 Jun 2027 05:05:07.601           244.089
                      87     6 Jun 2027 06:36:23.265     6 Jun 2027 06:36:48.903            25.637
                      88     6 Jun 2027 06:37:46.036     6 Jun 2027 06:42:16.577           270.541
                      89     6 Jun 2027 08:12:31.678     6 Jun 2027 08:20:06.479           454.801
                      90     6 Jun 2027 09:49:34.065     6 Jun 2027 09:55:41.656           367.591
                      91     6 Jun 2027 11:27:33.728     6 Jun 2027 11:31:30.680           236.951
                      92     6 Jun 2027 13:00:45.107     6 Jun 2027 13:06:56.978           371.871
                      93     6 Jun 2027 13:07:01.926     6 Jun 2027 13:08:40.266            98.340
                      94     6 Jun 2027 18:09:18.420     6 Jun 2027 18:11:47.400           148.980
                      95     6 Jun 2027 19:45:35.043     6 Jun 2027 19:48:58.015           202.972
                      96     6 Jun 2027 21:22:17.515     6 Jun 2027 21:28:30.327           372.812
                      97     6 Jun 2027 22:58:25.406     6 Jun 2027 23:05:02.054           396.648
                      98     7 Jun 2027 00:34:26.359     7 Jun 2027 00:40:52.250           385.892
                      99     7 Jun 2027 02:13:28.708     7 Jun 2027 02:20:41.024           432.316
                     100     7 Jun 2027 03:38:26.194     7 Jun 2027 03:39:56.651            90.457
                     101     7 Jun 2027 03:50:08.584     7 Jun 2027 03:51:27.693            79.109
                     102     7 Jun 2027 05:12:21.526     7 Jun 2027 05:13:34.038            72.512
                     103     7 Jun 2027 05:14:23.210     7 Jun 2027 05:17:32.711           189.501
                     104     7 Jun 2027 06:47:27.814     7 Jun 2027 06:48:57.293            89.479
                     105     7 Jun 2027 06:49:29.928     7 Jun 2027 06:54:29.462           299.534
                     106     7 Jun 2027 06:55:22.522     7 Jun 2027 06:55:39.870            17.348
                     107     7 Jun 2027 08:24:43.304     7 Jun 2027 08:32:07.591           444.287
                     108     7 Jun 2027 10:01:37.439     7 Jun 2027 10:07:47.513           370.074
                     109     7 Jun 2027 11:39:33.628     7 Jun 2027 11:43:32.840           239.212
                     110     7 Jun 2027 13:13:07.522     7 Jun 2027 13:20:38.448           450.925
                     111     7 Jun 2027 18:21:19.169     7 Jun 2027 18:23:57.872           158.703
                     112     7 Jun 2027 19:57:44.681     7 Jun 2027 20:01:07.353           202.671
                     113     7 Jun 2027 20:02:38.555     7 Jun 2027 20:04:57.586           139.031
                     114     7 Jun 2027 21:34:32.134     7 Jun 2027 21:40:27.629           355.495
                     115     7 Jun 2027 23:10:25.908     7 Jun 2027 23:17:16.199           410.291
                     116     8 Jun 2027 00:46:44.190     8 Jun 2027 00:52:42.023           357.833
                     117     8 Jun 2027 02:25:45.627     8 Jun 2027 02:32:44.170           418.543
                     118     8 Jun 2027 03:49:54.873     8 Jun 2027 03:52:09.370           134.498
                     119     8 Jun 2027 04:02:05.300     8 Jun 2027 04:02:43.606            38.306
                     120     8 Jun 2027 05:24:06.918     8 Jun 2027 05:25:27.464            80.546
                     121     8 Jun 2027 05:26:09.535     8 Jun 2027 05:29:43.928           214.393
                     122     8 Jun 2027 06:58:57.079     8 Jun 2027 07:06:49.987           472.908
                     123     8 Jun 2027 07:07:14.361     8 Jun 2027 07:07:48.523            34.163
                     124     8 Jun 2027 08:36:43.682     8 Jun 2027 08:44:09.397           445.714
                     125     8 Jun 2027 10:13:28.843     8 Jun 2027 10:19:24.463           355.620
                     126     8 Jun 2027 10:19:31.981     8 Jun 2027 10:20:14.064            42.083
                     127     8 Jun 2027 11:51:34.339     8 Jun 2027 11:55:43.111           248.773
                     128     8 Jun 2027 13:25:25.484     8 Jun 2027 13:32:05.676           400.192
                     129     8 Jun 2027 18:33:23.535     8 Jun 2027 18:36:18.973           175.438
                     130     8 Jun 2027 20:09:47.521     8 Jun 2027 20:13:49.752           242.231
                     131     8 Jun 2027 20:14:36.970     8 Jun 2027 20:17:49.976           193.006
                     132     8 Jun 2027 21:46:24.034     8 Jun 2027 21:52:49.919           385.885
                     133     8 Jun 2027 23:21:53.836     8 Jun 2027 23:29:41.161           467.325
                     134     9 Jun 2027 00:59:08.143     9 Jun 2027 00:59:11.698             3.555
                     135     9 Jun 2027 00:59:29.800     9 Jun 2027 01:05:04.738           334.938
                     136     9 Jun 2027 02:37:52.529     9 Jun 2027 02:44:29.551           397.022
                     137     9 Jun 2027 04:01:56.026     9 Jun 2027 04:04:10.644           134.618
                     138     9 Jun 2027 05:37:54.063     9 Jun 2027 05:41:48.262           234.199
                     139     9 Jun 2027 07:11:43.293     9 Jun 2027 07:19:03.205           439.913
                     140     9 Jun 2027 07:19:13.381     9 Jun 2027 07:20:13.135            59.754
                     141     9 Jun 2027 08:48:47.906     9 Jun 2027 08:56:06.644           438.738
                     142     9 Jun 2027 10:25:46.974     9 Jun 2027 10:30:43.674           296.700
                     143     9 Jun 2027 10:30:51.289     9 Jun 2027 10:32:01.063            69.774
                     144     9 Jun 2027 12:02:48.289     9 Jun 2027 12:07:40.658           292.368
                     145     9 Jun 2027 13:37:52.068     9 Jun 2027 13:38:33.538            41.470
                     146     9 Jun 2027 13:39:30.475     9 Jun 2027 13:42:47.595           197.119
                     147     9 Jun 2027 18:45:28.243     9 Jun 2027 18:47:58.213           149.970
                     148     9 Jun 2027 18:48:10.713     9 Jun 2027 18:50:44.461           153.747
                     149     9 Jun 2027 20:21:41.624     9 Jun 2027 20:28:36.981           415.357
                     150     9 Jun 2027 21:58:24.592     9 Jun 2027 22:04:57.631           393.040
                     151     9 Jun 2027 23:33:53.286     9 Jun 2027 23:41:32.419           459.133
                     152    10 Jun 2027 01:12:01.984    10 Jun 2027 01:12:54.405            52.421
                     153    10 Jun 2027 01:13:04.394    10 Jun 2027 01:17:18.996           254.603
                     154    10 Jun 2027 02:50:26.674    10 Jun 2027 02:55:07.712           281.038
                     155    10 Jun 2027 04:13:50.347    10 Jun 2027 04:16:15.973           145.626
                     156    10 Jun 2027 05:50:13.170    10 Jun 2027 05:53:39.811           206.641
                     157    10 Jun 2027 07:23:41.449    10 Jun 2027 07:32:12.473           511.024
                     158    10 Jun 2027 09:01:14.934    10 Jun 2027 09:07:57.544           402.610
                     159    10 Jun 2027 10:38:08.726    10 Jun 2027 10:42:31.930           263.204
                     160    10 Jun 2027 10:42:36.554    10 Jun 2027 10:43:55.087            78.533
                     161    10 Jun 2027 12:14:59.900    10 Jun 2027 12:19:31.705           271.805
                     162    10 Jun 2027 13:52:36.194    10 Jun 2027 13:54:20.626           104.432
                     163    10 Jun 2027 18:57:41.549    10 Jun 2027 19:00:15.275           153.726
                     164    10 Jun 2027 19:01:02.722    10 Jun 2027 19:02:12.310            69.588
                     165    10 Jun 2027 20:33:44.488    10 Jun 2027 20:40:18.714           394.227
                     166    10 Jun 2027 22:10:25.603    10 Jun 2027 22:16:48.112           382.509
                     167    10 Jun 2027 23:45:58.210    10 Jun 2027 23:53:31.372           453.162
                     168    11 Jun 2027 01:24:02.228    11 Jun 2027 01:30:17.482           375.254
                     169    11 Jun 2027 03:02:05.305    11 Jun 2027 03:06:45.391           280.086
                     170    11 Jun 2027 04:25:39.574    11 Jun 2027 04:28:24.460           164.887
                     171    11 Jun 2027 06:02:14.625    11 Jun 2027 06:05:47.067           212.442
                     172    11 Jun 2027 07:36:57.425    11 Jun 2027 07:43:06.555           369.130
                     173    11 Jun 2027 07:43:10.057    11 Jun 2027 07:44:07.984            57.928
                     174    11 Jun 2027 09:13:21.165    11 Jun 2027 09:20:02.548           401.383
                     175    11 Jun 2027 10:51:03.737    11 Jun 2027 10:55:30.061           266.324
                     176    11 Jun 2027 12:27:02.111    11 Jun 2027 12:31:48.337           286.226
                     177    11 Jun 2027 19:09:52.622    11 Jun 2027 19:12:13.615           140.993
                     178    11 Jun 2027 20:45:47.832    11 Jun 2027 20:52:01.352           373.519
                     179    11 Jun 2027 22:22:29.461    11 Jun 2027 22:28:57.130           387.669
                     180    11 Jun 2027 23:58:00.720    12 Jun 2027 00:05:22.125           441.405
                     181    12 Jun 2027 01:36:10.201    12 Jun 2027 01:37:10.360            60.160
                     182    12 Jun 2027 01:37:19.293    12 Jun 2027 01:42:31.314           312.022
                     183    12 Jun 2027 03:14:30.006    12 Jun 2027 03:14:57.331            27.324
                     184    12 Jun 2027 03:15:18.134    12 Jun 2027 03:18:25.377           187.243
                     185    12 Jun 2027 04:37:51.551    12 Jun 2027 04:40:58.412           186.861
                     186    12 Jun 2027 06:14:23.409    12 Jun 2027 06:17:56.314           212.905
                     187    12 Jun 2027 07:49:32.705    12 Jun 2027 07:56:09.689           396.984
                     188    12 Jun 2027 09:25:57.026    12 Jun 2027 09:32:07.911           370.886
                     189    12 Jun 2027 11:03:10.140    12 Jun 2027 11:07:48.762           278.622
                     190    12 Jun 2027 12:39:28.350    12 Jun 2027 12:44:09.755           281.405
                     191    12 Jun 2027 19:22:05.154    12 Jun 2027 19:25:04.306           179.152
                     192    12 Jun 2027 20:57:53.514    12 Jun 2027 21:03:29.966           336.452
                     193    12 Jun 2027 22:34:33.732    12 Jun 2027 22:40:42.681           368.949
                     194    13 Jun 2027 00:09:58.109    13 Jun 2027 00:16:57.776           419.668
                     195    13 Jun 2027 01:48:14.719    13 Jun 2027 01:48:30.018            15.300
                     196    13 Jun 2027 01:49:17.197    13 Jun 2027 01:54:24.069           306.872
                     197    13 Jun 2027 01:55:51.317    13 Jun 2027 01:56:01.953            10.636
                     198    13 Jun 2027 03:26:25.896    13 Jun 2027 03:27:03.873            37.977
                     199    13 Jun 2027 03:27:33.257    13 Jun 2027 03:30:02.537           149.280
                     200    13 Jun 2027 04:50:27.684    13 Jun 2027 04:53:04.058           156.374
                     201    13 Jun 2027 06:26:16.288    13 Jun 2027 06:30:17.578           241.291
                     202    13 Jun 2027 08:01:13.588    13 Jun 2027 08:08:16.959           423.371
                     203    13 Jun 2027 09:37:28.703    13 Jun 2027 09:43:55.294           386.592
                     204    13 Jun 2027 11:15:47.628    13 Jun 2027 11:19:38.490           230.862
                     205    13 Jun 2027 12:51:07.211    13 Jun 2027 12:55:16.482           249.271
                     206    13 Jun 2027 12:55:25.026    13 Jun 2027 12:56:36.824            71.798
                     207    13 Jun 2027 17:57:57.613    13 Jun 2027 17:59:31.320            93.707
                     208    13 Jun 2027 19:33:50.512    13 Jun 2027 19:37:00.121           189.609
                     209    13 Jun 2027 21:10:23.673    13 Jun 2027 21:15:33.853           310.180
                     210    13 Jun 2027 22:46:32.758    13 Jun 2027 22:53:21.100           408.343

Min Duration         134     9 Jun 2027 00:59:08.143     9 Jun 2027 00:59:11.698             3.555
Max Duration         157    10 Jun 2027 07:23:41.449    10 Jun 2027 07:32:12.473           511.024
Mean Duration                                                                              246.839
Total Duration                                                                           51836.133


Russia-To-KinoSat_111102
------------------------
                  Access        Start Time (UTCG)           Stop Time (UTCG)        Duration (sec)
                  ------    ------------------------    ------------------------    --------------
                       1     1 Jun 2027 00:48:56.080     1 Jun 2027 00:54:57.676           361.596
                       2     1 Jun 2027 02:27:45.047     1 Jun 2027 02:34:50.538           425.491
                       3     1 Jun 2027 03:52:07.671     1 Jun 2027 03:54:17.110           129.439
                       4     1 Jun 2027 04:04:20.320     1 Jun 2027 04:04:51.998            31.678
                       5     1 Jun 2027 05:26:14.612     1 Jun 2027 05:27:28.185            73.574
                       6     1 Jun 2027 05:28:17.728     1 Jun 2027 05:31:57.600           219.872
                       7     1 Jun 2027 07:01:03.107     1 Jun 2027 07:09:02.195           479.088
                       8     1 Jun 2027 07:09:23.615     1 Jun 2027 07:10:06.720            43.105
                       9     1 Jun 2027 08:38:53.545     1 Jun 2027 08:46:18.996           445.451
                      10     1 Jun 2027 10:15:38.265     1 Jun 2027 10:21:31.197           352.932
                      11     1 Jun 2027 10:21:37.526     1 Jun 2027 10:22:22.750            45.223
                      12     1 Jun 2027 11:53:46.844     1 Jun 2027 11:57:52.622           245.778
                      13     1 Jun 2027 13:27:38.173     1 Jun 2027 13:33:54.099           375.926
                      14     1 Jun 2027 18:35:34.099     1 Jun 2027 18:38:27.058           172.959
                      15     1 Jun 2027 18:39:13.389     1 Jun 2027 18:39:30.954            17.565
                      16     1 Jun 2027 20:11:57.631     1 Jun 2027 20:16:10.138           252.508
                      17     1 Jun 2027 20:16:47.982     1 Jun 2027 20:20:01.549           193.567
                      18     1 Jun 2027 21:48:32.650     1 Jun 2027 21:55:04.488           391.838
                      19     1 Jun 2027 23:24:03.484     1 Jun 2027 23:31:48.495           465.011
                      20     2 Jun 2027 01:01:41.250     2 Jun 2027 01:03:21.610           100.360
                      21     2 Jun 2027 01:03:43.091     2 Jun 2027 01:07:15.783           212.692
                      22     2 Jun 2027 02:40:04.312     2 Jun 2027 02:45:16.995           312.683
                      23     2 Jun 2027 04:04:05.414     2 Jun 2027 04:06:21.849           136.435
                      24     2 Jun 2027 05:40:02.682     2 Jun 2027 05:43:58.542           235.860
                      25     2 Jun 2027 07:13:51.293     2 Jun 2027 07:21:10.627           439.333
                      26     2 Jun 2027 07:21:23.089     2 Jun 2027 07:22:23.377            60.288
                      27     2 Jun 2027 08:51:00.749     2 Jun 2027 08:58:19.651           438.902
                      28     2 Jun 2027 10:28:03.632     2 Jun 2027 10:32:49.791           286.159
                      29     2 Jun 2027 10:32:58.286     2 Jun 2027 10:34:09.432            71.146
                      30     2 Jun 2027 12:04:58.849     2 Jun 2027 12:09:52.997           294.147
                      31     2 Jun 2027 13:40:07.022     2 Jun 2027 13:40:28.240            21.218
                      32     2 Jun 2027 13:41:43.876     2 Jun 2027 13:44:54.874           190.998
                      33     2 Jun 2027 18:47:39.279     2 Jun 2027 18:50:07.970           148.691
                      34     2 Jun 2027 18:50:24.993     2 Jun 2027 18:53:04.144           159.150
                      35     2 Jun 2027 20:23:51.216     2 Jun 2027 20:30:47.982           416.766
                      36     2 Jun 2027 22:00:36.284     2 Jun 2027 22:07:05.297           389.013
                      37     2 Jun 2027 23:36:03.122     2 Jun 2027 23:43:40.886           457.764
                      38     3 Jun 2027 01:14:18.589     3 Jun 2027 01:15:02.547            43.958
                      39     3 Jun 2027 01:15:08.824     3 Jun 2027 01:15:54.715            45.892
                      40     3 Jun 2027 01:15:56.676     3 Jun 2027 01:20:23.034           266.358
                      41     3 Jun 2027 02:52:38.503     3 Jun 2027 02:57:18.570           280.067
                      42     3 Jun 2027 04:15:58.073     3 Jun 2027 04:18:27.426           149.354
                      43     3 Jun 2027 05:52:20.455     3 Jun 2027 05:55:49.383           208.928
                      44     3 Jun 2027 07:26:12.211     3 Jun 2027 07:33:20.343           428.132
                      45     3 Jun 2027 07:33:21.410     3 Jun 2027 07:34:22.317            60.907
                      46     3 Jun 2027 09:03:27.359     3 Jun 2027 09:10:07.924           400.565
                      47     3 Jun 2027 10:40:28.379     3 Jun 2027 10:44:45.288           256.908
                      48     3 Jun 2027 10:44:47.108     3 Jun 2027 10:45:53.480            66.372
                      49     3 Jun 2027 12:17:12.918     3 Jun 2027 12:21:42.302           269.384
                      50     3 Jun 2027 13:55:21.625     3 Jun 2027 13:56:30.968            69.343
                      51     3 Jun 2027 18:59:56.633     3 Jun 2027 19:02:15.227           138.593
                      52     3 Jun 2027 19:03:17.711     3 Jun 2027 19:04:13.248            55.537
                      53     3 Jun 2027 20:35:55.819     3 Jun 2027 20:42:28.918           393.098
                      54     3 Jun 2027 22:12:37.245     3 Jun 2027 22:18:59.171           381.926
                      55     3 Jun 2027 23:48:10.071     3 Jun 2027 23:55:39.406           449.335
                      56     4 Jun 2027 01:26:12.038     4 Jun 2027 01:26:17.583             5.545
                      57     4 Jun 2027 01:26:37.996     4 Jun 2027 01:32:26.363           348.367
                      58     4 Jun 2027 03:04:53.143     4 Jun 2027 03:08:53.833           240.689
                      59     4 Jun 2027 04:27:46.799     4 Jun 2027 04:30:34.049           167.251
                      60     4 Jun 2027 06:04:23.925     4 Jun 2027 06:07:57.381           213.456
                      61     4 Jun 2027 07:39:29.844     4 Jun 2027 07:45:16.507           346.663
                      62     4 Jun 2027 07:45:19.793     4 Jun 2027 07:46:19.121            59.328
                      63     4 Jun 2027 09:15:50.629     4 Jun 2027 09:22:14.195           383.566
                      64     4 Jun 2027 10:53:20.322     4 Jun 2027 10:57:44.142           263.820
                      65     4 Jun 2027 12:29:24.993     4 Jun 2027 12:33:43.085           258.091
                      66     4 Jun 2027 19:12:01.628     4 Jun 2027 19:14:39.340           157.712
                      67     4 Jun 2027 20:47:58.505     4 Jun 2027 20:54:06.534           368.029
                      68     4 Jun 2027 22:24:41.125     4 Jun 2027 22:31:05.597           384.472
                      69     5 Jun 2027 00:00:11.566     5 Jun 2027 00:07:26.719           435.153
                      70     5 Jun 2027 01:38:20.694     5 Jun 2027 01:39:22.638            61.944
                      71     5 Jun 2027 01:39:29.624     5 Jun 2027 01:44:35.250           305.626
                      72     5 Jun 2027 03:16:39.242     5 Jun 2027 03:17:10.497            31.255
                      73     5 Jun 2027 03:17:28.768     5 Jun 2027 03:20:30.369           181.601
                      74     5 Jun 2027 04:40:00.629     5 Jun 2027 04:43:09.831           189.203
                      75     5 Jun 2027 06:16:33.859     5 Jun 2027 06:20:03.982           210.123
                      76     5 Jun 2027 07:51:44.107     5 Jun 2027 07:58:19.925           395.817
                      77     5 Jun 2027 09:28:05.622     5 Jun 2027 09:34:15.961           370.338
                      78     5 Jun 2027 11:05:23.993     5 Jun 2027 11:10:01.269           277.275
                      79     5 Jun 2027 12:41:36.360     5 Jun 2027 12:46:22.950           286.589
                      80     5 Jun 2027 19:24:11.725     5 Jun 2027 19:27:18.490           186.765
                      81     5 Jun 2027 21:00:03.784     5 Jun 2027 21:05:41.513           337.729
                      82     5 Jun 2027 22:36:38.401     5 Jun 2027 22:42:53.044           374.643
                      83     6 Jun 2027 00:12:08.918     6 Jun 2027 00:19:06.032           417.113
                      84     6 Jun 2027 01:50:26.042     6 Jun 2027 01:50:33.528             7.487
                      85     6 Jun 2027 01:51:27.149     6 Jun 2027 01:56:35.305           308.156
                      86     6 Jun 2027 01:57:57.770     6 Jun 2027 01:59:24.376            86.606
                      87     6 Jun 2027 03:28:36.038     6 Jun 2027 03:29:14.897            38.859
                      88     6 Jun 2027 03:29:37.053     6 Jun 2027 03:32:08.680           151.627
                      89     6 Jun 2027 04:52:30.265     6 Jun 2027 04:55:14.251           163.986
                      90     6 Jun 2027 06:28:25.036     6 Jun 2027 06:32:29.982           244.946
                      91     6 Jun 2027 08:03:18.803     6 Jun 2027 08:10:28.965           430.162
                      92     6 Jun 2027 09:39:41.659     6 Jun 2027 09:46:06.874           385.215
                      93     6 Jun 2027 11:17:58.379     6 Jun 2027 11:21:50.062           231.684
                      94     6 Jun 2027 12:53:20.516     6 Jun 2027 12:57:28.203           247.686
                      95     6 Jun 2027 12:57:49.654     6 Jun 2027 12:58:47.703            58.049
                      96     6 Jun 2027 18:00:00.567     6 Jun 2027 18:01:47.229           106.662
                      97     6 Jun 2027 19:35:59.764     6 Jun 2027 19:39:20.143           200.379
                      98     6 Jun 2027 21:12:33.816     6 Jun 2027 21:17:46.744           312.928
                      99     6 Jun 2027 22:48:44.062     6 Jun 2027 22:55:31.670           407.608
                     100     7 Jun 2027 00:24:45.199     7 Jun 2027 00:31:21.779           396.579
                     101     7 Jun 2027 02:03:30.702     7 Jun 2027 02:09:02.216           331.515
                     102     7 Jun 2027 02:09:33.007     7 Jun 2027 02:11:07.996            94.989
                     103     7 Jun 2027 03:29:15.339     7 Jun 2027 03:30:15.338            59.999
                     104     7 Jun 2027 03:40:31.898     7 Jun 2027 03:42:12.606           100.708
                     105     7 Jun 2027 03:43:10.168     7 Jun 2027 03:43:39.101            28.932
                     106     7 Jun 2027 05:03:07.751     7 Jun 2027 05:07:47.831           280.081
                     107     7 Jun 2027 06:38:42.428     7 Jun 2027 06:39:26.577            44.149
                     108     7 Jun 2027 06:40:08.864     7 Jun 2027 06:44:44.257           275.393
                     109     7 Jun 2027 08:14:55.152     7 Jun 2027 08:22:29.657           454.505
                     110     7 Jun 2027 09:52:01.529     7 Jun 2027 09:58:23.673           382.143
                     111     7 Jun 2027 11:29:59.479     7 Jun 2027 11:33:56.205           236.726
                     112     7 Jun 2027 13:03:06.812     7 Jun 2027 13:09:23.762           376.949
                     113     7 Jun 2027 13:10:05.141     7 Jun 2027 13:11:05.143            60.002
                     114     7 Jun 2027 18:11:43.250     7 Jun 2027 18:14:21.442           158.193
                     115     7 Jun 2027 19:48:01.869     7 Jun 2027 19:51:29.144           207.274
                     116     7 Jun 2027 21:24:42.813     7 Jun 2027 21:30:55.608           372.795
                     117     7 Jun 2027 23:00:49.315     7 Jun 2027 23:07:28.935           399.620
                     118     8 Jun 2027 00:36:53.668     8 Jun 2027 00:43:07.339           373.671
                     119     8 Jun 2027 02:16:00.094     8 Jun 2027 02:23:07.847           427.754
                     120     8 Jun 2027 03:40:50.863     8 Jun 2027 03:42:24.909            94.046
                     121     8 Jun 2027 03:52:34.412     8 Jun 2027 03:53:40.948            66.536
                     122     8 Jun 2027 05:14:49.895     8 Jun 2027 05:15:56.363            66.468
                     123     8 Jun 2027 05:16:46.922     8 Jun 2027 05:20:00.909           193.987
                     124     8 Jun 2027 06:49:49.160     8 Jun 2027 06:51:42.255           113.095
                     125     8 Jun 2027 06:51:52.708     8 Jun 2027 06:57:06.920           314.212
                     126     8 Jun 2027 06:57:46.059     8 Jun 2027 06:58:08.390            22.331
                     127     8 Jun 2027 08:27:15.113     8 Jun 2027 08:34:33.941           438.828
                     128     8 Jun 2027 10:04:01.992     8 Jun 2027 10:10:31.922           389.930
                     129     8 Jun 2027 11:42:00.060     8 Jun 2027 11:46:09.947           249.887
                     130     8 Jun 2027 13:15:37.579     8 Jun 2027 13:23:01.455           443.876
                     131     8 Jun 2027 18:23:43.924     8 Jun 2027 18:26:26.731           162.807
                     132     8 Jun 2027 20:00:13.669     8 Jun 2027 20:03:35.483           201.814
                     133     8 Jun 2027 20:04:59.290     8 Jun 2027 20:07:35.688           156.398
                     134     8 Jun 2027 21:36:56.606     8 Jun 2027 21:42:54.029           357.422
                     135     8 Jun 2027 23:12:27.538     8 Jun 2027 23:12:44.968            17.430
                     136     8 Jun 2027 23:12:54.348     8 Jun 2027 23:19:47.717           413.368
                     137     9 Jun 2027 00:49:12.275     9 Jun 2027 00:49:42.869            30.595
                     138     9 Jun 2027 00:49:45.071     9 Jun 2027 00:50:23.155            38.085
                     139     9 Jun 2027 00:50:23.923     9 Jun 2027 00:51:24.896            60.973
                     140     9 Jun 2027 00:51:26.018     9 Jun 2027 00:55:13.344           227.327
                     141     9 Jun 2027 02:28:00.732     9 Jun 2027 02:35:05.086           424.354
                     142     9 Jun 2027 03:52:23.246     9 Jun 2027 03:54:31.472           128.225
                     143     9 Jun 2027 04:04:35.866     9 Jun 2027 04:05:07.455            31.590
                     144     9 Jun 2027 05:26:29.731     9 Jun 2027 05:27:42.848            73.116
                     145     9 Jun 2027 05:28:32.556     9 Jun 2027 05:32:13.745           221.188
                     146     9 Jun 2027 07:01:17.670     9 Jun 2027 07:09:17.951           480.282
                     147     9 Jun 2027 07:09:38.982     9 Jun 2027 07:10:36.524            57.542
                     148     9 Jun 2027 08:39:09.252     9 Jun 2027 08:46:34.290           445.038
                     149     9 Jun 2027 10:15:53.699     9 Jun 2027 10:21:45.936           352.236
                     150     9 Jun 2027 10:21:52.851     9 Jun 2027 10:22:37.781            44.931
                     151     9 Jun 2027 11:54:02.888     9 Jun 2027 11:58:08.095           245.208
                     152     9 Jun 2027 13:27:54.810     9 Jun 2027 13:34:09.369           374.559
                     153     9 Jun 2027 18:35:49.574     9 Jun 2027 18:38:41.929           172.355
                     154     9 Jun 2027 18:39:16.318     9 Jun 2027 18:39:47.018            30.700
                     155     9 Jun 2027 20:12:13.281     9 Jun 2027 20:16:27.408           254.127
                     156     9 Jun 2027 20:17:04.333     9 Jun 2027 20:20:16.677           192.344
                     157     9 Jun 2027 21:48:47.998     9 Jun 2027 21:55:20.461           392.462
                     158     9 Jun 2027 23:24:18.994     9 Jun 2027 23:32:02.902           463.908
                     159    10 Jun 2027 01:01:56.879    10 Jun 2027 01:03:36.562            99.684
                     160    10 Jun 2027 01:03:59.131    10 Jun 2027 01:07:31.295           212.164
                     161    10 Jun 2027 02:40:21.363    10 Jun 2027 02:45:32.733           311.371
                     162    10 Jun 2027 04:04:20.617    10 Jun 2027 04:06:37.111           136.494
                     163    10 Jun 2027 05:40:18.679    10 Jun 2027 05:44:13.788           235.108
                     164    10 Jun 2027 07:14:06.800    10 Jun 2027 07:21:26.227           439.427
                     165    10 Jun 2027 07:21:38.549    10 Jun 2027 07:22:38.789            60.239
                     166    10 Jun 2027 08:51:16.332    10 Jun 2027 08:58:35.192           438.860
                     167    10 Jun 2027 10:28:20.343    10 Jun 2027 10:33:04.043           283.700
                     168    10 Jun 2027 10:33:13.599    10 Jun 2027 10:34:24.580            70.981
                     169    10 Jun 2027 12:05:13.491    10 Jun 2027 12:10:08.614           295.122
                     170    10 Jun 2027 13:40:24.553    10 Jun 2027 13:40:43.070            18.517
                     171    10 Jun 2027 13:41:58.737    10 Jun 2027 13:45:09.794           191.057
                     172    10 Jun 2027 18:47:54.746    10 Jun 2027 18:50:43.012           168.266
                     173    10 Jun 2027 18:50:46.236    10 Jun 2027 18:53:21.336           155.100
                     174    10 Jun 2027 20:24:06.708    10 Jun 2027 20:31:03.171           416.463
                     175    10 Jun 2027 22:00:51.523    10 Jun 2027 22:07:20.179           388.656
                     176    10 Jun 2027 23:36:18.623    10 Jun 2027 23:43:54.582           455.959
                     177    11 Jun 2027 01:14:34.278    11 Jun 2027 01:15:17.434            43.157
                     178    11 Jun 2027 01:15:22.904    11 Jun 2027 01:16:09.846            46.943
                     179    11 Jun 2027 01:16:12.144    11 Jun 2027 01:20:42.204           270.059
                     180    11 Jun 2027 02:52:53.426    11 Jun 2027 02:57:34.080           280.654
                     181    11 Jun 2027 04:16:13.256    11 Jun 2027 04:18:43.924           150.669
                     182    11 Jun 2027 05:52:35.666    11 Jun 2027 05:56:04.019           208.354
                     183    11 Jun 2027 07:26:28.531    11 Jun 2027 07:33:35.722           427.190
                     184    11 Jun 2027 07:33:36.751    11 Jun 2027 07:34:37.552            60.801
                     185    11 Jun 2027 09:03:42.660    11 Jun 2027 09:10:23.093           400.433
                     186    11 Jun 2027 10:40:44.666    11 Jun 2027 10:45:01.090           256.424
                     187    11 Jun 2027 10:45:02.173    11 Jun 2027 10:46:08.282            66.109
                     188    11 Jun 2027 12:17:28.582    11 Jun 2027 12:21:58.420           269.838
                     189    11 Jun 2027 13:55:37.741    11 Jun 2027 13:56:46.309            68.568
                     190    11 Jun 2027 19:00:13.118    11 Jun 2027 19:02:30.897           137.779
                     191    11 Jun 2027 19:03:33.259    11 Jun 2027 19:04:26.801            53.542
                     192    11 Jun 2027 20:36:11.248    11 Jun 2027 20:42:44.205           392.957
                     193    11 Jun 2027 22:12:52.866    11 Jun 2027 22:19:15.689           382.823
                     194    11 Jun 2027 23:48:25.843    11 Jun 2027 23:55:55.321           449.478
                     195    12 Jun 2027 01:26:27.482    12 Jun 2027 01:26:32.762             5.279
                     196    12 Jun 2027 01:26:57.373    12 Jun 2027 01:32:41.801           344.428
                     197    12 Jun 2027 03:05:08.563    12 Jun 2027 03:09:09.159           240.596
                     198    12 Jun 2027 04:28:02.719    12 Jun 2027 04:30:49.340           166.621
                     199    12 Jun 2027 06:04:38.983    12 Jun 2027 06:08:12.756           213.773
                     200    12 Jun 2027 07:39:46.219    12 Jun 2027 07:45:32.184           345.965
                     201    12 Jun 2027 07:45:35.055    12 Jun 2027 07:46:34.856            59.801
                     202    12 Jun 2027 09:16:06.655    12 Jun 2027 09:22:29.841           383.186
                     203    12 Jun 2027 10:53:37.118    12 Jun 2027 10:58:00.675           263.557
                     204    12 Jun 2027 12:29:42.761    12 Jun 2027 12:33:57.979           255.218
                     205    12 Jun 2027 19:12:17.060    12 Jun 2027 19:14:55.713           158.654
                     206    12 Jun 2027 20:48:14.073    12 Jun 2027 20:54:20.629           366.556
                     207    12 Jun 2027 22:24:56.599    12 Jun 2027 22:31:20.658           384.059
                     208    13 Jun 2027 00:00:27.172    13 Jun 2027 00:07:41.201           434.030
                     209    13 Jun 2027 01:38:36.087    13 Jun 2027 01:39:38.279            62.192
                     210    13 Jun 2027 01:39:44.908    13 Jun 2027 01:44:49.665           304.757
                     211    13 Jun 2027 03:16:54.557    13 Jun 2027 03:17:26.410            31.853
                     212    13 Jun 2027 03:17:44.030    13 Jun 2027 03:20:45.454           181.424
                     213    13 Jun 2027 04:40:15.622    13 Jun 2027 04:43:25.586           189.964
                     214    13 Jun 2027 06:16:50.074    13 Jun 2027 06:20:18.904           208.830
                     215    13 Jun 2027 07:51:59.444    13 Jun 2027 07:58:35.423           395.979
                     216    13 Jun 2027 09:28:20.783    13 Jun 2027 09:34:31.158           370.375
                     217    13 Jun 2027 11:05:38.501    13 Jun 2027 11:10:17.366           278.866
                     218    13 Jun 2027 12:41:50.544    13 Jun 2027 12:46:39.460           288.916
                     219    13 Jun 2027 19:24:27.186    13 Jun 2027 19:27:34.290           187.104
                     220    13 Jun 2027 21:00:19.034    13 Jun 2027 21:05:57.174           338.140
                     221    13 Jun 2027 22:36:53.895    13 Jun 2027 22:43:07.879           373.984

Min Duration         195    12 Jun 2027 01:26:27.482    12 Jun 2027 01:26:32.762             5.279
Max Duration         146     9 Jun 2027 07:01:17.670     9 Jun 2027 07:09:17.951           480.282
Mean Duration                                                                              237.021
Total Duration                                                                           52381.676


Russia-To-KinoSat_111103
------------------------
                  Access        Start Time (UTCG)           Stop Time (UTCG)        Duration (sec)
                  ------    ------------------------    ------------------------    --------------
                       1     1 Jun 2027 00:39:05.130     1 Jun 2027 00:45:11.413           366.283
                       2     1 Jun 2027 02:18:10.904     1 Jun 2027 02:25:18.960           428.056
                       3     1 Jun 2027 03:43:01.034     1 Jun 2027 03:44:37.021            95.987
                       4     1 Jun 2027 03:54:45.138     1 Jun 2027 03:55:43.299            58.161
                       5     1 Jun 2027 05:16:58.684     1 Jun 2027 05:18:04.913            66.229
                       6     1 Jun 2027 05:18:52.441     1 Jun 2027 05:22:13.400           200.959
                       7     1 Jun 2027 06:51:54.219     1 Jun 2027 06:53:53.430           119.210
                       8     1 Jun 2027 06:54:00.627     1 Jun 2027 06:59:09.726           309.099
                       9     1 Jun 2027 06:59:54.667     1 Jun 2027 07:00:19.695            25.028
                      10     1 Jun 2027 08:29:24.952     1 Jun 2027 08:36:44.373           439.421
                      11     1 Jun 2027 10:06:10.268     1 Jun 2027 10:12:22.683           372.415
                      12     1 Jun 2027 10:12:26.520     1 Jun 2027 10:12:43.775            17.255
                      13     1 Jun 2027 11:44:09.292     1 Jun 2027 11:48:19.902           250.611
                      14     1 Jun 2027 13:17:46.607     1 Jun 2027 13:25:11.168           444.561
                      15     1 Jun 2027 18:25:53.915     1 Jun 2027 18:28:40.572           166.657
                      16     1 Jun 2027 20:02:25.687     1 Jun 2027 20:05:50.941           205.254
                      17     1 Jun 2027 20:07:07.044     1 Jun 2027 20:09:59.682           172.638
                      18     1 Jun 2027 21:39:05.497     1 Jun 2027 21:45:09.615           364.119
                      19     1 Jun 2027 23:14:34.175     1 Jun 2027 23:14:58.700            24.525
                      20     1 Jun 2027 23:15:05.102     1 Jun 2027 23:22:06.422           421.320
                      21     2 Jun 2027 00:51:25.810     2 Jun 2027 00:51:52.539            26.728
                      22     2 Jun 2027 00:51:57.438     2 Jun 2027 00:52:32.298            34.860
                      23     2 Jun 2027 00:52:36.011     2 Jun 2027 00:53:32.269            56.257
                      24     2 Jun 2027 00:53:32.354     2 Jun 2027 00:57:27.033           234.679
                      25     2 Jun 2027 02:30:12.830     2 Jun 2027 02:37:11.521           418.691
                      26     2 Jun 2027 03:54:34.232     2 Jun 2027 03:56:39.582           125.350
                      27     2 Jun 2027 04:06:49.921     2 Jun 2027 04:07:17.573            27.652
                      28     2 Jun 2027 05:28:30.789     2 Jun 2027 05:29:50.469            79.680
                      29     2 Jun 2027 05:30:38.695     2 Jun 2027 05:34:25.879           227.184
                      30     2 Jun 2027 07:03:24.129     2 Jun 2027 07:11:29.074           484.945
                      31     2 Jun 2027 07:11:49.170     2 Jun 2027 07:12:47.441            58.271
                      32     2 Jun 2027 08:41:19.578     2 Jun 2027 08:48:44.950           445.373
                      33     2 Jun 2027 10:18:06.792     2 Jun 2027 10:23:47.462           340.669
                      34     2 Jun 2027 10:23:59.071     2 Jun 2027 10:24:46.876            47.806
                      35     2 Jun 2027 11:55:57.209     2 Jun 2027 12:00:19.201           261.992
                      36     2 Jun 2027 13:31:55.587     2 Jun 2027 13:36:14.490           258.903
                      37     2 Jun 2027 18:38:01.770     2 Jun 2027 18:40:55.601           173.831
                      38     2 Jun 2027 18:41:25.974     2 Jun 2027 18:42:24.987            59.013
                      39     2 Jun 2027 20:14:23.360     2 Jun 2027 20:18:49.518           266.158
                      40     2 Jun 2027 20:19:09.602     2 Jun 2027 20:20:56.775           107.173
                      41     2 Jun 2027 21:50:57.207     2 Jun 2027 21:57:31.538           394.331
                      42     2 Jun 2027 23:26:29.515     2 Jun 2027 23:34:15.020           465.505
                      43     3 Jun 2027 01:04:08.401     3 Jun 2027 01:04:27.067            18.665
                      44     3 Jun 2027 01:04:32.915     3 Jun 2027 01:05:33.426            60.511
                      45     3 Jun 2027 01:06:13.430     3 Jun 2027 01:09:45.126           211.696
                      46     3 Jun 2027 02:42:37.551     3 Jun 2027 02:47:44.774           307.222
                      47     3 Jun 2027 04:06:29.831     3 Jun 2027 04:08:46.106           136.276
                      48     3 Jun 2027 05:42:29.540     3 Jun 2027 05:46:22.701           233.161
                      49     3 Jun 2027 07:16:17.507     3 Jun 2027 07:24:48.835           511.328
                      50     3 Jun 2027 08:53:30.801     3 Jun 2027 09:00:44.457           433.656
                      51     3 Jun 2027 10:30:43.612     3 Jun 2027 10:35:12.371           268.760
                      52     3 Jun 2027 10:35:22.541     3 Jun 2027 10:36:33.801            71.261
                      53     3 Jun 2027 12:07:24.965     3 Jun 2027 12:12:15.874           290.909
                      54     3 Jun 2027 13:42:37.763     3 Jun 2027 13:42:50.959            13.195
                      55     3 Jun 2027 13:44:23.930     3 Jun 2027 13:47:17.620           173.690
                      56     3 Jun 2027 18:50:22.774     3 Jun 2027 18:52:41.844           139.070
                      57     3 Jun 2027 18:53:06.046     3 Jun 2027 18:55:27.543           141.497
                      58     3 Jun 2027 20:26:16.985     3 Jun 2027 20:33:14.868           417.883
                      59     3 Jun 2027 22:03:00.971     3 Jun 2027 22:09:26.162           385.191
                      60     3 Jun 2027 23:38:28.932     3 Jun 2027 23:45:59.446           450.514
                      61     4 Jun 2027 01:16:52.871     4 Jun 2027 01:17:12.117            19.247
                      62     4 Jun 2027 01:17:26.342     4 Jun 2027 01:18:20.841            54.500
                      63     4 Jun 2027 01:18:22.209     4 Jun 2027 01:22:53.688           271.479
                      64     4 Jun 2027 02:55:00.349     4 Jun 2027 02:59:36.966           276.617
                      65     4 Jun 2027 04:18:21.767     4 Jun 2027 04:20:57.133           155.367
                      66     4 Jun 2027 05:54:43.222     4 Jun 2027 05:58:15.200           211.978
                      67     4 Jun 2027 07:28:47.413     4 Jun 2027 07:35:42.487           415.074
                      68     4 Jun 2027 07:35:46.166     4 Jun 2027 07:36:47.337            61.171
                      69     4 Jun 2027 09:05:52.868     4 Jun 2027 09:12:35.018           402.150
                      70     4 Jun 2027 10:42:50.471     4 Jun 2027 10:47:48.916           298.445
                      71     4 Jun 2027 12:19:36.759     4 Jun 2027 12:24:09.138           272.380
                      72     4 Jun 2027 13:57:48.231     4 Jun 2027 13:58:48.732            60.502
                      73     4 Jun 2027 19:02:24.780     4 Jun 2027 19:04:38.100           133.320
                      74     4 Jun 2027 19:06:00.294     4 Jun 2027 19:06:22.995            22.701
                      75     4 Jun 2027 20:38:21.542     4 Jun 2027 20:44:52.160           390.619
                      76     4 Jun 2027 22:15:03.386     4 Jun 2027 22:21:28.648           385.262
                      77     4 Jun 2027 23:50:37.045     4 Jun 2027 23:58:01.649           444.603
                      78     5 Jun 2027 01:29:00.599     5 Jun 2027 01:29:52.396            51.797
                      79     5 Jun 2027 01:29:58.218     5 Jun 2027 01:34:55.159           296.942
                      80     5 Jun 2027 03:07:19.775     5 Jun 2027 03:11:22.262           242.487
                      81     5 Jun 2027 04:30:24.582     5 Jun 2027 04:33:03.490           158.908
                      82     5 Jun 2027 06:06:49.887     5 Jun 2027 06:10:22.573           212.686
                      83     5 Jun 2027 07:41:57.930     5 Jun 2027 07:47:43.850           345.920
                      84     5 Jun 2027 07:47:43.874     5 Jun 2027 07:48:47.299            63.424
                      85     5 Jun 2027 09:18:18.856     5 Jun 2027 09:24:41.125           382.269
                      86     5 Jun 2027 10:55:52.342     5 Jun 2027 11:00:15.780           263.437
                      87     5 Jun 2027 12:31:56.026     5 Jun 2027 12:36:08.686           252.659
                      88     5 Jun 2027 19:14:29.796     5 Jun 2027 19:17:11.996           162.200
                      89     5 Jun 2027 20:50:25.296     5 Jun 2027 20:56:22.456           357.160
                      90     5 Jun 2027 22:27:07.652     5 Jun 2027 22:33:19.875           372.223
                      91     6 Jun 2027 00:02:38.538     6 Jun 2027 00:09:46.200           427.662
                      92     6 Jun 2027 01:40:46.415     6 Jun 2027 01:41:46.861            60.446
                      93     6 Jun 2027 01:41:54.061     6 Jun 2027 01:46:58.287           304.226
                      94     6 Jun 2027 03:19:03.591     6 Jun 2027 03:19:38.471            34.880
                      95     6 Jun 2027 03:19:52.155     6 Jun 2027 03:22:49.398           177.243
                      96     6 Jun 2027 04:42:22.876     6 Jun 2027 04:45:37.143           194.266
                      97     6 Jun 2027 06:18:59.800     6 Jun 2027 06:22:26.538           206.738
                      98     6 Jun 2027 07:54:09.833     6 Jun 2027 08:00:45.895           396.062
                      99     6 Jun 2027 09:30:27.060     6 Jun 2027 09:36:14.045           346.985
                     100     6 Jun 2027 09:36:22.047     6 Jun 2027 09:36:32.876            10.829
                     101     6 Jun 2027 11:07:57.923     6 Jun 2027 11:12:29.406           271.483
                     102     6 Jun 2027 12:43:59.702     6 Jun 2027 12:48:10.804           251.102
                     103     6 Jun 2027 12:48:15.247     6 Jun 2027 12:48:54.313            39.066
                     104     6 Jun 2027 17:51:02.099     6 Jun 2027 17:51:16.559            14.461
                     105     6 Jun 2027 19:26:37.812     6 Jun 2027 19:29:34.947           177.134
                     106     6 Jun 2027 21:02:29.512     6 Jun 2027 21:08:06.074           336.562
                     107     6 Jun 2027 22:39:04.910     6 Jun 2027 22:45:17.516           372.606
                     108     7 Jun 2027 00:14:35.839     7 Jun 2027 00:21:28.778           412.939
                     109     7 Jun 2027 01:53:52.841     7 Jun 2027 01:59:02.353           309.511
                     110     7 Jun 2027 02:00:14.488     7 Jun 2027 02:01:45.666            91.178
                     111     7 Jun 2027 03:20:13.593     7 Jun 2027 03:20:22.509             8.915
                     112     7 Jun 2027 03:31:00.178     7 Jun 2027 03:31:41.051            40.873
                     113     7 Jun 2027 03:31:50.174     7 Jun 2027 03:34:34.997           164.823
                     114     7 Jun 2027 04:54:58.990     7 Jun 2027 04:57:40.961           161.971
                     115     7 Jun 2027 06:30:43.811     7 Jun 2027 06:34:56.732           252.922
                     116     7 Jun 2027 08:05:38.182     7 Jun 2027 08:12:55.420           437.238
                     117     7 Jun 2027 09:42:10.297     7 Jun 2027 09:48:33.740           383.443
                     118     7 Jun 2027 11:20:27.757     7 Jun 2027 11:24:11.067           223.309
                     119     7 Jun 2027 12:54:29.451     7 Jun 2027 12:55:12.892            43.441
                     120     7 Jun 2027 12:55:49.013     7 Jun 2027 12:59:57.642           248.629
                     121     7 Jun 2027 13:00:17.447     7 Jun 2027 13:01:16.539            59.092
                     122     7 Jun 2027 18:02:18.192     7 Jun 2027 18:04:17.002           118.810
                     123     7 Jun 2027 19:38:24.913     7 Jun 2027 19:41:46.639           201.726
                     124     7 Jun 2027 21:14:59.894     7 Jun 2027 21:20:41.025           341.132
                     125     7 Jun 2027 22:51:10.673     7 Jun 2027 22:57:58.853           408.180
                     126     8 Jun 2027 00:27:16.046     8 Jun 2027 00:33:39.683           383.637
                     127     8 Jun 2027 02:05:56.837     8 Jun 2027 02:13:35.080           458.243
                     128     8 Jun 2027 03:31:31.348     8 Jun 2027 03:32:43.558            72.210
                     129     8 Jun 2027 03:42:57.010     8 Jun 2027 03:44:36.774            99.763
                     130     8 Jun 2027 05:05:34.594     8 Jun 2027 05:06:35.441            60.846
                     131     8 Jun 2027 05:06:49.516     8 Jun 2027 05:10:15.428           205.911
                     132     8 Jun 2027 06:40:58.326     8 Jun 2027 06:41:53.974            55.648
                     133     8 Jun 2027 06:42:29.380     8 Jun 2027 06:47:12.720           283.340
                     134     8 Jun 2027 08:17:24.495     8 Jun 2027 08:24:56.081           451.586
                     135     8 Jun 2027 09:54:30.882     8 Jun 2027 10:00:33.380           362.498
                     136     8 Jun 2027 11:32:25.626     8 Jun 2027 11:36:23.897           238.271
                     137     8 Jun 2027 13:05:31.783     8 Jun 2027 13:11:55.119           383.336
                     138     8 Jun 2027 13:12:33.179     8 Jun 2027 13:13:32.099            58.920
                     139     8 Jun 2027 18:14:08.996     8 Jun 2027 18:16:53.426           164.430
                     140     8 Jun 2027 19:50:29.044     8 Jun 2027 19:53:52.751           203.708
                     141     8 Jun 2027 19:56:32.835     8 Jun 2027 19:56:55.744            22.909
                     142     8 Jun 2027 21:27:06.678     8 Jun 2027 21:33:18.556           371.879
                     143     8 Jun 2027 23:03:14.081     8 Jun 2027 23:09:54.718           400.637
                     144     9 Jun 2027 00:39:21.354     9 Jun 2027 00:45:27.353           366.000
                     145     9 Jun 2027 02:18:26.886     9 Jun 2027 02:25:34.407           427.521
                     146     9 Jun 2027 03:43:04.265     9 Jun 2027 03:44:52.645           108.380
                     147     9 Jun 2027 03:54:57.305     9 Jun 2027 03:55:58.246            60.940
                     148     9 Jun 2027 05:17:13.527     9 Jun 2027 05:18:19.928            66.401
                     149     9 Jun 2027 05:19:07.955     9 Jun 2027 05:22:29.268           201.313
                     150     9 Jun 2027 06:52:07.667     9 Jun 2027 06:54:08.979           121.312
                     151     9 Jun 2027 06:54:15.707     9 Jun 2027 06:59:25.787           310.080
                     152     9 Jun 2027 07:00:09.459     9 Jun 2027 07:00:35.268            25.809
                     153     9 Jun 2027 08:29:39.910     9 Jun 2027 08:36:59.668           439.758
