DATA_Files/Russia2Constellation/AreaTarget-Russia-To-Satellite-KinoSat_03_plane.txt

                                                                                                                                                                                                                                                                                           10 May 2023 21:00:51
Civil Air Patrol Use Only
AreaTarget-Russia-To-Satellite-KinoSat_110301, Satellite-KinoSat_110302, Satellite-KinoSat_110303, Satellite-KinoSat_110304, Satellite-KinoSat_110305, Satellite-KinoSat_110306, Satellite-KinoSat_110307, Satellite-KinoSat_110308, Satellite-KinoSat_110309, Satellite-KinoSat_110310:  Access Summary Report


Russia-To-KinoSat_110301
------------------------
                  Access        Start Time (UTCG)           Stop Time (UTCG)        Duration (sec)
                  ------    ------------------------    ------------------------    --------------
                       1     1 Jun 2027 01:23:52.917     1 Jun 2027 01:27:35.058           222.142
                       2     1 Jun 2027 02:57:36.804     1 Jun 2027 03:05:07.076           450.272
                       3     1 Jun 2027 03:05:11.164     1 Jun 2027 03:06:11.489            60.325
                       4     1 Jun 2027 04:35:02.477     1 Jun 2027 04:42:05.636           423.160
                       5     1 Jun 2027 06:12:06.028     1 Jun 2027 06:16:35.063           269.035
                       6     1 Jun 2027 06:16:42.442     1 Jun 2027 06:17:56.067            73.625
                       7     1 Jun 2027 07:48:51.352     1 Jun 2027 07:53:38.991           287.639
                       8     1 Jun 2027 09:24:07.532     1 Jun 2027 09:24:14.538             7.005
                       9     1 Jun 2027 09:25:49.098     1 Jun 2027 09:28:38.191           169.093
                      10     1 Jun 2027 14:31:45.759     1 Jun 2027 14:34:09.422           143.663
                      11     1 Jun 2027 14:34:31.143     1 Jun 2027 14:36:42.656           131.513
                      12     1 Jun 2027 16:07:40.250     1 Jun 2027 16:14:33.599           413.349
                      13     1 Jun 2027 17:44:23.686     1 Jun 2027 17:50:49.531           385.845
                      14     1 Jun 2027 19:19:52.063     1 Jun 2027 19:27:21.803           449.740
                      15     1 Jun 2027 20:58:15.253     1 Jun 2027 20:58:34.590            19.338
                      16     1 Jun 2027 20:58:47.891     1 Jun 2027 21:04:15.649           327.758
                      17     1 Jun 2027 22:36:23.143     1 Jun 2027 22:40:57.041           273.898
                      18     1 Jun 2027 23:59:43.954     2 Jun 2027 00:02:20.899           156.946
                      19     2 Jun 2027 01:36:07.594     2 Jun 2027 01:39:42.440           214.846
                      20     2 Jun 2027 03:10:12.076     2 Jun 2027 03:17:05.523           413.447
                      21     2 Jun 2027 03:17:07.851     2 Jun 2027 03:18:08.455            60.604
                      22     2 Jun 2027 04:47:15.148     2 Jun 2027 04:53:58.272           403.125
                      23     2 Jun 2027 06:24:12.048     2 Jun 2027 06:28:36.683           264.635
                      24     2 Jun 2027 06:28:37.639     2 Jun 2027 06:29:12.777            35.138
                      25     2 Jun 2027 08:00:57.781     2 Jun 2027 08:06:05.130           307.349
                      26     2 Jun 2027 09:39:11.639     2 Jun 2027 09:40:07.394            55.755
                      27     2 Jun 2027 14:43:48.133     2 Jun 2027 14:46:03.184           135.050
                      28     2 Jun 2027 16:19:44.416     2 Jun 2027 16:26:16.773           392.357
                      29     2 Jun 2027 17:56:26.395     2 Jun 2027 18:02:54.658           388.264
                      30     2 Jun 2027 19:32:04.475     2 Jun 2027 19:39:30.910           446.435
                      31     2 Jun 2027 21:10:17.775     2 Jun 2027 21:11:15.155            57.380
                      32     2 Jun 2027 21:11:20.957     2 Jun 2027 21:16:23.633           302.676
                      33     2 Jun 2027 22:48:50.242     2 Jun 2027 22:52:44.905           234.663
                      34     3 Jun 2027 00:11:48.880     3 Jun 2027 00:14:50.929           182.049
                      35     3 Jun 2027 01:48:17.805     3 Jun 2027 01:51:48.545           210.739
                      36     3 Jun 2027 03:23:23.597     3 Jun 2027 03:30:09.996           406.399
                      37     3 Jun 2027 04:59:45.749     3 Jun 2027 05:06:04.829           379.080
                      38     3 Jun 2027 06:37:13.540     3 Jun 2027 06:41:41.731           268.191
                      39     3 Jun 2027 08:13:20.355     3 Jun 2027 08:17:34.122           253.766
                      40     3 Jun 2027 14:55:52.690     3 Jun 2027 14:58:57.864           185.174
                      41     3 Jun 2027 16:31:48.178     3 Jun 2027 16:37:40.605           352.428
                      42     3 Jun 2027 18:08:30.792     3 Jun 2027 18:14:41.539           370.747
                      43     3 Jun 2027 19:44:01.195     3 Jun 2027 19:51:06.029           424.835
                      44     3 Jun 2027 21:22:09.566     3 Jun 2027 21:23:06.736            57.170
                      45     3 Jun 2027 21:23:16.889     3 Jun 2027 21:28:17.901           301.013
                      46     3 Jun 2027 23:00:25.959     3 Jun 2027 23:01:01.692            35.734
                      47     3 Jun 2027 23:01:14.592     3 Jun 2027 23:04:04.950           170.358
                      48     4 Jun 2027 00:23:52.597     4 Jun 2027 00:27:00.408           187.811
                      49     4 Jun 2027 02:00:21.679     4 Jun 2027 02:03:46.465           204.785
                      50     4 Jun 2027 03:35:32.205     4 Jun 2027 03:42:08.675           396.470
                      51     4 Jun 2027 05:11:30.694     4 Jun 2027 05:17:37.620           366.926
                      52     4 Jun 2027 05:17:46.957     4 Jun 2027 05:17:52.017             5.060
                      53     4 Jun 2027 06:49:20.008     4 Jun 2027 06:53:50.986           270.978
                      54     4 Jun 2027 08:25:21.889     4 Jun 2027 08:29:32.938           251.050
                      55     4 Jun 2027 08:29:37.026     4 Jun 2027 08:30:23.292            46.266
                      56     4 Jun 2027 13:32:50.405     4 Jun 2027 13:33:18.060            27.654
                      57     4 Jun 2027 15:08:00.724     4 Jun 2027 15:10:57.210           176.486
                      58     4 Jun 2027 16:43:52.541     4 Jun 2027 16:49:27.164           334.622
                      59     4 Jun 2027 18:20:28.073     4 Jun 2027 18:26:40.385           372.312
                      60     4 Jun 2027 19:55:58.337     4 Jun 2027 20:02:53.968           415.630
                      61     4 Jun 2027 21:35:15.584     4 Jun 2027 21:40:29.543           313.959
                      62     4 Jun 2027 21:41:32.774     4 Jun 2027 21:43:06.172            93.398
                      63     4 Jun 2027 23:01:30.004     4 Jun 2027 23:01:50.802            20.798
                      64     4 Jun 2027 23:12:22.088     4 Jun 2027 23:15:58.517           216.429
                      65     5 Jun 2027 00:35:44.099     5 Jun 2027 00:39:04.525           200.426
                      66     5 Jun 2027 02:12:05.936     5 Jun 2027 02:16:19.598           253.662
                      67     5 Jun 2027 03:46:55.217     5 Jun 2027 03:54:19.336           444.119
                      68     5 Jun 2027 05:23:32.886     5 Jun 2027 05:29:56.334           383.448
                      69     5 Jun 2027 07:01:50.772     5 Jun 2027 07:05:45.076           234.303
                      70     5 Jun 2027 08:35:09.937     5 Jun 2027 08:36:37.725            87.788
                      71     5 Jun 2027 08:37:09.891     5 Jun 2027 08:41:23.221           253.330
                      72     5 Jun 2027 08:41:43.205     5 Jun 2027 08:42:47.757            64.553
                      73     5 Jun 2027 13:43:37.510     5 Jun 2027 13:45:41.014           123.504
                      74     5 Jun 2027 15:19:47.561     5 Jun 2027 15:23:07.843           200.282
                      75     5 Jun 2027 16:56:22.851     5 Jun 2027 17:02:32.317           369.466
                      76     5 Jun 2027 18:32:33.819     5 Jun 2027 18:39:22.028           408.210
                      77     5 Jun 2027 20:08:38.818     5 Jun 2027 20:15:04.803           385.985
                      78     5 Jun 2027 21:47:20.621     5 Jun 2027 21:55:00.206           459.585
                      79     5 Jun 2027 23:12:46.194     5 Jun 2027 23:14:06.345            80.151
                      80     5 Jun 2027 23:24:19.720     5 Jun 2027 23:25:58.526            98.805
                      81     6 Jun 2027 00:46:58.523     6 Jun 2027 00:47:56.162            57.640
                      82     6 Jun 2027 00:48:34.244     6 Jun 2027 00:51:39.186           184.942
                      83     6 Jun 2027 02:22:10.443     6 Jun 2027 02:23:19.258            68.815
                      84     6 Jun 2027 02:23:49.333     6 Jun 2027 02:28:39.311           289.977
                      85     6 Jun 2027 03:58:51.050     6 Jun 2027 04:06:19.577           448.527
                      86     6 Jun 2027 05:35:53.766     6 Jun 2027 05:41:44.553           350.787
                      87     6 Jun 2027 05:41:47.850     6 Jun 2027 05:42:03.309            15.459
                      88     6 Jun 2027 07:13:47.855     6 Jun 2027 07:17:47.386           239.531
                      89     6 Jun 2027 08:47:02.047     6 Jun 2027 08:53:23.028           380.981
                      90     6 Jun 2027 08:53:39.548     6 Jun 2027 08:54:54.273            74.725
                      91     6 Jun 2027 13:55:32.252     6 Jun 2027 13:58:14.444           162.192
                      92     6 Jun 2027 15:31:52.031     6 Jun 2027 15:35:16.173           204.142
                      93     6 Jun 2027 15:37:43.901     6 Jun 2027 15:38:24.352            40.451
                      94     6 Jun 2027 17:08:28.304     6 Jun 2027 17:14:40.520           372.215
                      95     6 Jun 2027 18:44:41.601     6 Jun 2027 18:51:16.963           395.362
                      96     6 Jun 2027 20:20:44.366     6 Jun 2027 20:26:52.287           367.920
                      97     6 Jun 2027 21:59:49.279     6 Jun 2027 22:06:55.691           426.412
                      98     6 Jun 2027 23:24:05.251     6 Jun 2027 23:26:16.881           131.630
                      99     6 Jun 2027 23:36:18.869     6 Jun 2027 23:37:19.116            60.247
                     100     7 Jun 2027 00:58:34.051     7 Jun 2027 00:59:40.500            66.449
                     101     7 Jun 2027 01:00:29.330     7 Jun 2027 01:03:53.611           204.281
                     102     7 Jun 2027 02:33:26.916     7 Jun 2027 02:35:33.269           126.353
                     103     7 Jun 2027 02:35:37.241     7 Jun 2027 02:40:58.483           321.242
                     104     7 Jun 2027 02:41:29.441     7 Jun 2027 02:41:59.105            29.664
                     105     7 Jun 2027 04:11:01.314     7 Jun 2027 04:18:23.114           441.800
                     106     7 Jun 2027 05:47:44.083     7 Jun 2027 05:53:57.609           373.527
                     107     7 Jun 2027 05:54:01.891     7 Jun 2027 05:54:22.865            20.974
                     108     7 Jun 2027 07:25:47.877     7 Jun 2027 07:29:57.137           249.260
                     109     7 Jun 2027 08:59:29.928     7 Jun 2027 09:06:24.547           414.620
                     110     7 Jun 2027 14:07:32.539     7 Jun 2027 14:10:25.859           173.320
                     111     7 Jun 2027 15:44:04.399     7 Jun 2027 15:47:37.599           213.200
                     112     7 Jun 2027 15:48:47.894     7 Jun 2027 15:51:47.601           179.708
                     113     7 Jun 2027 17:20:38.513     7 Jun 2027 17:26:55.634           377.121
                     114     7 Jun 2027 18:56:10.475     7 Jun 2027 18:56:50.410            39.935
                     115     7 Jun 2027 18:56:56.612     7 Jun 2027 19:03:46.359           409.747
                     116     7 Jun 2027 20:33:04.191     7 Jun 2027 20:33:30.940            26.749
                     117     7 Jun 2027 20:33:37.930     7 Jun 2027 20:34:09.730            31.799
                     118     7 Jun 2027 20:34:13.887     7 Jun 2027 20:35:06.967            53.080
                     119     7 Jun 2027 20:35:09.470     7 Jun 2027 20:39:06.648           237.178
                     120     7 Jun 2027 22:11:52.461     7 Jun 2027 22:18:47.528           415.067
                     121     7 Jun 2027 23:36:11.115     7 Jun 2027 23:38:05.044           113.930
                     122     7 Jun 2027 23:48:27.837     7 Jun 2027 23:48:53.425            25.588
                     123     8 Jun 2027 01:10:02.526     8 Jun 2027 01:11:25.381            82.856
                     124     8 Jun 2027 01:12:05.028     8 Jun 2027 01:16:04.257           239.230
                     125     8 Jun 2027 02:44:57.161     8 Jun 2027 02:53:06.705           489.544
                     126     8 Jun 2027 02:53:26.515     8 Jun 2027 02:54:25.886            59.371
                     127     8 Jun 2027 04:22:55.818     8 Jun 2027 04:30:24.534           448.716
                     128     8 Jun 2027 05:59:52.242     8 Jun 2027 06:05:10.572           318.330
                     129     8 Jun 2027 06:05:29.378     8 Jun 2027 06:06:21.207            51.829
                     130     8 Jun 2027 07:37:25.669     8 Jun 2027 07:41:55.625           269.955
                     131     8 Jun 2027 09:11:49.551     8 Jun 2027 09:12:48.839            59.289
                     132     8 Jun 2027 09:13:33.811     8 Jun 2027 09:17:07.194           213.382
                     133     8 Jun 2027 14:19:39.410     8 Jun 2027 14:22:52.370           192.960
                     134     8 Jun 2027 14:23:05.070     8 Jun 2027 14:24:06.946            61.876
                     135     8 Jun 2027 15:56:00.599     8 Jun 2027 16:00:32.543           271.945
                     136     8 Jun 2027 16:00:49.055     8 Jun 2027 16:02:38.007           108.952
                     137     8 Jun 2027 16:03:25.870     8 Jun 2027 16:04:02.122            36.252
                     138     8 Jun 2027 17:32:34.388     8 Jun 2027 17:39:09.630           395.242
                     139     8 Jun 2027 19:08:07.161     8 Jun 2027 19:15:52.374           465.213
                     140     8 Jun 2027 20:45:46.951     8 Jun 2027 20:46:01.068            14.117
                     141     8 Jun 2027 20:46:10.584     8 Jun 2027 20:47:11.836            61.251
                     142     8 Jun 2027 20:47:29.390     8 Jun 2027 20:47:37.150             7.759
                     143     8 Jun 2027 20:47:57.116     8 Jun 2027 20:51:23.785           206.669
                     144     8 Jun 2027 22:24:18.438     8 Jun 2027 22:29:20.146           301.709
                     145     8 Jun 2027 23:48:07.098     8 Jun 2027 23:50:24.388           137.290
                     146     9 Jun 2027 01:24:19.728     9 Jun 2027 01:27:49.131           209.403
                     147     9 Jun 2027 02:57:51.405     9 Jun 2027 03:05:21.732           450.327
                     148     9 Jun 2027 03:05:25.888     9 Jun 2027 03:06:26.162            60.274
                     149     9 Jun 2027 04:35:17.289     9 Jun 2027 04:42:11.700           414.410
                     150     9 Jun 2027 06:12:20.855     9 Jun 2027 06:16:49.731           268.876
                     151     9 Jun 2027 06:16:57.132     9 Jun 2027 06:18:10.736            73.603
                     152     9 Jun 2027 07:49:06.550     9 Jun 2027 07:53:53.626           287.077
                     153     9 Jun 2027 09:24:22.409     9 Jun 2027 09:24:28.879             6.470
                     154     9 Jun 2027 09:26:04.047     9 Jun 2027 09:28:52.800           168.754
                     155     9 Jun 2027 14:32:00.569     9 Jun 2027 14:34:24.497           143.928
                     156     9 Jun 2027 14:34:48.685     9 Jun 2027 14:36:55.778           127.093
                     157     9 Jun 2027 16:07:55.017     9 Jun 2027 16:14:47.998           412.981
                     158     9 Jun 2027 17:44:38.398     9 Jun 2027 17:51:04.158           385.760
                     159     9 Jun 2027 19:20:06.844     9 Jun 2027 19:27:36.583           449.739
                     160     9 Jun 2027 20:58:29.448     9 Jun 2027 20:58:49.224            19.776
                     161     9 Jun 2027 20:59:02.462     9 Jun 2027 21:04:30.412           327.950
                     162     9 Jun 2027 22:36:37.833     9 Jun 2027 22:41:11.262           273.429
                     163     9 Jun 2027 23:59:58.672    10 Jun 2027 00:02:35.728           157.056
                     164    10 Jun 2027 01:36:22.569    10 Jun 2027 01:39:57.256           214.687
                     165    10 Jun 2027 03:08:35.084    10 Jun 2027 03:08:46.884            11.800
                     166    10 Jun 2027 03:10:28.117    10 Jun 2027 03:17:20.052           411.934
                     167    10 Jun 2027 03:17:22.524    10 Jun 2027 03:18:22.985            60.461
                     168    10 Jun 2027 04:47:29.391    10 Jun 2027 04:54:13.057           403.666
                     169    10 Jun 2027 06:24:27.382    10 Jun 2027 06:28:54.222           266.840
                     170    10 Jun 2027 06:28:54.552    10 Jun 2027 06:29:27.780            33.228
                     171    10 Jun 2027 08:01:12.233    10 Jun 2027 08:06:20.097           307.865
                     172    10 Jun 2027 09:39:27.153    10 Jun 2027 09:40:21.944            54.791
                     173    10 Jun 2027 14:44:02.816    10 Jun 2027 14:46:18.032           135.216
                     174    10 Jun 2027 16:19:59.175    10 Jun 2027 16:26:31.572           392.397
                     175    10 Jun 2027 17:56:41.057    10 Jun 2027 18:03:09.693           388.636
                     176    10 Jun 2027 19:32:19.255    10 Jun 2027 19:39:45.878           446.623
                     177    10 Jun 2027 21:10:30.127    10 Jun 2027 21:11:29.804            59.678
                     178    10 Jun 2027 21:11:35.554    10 Jun 2027 21:16:38.837           303.283
                     179    10 Jun 2027 22:49:05.645    10 Jun 2027 22:53:02.507           236.862
                     180    11 Jun 2027 00:12:03.687    11 Jun 2027 00:15:05.861           182.175
                     181    11 Jun 2027 01:48:32.749    11 Jun 2027 01:52:11.729           218.980
                     182    11 Jun 2027 03:23:39.090    11 Jun 2027 03:30:24.613           405.523
                     183    11 Jun 2027 05:00:00.865    11 Jun 2027 05:06:19.581           378.716
                     184    11 Jun 2027 06:37:28.169    11 Jun 2027 06:41:56.681           268.512
                     185    11 Jun 2027 08:13:35.790    11 Jun 2027 08:17:48.885           253.095
                     186    11 Jun 2027 14:56:07.486    11 Jun 2027 14:59:12.501           185.015
                     187    11 Jun 2027 16:32:02.924    11 Jun 2027 16:37:55.177           352.252
                     188    11 Jun 2027 18:08:45.575    11 Jun 2027 18:14:56.164           370.590
                     189    11 Jun 2027 19:44:15.845    11 Jun 2027 19:51:20.304           424.459
                     190    11 Jun 2027 21:22:24.428    11 Jun 2027 21:23:20.840            56.412
                     191    11 Jun 2027 21:23:31.672    11 Jun 2027 21:28:32.828           301.156
                     192    11 Jun 2027 23:00:40.543    11 Jun 2027 23:01:16.475            35.932
                     193    11 Jun 2027 23:01:29.295    11 Jun 2027 23:04:19.299           170.005
                     194    12 Jun 2027 00:24:07.203    12 Jun 2027 00:27:15.189           187.986
                     195    12 Jun 2027 02:00:36.252    12 Jun 2027 02:04:00.986           204.735
                     196    12 Jun 2027 03:35:46.956    12 Jun 2027 03:42:23.881           396.925
                     197    12 Jun 2027 05:11:44.858    12 Jun 2027 05:17:52.550           367.692
                     198    12 Jun 2027 06:49:34.684    12 Jun 2027 06:54:05.424           270.740
                     199    12 Jun 2027 08:25:36.726    12 Jun 2027 08:29:47.423           250.697
                     200    12 Jun 2027 08:29:51.646    12 Jun 2027 08:30:38.494            46.848
                     201    12 Jun 2027 13:33:04.558    12 Jun 2027 13:33:32.862            28.304
                     202    12 Jun 2027 15:08:15.477    12 Jun 2027 15:11:11.946           176.469
                     203    12 Jun 2027 16:44:14.612    12 Jun 2027 16:49:41.810           327.198
                     204    12 Jun 2027 18:20:42.891    12 Jun 2027 18:26:57.098           374.206
                     205    12 Jun 2027 19:56:12.960    12 Jun 2027 20:03:08.904           415.944
                     206    12 Jun 2027 21:35:30.311    12 Jun 2027 21:40:44.454           314.143
                     207    12 Jun 2027 21:41:46.813    12 Jun 2027 21:43:20.619            93.807
                     208    12 Jun 2027 23:01:44.196    12 Jun 2027 23:02:05.816            21.620
                     209    12 Jun 2027 23:12:36.718    12 Jun 2027 23:16:13.110           216.393
                     210    13 Jun 2027 00:36:33.895    13 Jun 2027 00:39:19.298           165.403
                     211    13 Jun 2027 02:12:20.611    13 Jun 2027 02:16:34.249           253.638
                     212    13 Jun 2027 03:47:04.732    13 Jun 2027 03:54:34.153           449.421
                     213    13 Jun 2027 05:23:48.038    13 Jun 2027 05:30:11.027           382.989
                     214    13 Jun 2027 07:02:05.961    13 Jun 2027 07:05:59.788           233.827
                     215    13 Jun 2027 08:35:24.382    13 Jun 2027 08:36:52.509            88.126
                     216    13 Jun 2027 08:37:23.649    13 Jun 2027 08:41:37.979           254.330
                     217    13 Jun 2027 08:41:58.342    13 Jun 2027 08:43:02.744            64.402
                     218    13 Jun 2027 13:43:51.679    13 Jun 2027 13:45:55.717           124.039
                     219    13 Jun 2027 15:20:02.275    13 Jun 2027 15:23:22.740           200.465
                     220    13 Jun 2027 16:56:37.695    13 Jun 2027 17:02:47.456           369.761
                     221    13 Jun 2027 18:32:48.680    13 Jun 2027 18:39:36.700           408.020
                     222    13 Jun 2027 20:08:53.550    13 Jun 2027 20:15:19.878           386.329
                     223    13 Jun 2027 21:47:35.903    13 Jun 2027 21:55:15.145           459.242
                     224    13 Jun 2027 23:13:00.205    13 Jun 2027 23:14:21.177            80.972
                     225    13 Jun 2027 23:24:34.428    13 Jun 2027 23:26:13.065            98.636

Min Duration          52     4 Jun 2027 05:17:46.957     4 Jun 2027 05:17:52.017             5.060
Max Duration         125     8 Jun 2027 02:44:57.161     8 Jun 2027 02:53:06.705           489.544
Mean Duration                                                                              230.726
Total Duration                                                                           51913.287


Russia-To-KinoSat_110302
------------------------
                  Access        Start Time (UTCG)           Stop Time (UTCG)        Duration (sec)
                  ------    ------------------------    ------------------------    --------------
                       1     1 Jun 2027 01:12:10.523     1 Jun 2027 01:18:10.087           359.564
                       2     1 Jun 2027 02:47:02.581     1 Jun 2027 02:55:18.850           496.269
                       3     1 Jun 2027 02:55:36.403     1 Jun 2027 02:56:37.217            60.814
                       4     1 Jun 2027 04:25:08.293     1 Jun 2027 04:32:35.028           446.735
                       5     1 Jun 2027 06:02:02.746     1 Jun 2027 06:07:09.384           306.638
                       6     1 Jun 2027 06:07:20.797     1 Jun 2027 06:08:28.884            68.087
                       7     1 Jun 2027 07:39:11.530     1 Jun 2027 07:44:05.615           294.085
                       8     1 Jun 2027 09:14:01.845     1 Jun 2027 09:15:10.059            68.214
                       9     1 Jun 2027 09:15:53.468     1 Jun 2027 09:19:15.093           201.625
                      10     1 Jun 2027 14:21:51.136     1 Jun 2027 14:26:39.564           288.428
                      11     1 Jun 2027 15:58:11.539     1 Jun 2027 16:02:52.318           280.779
                      12     1 Jun 2027 16:03:01.660     1 Jun 2027 16:04:52.064           110.404
                      13     1 Jun 2027 16:05:36.184     1 Jun 2027 16:06:22.738            46.553
                      14     1 Jun 2027 17:34:45.739     1 Jun 2027 17:41:20.170           394.430
                      15     1 Jun 2027 19:10:17.855     1 Jun 2027 19:18:04.179           466.324
                      16     1 Jun 2027 20:47:59.586     1 Jun 2027 20:48:11.187            11.601
                      17     1 Jun 2027 20:48:22.680     1 Jun 2027 20:49:24.441            61.761
                      18     1 Jun 2027 20:49:29.962     1 Jun 2027 20:53:38.169           248.207
                      19     1 Jun 2027 22:26:29.840     1 Jun 2027 22:31:28.637           298.797
                      20     1 Jun 2027 23:50:16.928     1 Jun 2027 23:52:37.445           140.517
                      21     2 Jun 2027 01:26:29.838     2 Jun 2027 01:30:02.808           212.970
                      22     2 Jun 2027 03:00:03.047     2 Jun 2027 03:08:36.578           513.531
                      23     2 Jun 2027 04:37:34.282     2 Jun 2027 04:44:20.453           406.171
                      24     2 Jun 2027 06:14:30.440     2 Jun 2027 06:19:00.092           269.653
                      25     2 Jun 2027 06:19:05.163     2 Jun 2027 06:20:21.721            76.557
                      26     2 Jun 2027 07:51:24.402     2 Jun 2027 07:55:59.869           275.467
                      27     2 Jun 2027 09:28:34.587     2 Jun 2027 09:31:01.875           147.288
                      28     2 Jun 2027 14:34:08.074     2 Jun 2027 14:36:42.371           154.297
                      29     2 Jun 2027 14:37:13.839     2 Jun 2027 14:38:55.877           102.038
                      30     2 Jun 2027 16:10:06.222     2 Jun 2027 16:16:46.771           400.549
                      31     2 Jun 2027 17:46:49.007     2 Jun 2027 17:53:11.432           382.425
                      32     2 Jun 2027 19:22:18.985     2 Jun 2027 19:29:52.326           453.340
                      33     2 Jun 2027 21:00:31.381     2 Jun 2027 21:06:39.627           368.246
                      34     2 Jun 2027 22:38:29.596     2 Jun 2027 22:43:21.841           292.245
                      35     3 Jun 2027 00:02:07.853     3 Jun 2027 00:04:46.912           159.059
                      36     3 Jun 2027 01:38:34.785     3 Jun 2027 01:42:10.641           215.856
                      37     3 Jun 2027 03:10:43.379     3 Jun 2027 03:10:54.090            10.711
                      38     3 Jun 2027 03:12:41.772     3 Jun 2027 03:19:29.842           408.070
                      39     3 Jun 2027 03:19:32.826     3 Jun 2027 03:20:30.875            58.048
                      40     3 Jun 2027 04:49:40.606     3 Jun 2027 04:56:25.024           404.418
                      41     3 Jun 2027 06:27:04.004     3 Jun 2027 06:31:06.013           242.009
                      42     3 Jun 2027 06:31:08.557     3 Jun 2027 06:31:47.399            38.843
                      43     3 Jun 2027 08:03:26.481     3 Jun 2027 08:08:31.368           304.887
                      44     3 Jun 2027 09:41:44.569     3 Jun 2027 09:42:22.485            37.916
                      45     3 Jun 2027 14:46:14.034     3 Jun 2027 14:48:31.983           137.949
                      46     3 Jun 2027 16:22:10.479     3 Jun 2027 16:28:41.559           391.080
                      47     3 Jun 2027 17:58:52.216     3 Jun 2027 18:05:22.359           390.142
                      48     3 Jun 2027 19:34:25.178     3 Jun 2027 19:41:56.516           451.338
                      49     3 Jun 2027 21:12:37.301     3 Jun 2027 21:13:38.599            61.298
                      50     3 Jun 2027 21:13:45.103     3 Jun 2027 21:18:50.907           305.804
                      51     3 Jun 2027 22:51:02.577     3 Jun 2027 22:55:15.729           253.153
                      52     4 Jun 2027 00:14:16.054     4 Jun 2027 00:17:19.595           183.541
                      53     4 Jun 2027 01:50:44.521     4 Jun 2027 01:54:22.657           218.137
                      54     4 Jun 2027 03:25:55.782     4 Jun 2027 03:32:33.041           397.259
                      55     4 Jun 2027 05:02:14.355     4 Jun 2027 05:08:30.950           376.596
                      56     4 Jun 2027 06:39:37.222     4 Jun 2027 06:44:10.005           272.783
                      57     4 Jun 2027 08:15:47.571     4 Jun 2027 08:20:23.755           276.184
                      58     4 Jun 2027 14:58:20.475     4 Jun 2027 15:01:24.180           183.706
                      59     4 Jun 2027 16:34:15.104     4 Jun 2027 16:40:00.145           345.041
                      60     4 Jun 2027 18:10:56.817     4 Jun 2027 18:17:07.148           370.331
                      61     4 Jun 2027 19:46:26.577     4 Jun 2027 19:53:25.862           419.285
                      62     4 Jun 2027 21:24:36.819     4 Jun 2027 21:25:20.228            43.409
                      63     4 Jun 2027 21:25:42.502     4 Jun 2027 21:30:45.409           302.907
                      64     4 Jun 2027 23:02:49.573     4 Jun 2027 23:03:27.724            38.150
                      65     4 Jun 2027 23:03:56.936     4 Jun 2027 23:06:23.090           146.154
                      66     5 Jun 2027 00:26:16.695     5 Jun 2027 00:29:26.877           190.182
                      67     5 Jun 2027 02:02:43.603     5 Jun 2027 02:06:14.506           210.903
                      68     5 Jun 2027 03:37:56.880     5 Jun 2027 03:44:39.105           402.225
                      69     5 Jun 2027 05:13:52.872     5 Jun 2027 05:20:12.801           379.929
                      70     5 Jun 2027 06:51:51.056     5 Jun 2027 06:56:15.973           264.917
                      71     5 Jun 2027 08:27:42.613     5 Jun 2027 08:31:56.412           253.799
                      72     5 Jun 2027 08:32:02.418     5 Jun 2027 08:32:54.644            52.226
                      73     5 Jun 2027 13:34:36.110     5 Jun 2027 13:35:45.987            69.877
                      74     5 Jun 2027 15:10:18.947     5 Jun 2027 15:13:25.734           186.788
                      75     5 Jun 2027 16:46:26.434     5 Jun 2027 16:51:53.952           327.518
                      76     5 Jun 2027 18:22:55.209     5 Jun 2027 18:29:44.781           409.572
                      77     5 Jun 2027 19:58:23.587     5 Jun 2027 20:05:25.721           422.135
                      78     5 Jun 2027 21:37:41.785     5 Jun 2027 21:43:03.668           321.883
                      79     5 Jun 2027 21:43:52.652     5 Jun 2027 21:45:29.443            96.791
                      80     5 Jun 2027 23:03:47.568     5 Jun 2027 23:04:18.835            31.267
                      81     5 Jun 2027 23:14:47.035     5 Jun 2027 23:18:16.167           209.132
                      82     6 Jun 2027 00:38:42.758     6 Jun 2027 00:41:40.854           178.096
                      83     6 Jun 2027 02:14:28.381     6 Jun 2027 02:18:50.812           262.431
                      84     6 Jun 2027 03:49:12.609     6 Jun 2027 03:56:45.625           453.016
                      85     6 Jun 2027 05:26:02.313     6 Jun 2027 05:32:15.338           373.024
                      86     6 Jun 2027 07:04:13.609     6 Jun 2027 07:08:10.538           236.929
                      87     6 Jun 2027 08:37:31.579     6 Jun 2027 08:43:54.857           383.278
                      88     6 Jun 2027 08:44:11.722     6 Jun 2027 08:45:17.269            65.547
                      89     6 Jun 2027 13:45:59.356     6 Jun 2027 13:48:14.940           135.585
                      90     6 Jun 2027 15:22:13.146     6 Jun 2027 15:25:37.418           204.271
                      91     6 Jun 2027 16:58:51.726     6 Jun 2027 17:05:01.026           369.300
                      92     6 Jun 2027 18:35:03.025     6 Jun 2027 18:41:47.045           404.020
                      93     6 Jun 2027 20:11:04.161     6 Jun 2027 20:17:28.381           384.219
                      94     6 Jun 2027 21:50:02.270     6 Jun 2027 21:57:22.830           440.560
                      95     6 Jun 2027 23:15:06.874     6 Jun 2027 23:16:33.564            86.690
                      96     6 Jun 2027 23:26:46.089     6 Jun 2027 23:28:13.319            87.230
                      97     7 Jun 2027 00:49:03.844     7 Jun 2027 00:50:19.111            75.267
                      98     7 Jun 2027 00:51:00.048     7 Jun 2027 00:54:07.665           187.617
                      99     7 Jun 2027 02:24:19.741     7 Jun 2027 02:25:40.571            80.830
                     100     7 Jun 2027 02:26:11.968     7 Jun 2027 02:31:06.377           294.409
                     101     7 Jun 2027 04:01:20.296     7 Jun 2027 04:08:45.368           445.072
                     102     7 Jun 2027 05:38:18.266     7 Jun 2027 05:44:12.703           354.437
                     103     7 Jun 2027 07:16:14.749     7 Jun 2027 07:20:20.840           246.091
                     104     7 Jun 2027 08:49:34.859     7 Jun 2027 08:57:17.964           463.105
                     105     7 Jun 2027 13:57:57.461     7 Jun 2027 14:00:35.790           158.329
                     106     7 Jun 2027 15:34:19.679     7 Jun 2027 15:37:43.254           203.575
                     107     7 Jun 2027 15:39:21.573     7 Jun 2027 15:41:06.681           105.107
                     108     7 Jun 2027 17:10:52.415     7 Jun 2027 17:17:09.446           377.031
                     109     7 Jun 2027 18:47:07.899     7 Jun 2027 18:53:46.685           398.786
                     110     7 Jun 2027 20:23:11.477     7 Jun 2027 20:24:45.000            93.523
                     111     7 Jun 2027 20:24:47.007     7 Jun 2027 20:29:16.075           269.068
                     112     7 Jun 2027 22:02:17.774     7 Jun 2027 22:09:20.120           422.346
                     113     7 Jun 2027 23:26:28.293     7 Jun 2027 23:28:45.293           137.000
                     114     7 Jun 2027 23:38:44.716     7 Jun 2027 23:39:40.467            55.751
                     115     8 Jun 2027 01:00:42.977     8 Jun 2027 01:02:06.879            83.902
                     116     8 Jun 2027 01:02:50.372     8 Jun 2027 01:06:20.751           210.379
                     117     8 Jun 2027 02:35:43.984     8 Jun 2027 02:43:26.385           462.401
                     118     8 Jun 2027 02:43:53.741     8 Jun 2027 02:44:25.892            32.151
                     119     8 Jun 2027 04:13:22.204     8 Jun 2027 04:20:48.457           446.253
                     120     8 Jun 2027 05:50:08.412     8 Jun 2027 05:56:05.477           357.064
                     121     8 Jun 2027 05:56:24.345     8 Jun 2027 05:56:51.224            26.879
                     122     8 Jun 2027 07:28:13.546     8 Jun 2027 07:32:21.990           248.444
                     123     8 Jun 2027 09:02:02.153     8 Jun 2027 09:08:47.688           405.536
                     124     8 Jun 2027 14:10:00.502     8 Jun 2027 14:12:53.765           173.263
                     125     8 Jun 2027 15:46:29.086     8 Jun 2027 15:50:17.876           228.790
                     126     8 Jun 2027 15:51:12.884     8 Jun 2027 15:54:20.590           187.705
                     127     8 Jun 2027 17:23:02.045     8 Jun 2027 17:29:23.853           381.809
                     128     8 Jun 2027 18:58:34.763     8 Jun 2027 18:59:20.558            45.795
                     129     8 Jun 2027 18:59:26.556     8 Jun 2027 19:06:17.354           410.798
                     130     8 Jun 2027 20:35:38.371     8 Jun 2027 20:35:55.552            17.182
                     131     8 Jun 2027 20:36:04.301     8 Jun 2027 20:36:33.400            29.099
                     132     8 Jun 2027 20:36:38.080     8 Jun 2027 20:41:35.500           297.420
                     133     8 Jun 2027 22:14:23.170     8 Jun 2027 22:21:11.216           408.046
                     134     8 Jun 2027 23:38:35.771     8 Jun 2027 23:40:30.590           114.819
                     135     8 Jun 2027 23:51:06.362     8 Jun 2027 23:51:11.706             5.344
                     136     9 Jun 2027 01:12:25.109     9 Jun 2027 01:18:24.866           359.757
                     137     9 Jun 2027 02:47:17.167     9 Jun 2027 02:55:33.632           496.464
                     138     9 Jun 2027 02:55:51.069     9 Jun 2027 02:56:51.933            60.864
                     139     9 Jun 2027 04:25:23.033     9 Jun 2027 04:32:49.618           446.586
                     140     9 Jun 2027 06:02:17.755     9 Jun 2027 06:07:23.994           306.239
                     141     9 Jun 2027 06:07:35.521     9 Jun 2027 06:08:43.372            67.850
                     142     9 Jun 2027 07:39:26.234     9 Jun 2027 07:44:20.266           294.032
                     143     9 Jun 2027 09:14:17.199     9 Jun 2027 09:15:24.363            67.164
                     144     9 Jun 2027 09:16:08.129     9 Jun 2027 09:19:29.647           201.518
                     145     9 Jun 2027 14:22:05.921     9 Jun 2027 14:26:54.395           288.475
                     146     9 Jun 2027 15:58:26.136     9 Jun 2027 16:03:07.243           281.108
                     147     9 Jun 2027 16:03:16.535     9 Jun 2027 16:05:07.308           110.773
                     148     9 Jun 2027 16:05:50.864     9 Jun 2027 16:06:37.298            46.433
                     149     9 Jun 2027 17:35:00.450     9 Jun 2027 17:41:34.681           394.232
                     150     9 Jun 2027 19:10:32.569     9 Jun 2027 19:18:18.830           466.261
                     151     9 Jun 2027 20:48:14.526     9 Jun 2027 20:48:25.936            11.410
                     152     9 Jun 2027 20:48:37.525     9 Jun 2027 20:49:39.295            61.770
                     153     9 Jun 2027 20:49:44.644     9 Jun 2027 20:54:47.208           302.564
                     154     9 Jun 2027 22:26:44.660     9 Jun 2027 22:31:43.576           298.916
                     155     9 Jun 2027 23:50:31.650     9 Jun 2027 23:52:52.361           140.711
                     156    10 Jun 2027 01:26:44.717    10 Jun 2027 01:30:17.633           212.916
                     157    10 Jun 2027 03:00:17.789    10 Jun 2027 03:08:51.275           513.487
                     158    10 Jun 2027 04:37:49.566    10 Jun 2027 04:44:35.242           405.677
                     159    10 Jun 2027 06:14:45.706    10 Jun 2027 06:19:14.822           269.116
                     160    10 Jun 2027 06:19:19.717    10 Jun 2027 06:20:36.387            76.670
                     161    10 Jun 2027 07:51:39.342    10 Jun 2027 07:56:14.306           274.964
                     162    10 Jun 2027 09:28:49.453    10 Jun 2027 09:31:16.341           146.887
                     163    10 Jun 2027 14:34:22.547    10 Jun 2027 14:36:57.645           155.098
                     164    10 Jun 2027 14:37:29.304    10 Jun 2027 14:39:10.067           100.763
                     165    10 Jun 2027 16:10:20.987    10 Jun 2027 16:17:01.810           400.823
                     166    10 Jun 2027 17:47:03.765    10 Jun 2027 17:53:26.084           382.318
                     167    10 Jun 2027 19:22:33.795    10 Jun 2027 19:30:07.482           453.688
                     168    10 Jun 2027 21:00:45.877    10 Jun 2027 21:06:53.981           368.105
                     169    10 Jun 2027 22:38:44.141    10 Jun 2027 22:43:36.502           292.361
                     170    11 Jun 2027 00:02:22.570    11 Jun 2027 00:05:01.920           159.350
                     171    11 Jun 2027 01:38:49.577    11 Jun 2027 01:42:25.420           215.843
                     172    11 Jun 2027 03:10:57.739    11 Jun 2027 03:11:08.725            10.986
                     173    11 Jun 2027 03:12:56.429    11 Jun 2027 03:19:44.563           408.134
                     174    11 Jun 2027 03:19:47.569    11 Jun 2027 03:20:45.580            58.011
                     175    11 Jun 2027 04:49:55.150    11 Jun 2027 04:56:39.780           404.630
                     176    11 Jun 2027 06:27:20.408    11 Jun 2027 06:31:20.986           240.578
                     177    11 Jun 2027 06:31:23.458    11 Jun 2027 06:32:02.300            38.842
                     178    11 Jun 2027 08:03:41.869    11 Jun 2027 08:08:32.614           290.745
                     179    11 Jun 2027 09:41:59.327    11 Jun 2027 09:42:30.807            31.480
                     180    11 Jun 2027 14:46:28.908    11 Jun 2027 14:48:46.873           137.965
                     181    11 Jun 2027 16:22:25.208    11 Jun 2027 16:28:56.007           390.798
                     182    11 Jun 2027 17:59:06.752    11 Jun 2027 18:05:37.028           390.276
                     183    11 Jun 2027 19:34:39.794    11 Jun 2027 19:42:10.735           450.941
                     184    11 Jun 2027 21:12:51.760    11 Jun 2027 21:13:53.154            61.394
                     185    11 Jun 2027 21:13:59.730    11 Jun 2027 21:19:05.770           306.040
                     186    11 Jun 2027 22:51:16.054    11 Jun 2027 22:55:30.210           254.156
                     187    12 Jun 2027 00:14:30.769    12 Jun 2027 00:17:34.472           183.703
                     188    12 Jun 2027 01:50:59.326    12 Jun 2027 01:54:37.305           217.979
                     189    12 Jun 2027 03:26:10.461    12 Jun 2027 03:32:47.749           397.288
                     190    12 Jun 2027 05:02:29.196    12 Jun 2027 05:08:45.769           376.573
                     191    12 Jun 2027 06:39:52.128    12 Jun 2027 06:44:24.865           272.737
                     192    12 Jun 2027 08:16:02.118    12 Jun 2027 08:20:38.667           276.548
                     193    12 Jun 2027 14:58:35.251    12 Jun 2027 15:01:39.168           183.917
                     194    12 Jun 2027 16:34:29.910    12 Jun 2027 16:40:14.018           344.108
                     195    12 Jun 2027 18:11:11.592    12 Jun 2027 18:17:21.837           370.245
                     196    12 Jun 2027 19:46:37.768    12 Jun 2027 19:53:40.341           422.573
                     197    12 Jun 2027 21:24:51.754    12 Jun 2027 21:25:34.268            42.515
                     198    12 Jun 2027 21:25:57.107    12 Jun 2027 21:31:00.380           303.273
                     199    12 Jun 2027 23:03:04.316    12 Jun 2027 23:03:42.401            38.085
                     200    12 Jun 2027 23:04:11.383    12 Jun 2027 23:06:37.396           146.013
                     201    13 Jun 2027 00:27:13.045    13 Jun 2027 00:29:41.626           148.580
                     202    13 Jun 2027 02:02:58.017    13 Jun 2027 02:06:29.247           211.230
                     203    13 Jun 2027 03:38:11.351    13 Jun 2027 03:44:53.936           402.585
                     204    13 Jun 2027 05:14:07.726    13 Jun 2027 05:20:27.704           379.978
                     205    13 Jun 2027 06:52:05.577    13 Jun 2027 06:56:30.592           265.015
                     206    13 Jun 2027 08:27:57.071    13 Jun 2027 08:32:11.071           254.000
                     207    13 Jun 2027 08:32:17.125    13 Jun 2027 08:33:09.649            52.525
                     208    13 Jun 2027 13:34:50.151    13 Jun 2027 13:36:01.141            70.989
                     209    13 Jun 2027 15:10:33.357    13 Jun 2027 15:13:40.429           187.072
                     210    13 Jun 2027 16:46:41.266    13 Jun 2027 16:52:08.878           327.611
                     211    13 Jun 2027 18:23:10.003    13 Jun 2027 18:29:59.724           409.721
                     212    13 Jun 2027 19:58:38.351    13 Jun 2027 20:05:40.313           421.962
                     213    13 Jun 2027 21:37:56.571    13 Jun 2027 21:43:18.760           322.188
                     214    13 Jun 2027 21:44:07.064    13 Jun 2027 21:45:44.016            96.953
                     215    13 Jun 2027 23:04:01.715    13 Jun 2027 23:04:33.819            32.104
                     216    13 Jun 2027 23:15:01.685    13 Jun 2027 23:18:30.448           208.763

Min Duration         135     8 Jun 2027 23:51:06.362     8 Jun 2027 23:51:11.706             5.344
Max Duration          22     2 Jun 2027 03:00:03.047     2 Jun 2027 03:08:36.578           513.531
Mean Duration                                                                              245.164
Total Duration                                                                           52955.443


Russia-To-KinoSat_110303
------------------------
                  Access        Start Time (UTCG)           Stop Time (UTCG)        Duration (sec)
                  ------    ------------------------    ------------------------    --------------
                       1     1 Jun 2027 01:02:56.365     1 Jun 2027 01:04:17.331            80.966
                       2     1 Jun 2027 01:04:59.590     1 Jun 2027 01:08:33.171           213.581
                       3     1 Jun 2027 02:37:48.459     1 Jun 2027 02:45:39.415           470.956
                       4     1 Jun 2027 02:46:03.996     1 Jun 2027 02:46:55.171            51.174
                       5     1 Jun 2027 04:15:33.279     1 Jun 2027 04:22:58.977           445.698
                       6     1 Jun 2027 05:52:21.050     1 Jun 2027 05:58:14.431           353.381
                       7     1 Jun 2027 05:58:22.381     1 Jun 2027 05:59:03.529            41.148
                       8     1 Jun 2027 07:30:24.780     1 Jun 2027 07:34:32.367           247.587
                       9     1 Jun 2027 09:04:15.257     1 Jun 2027 09:10:55.972           400.716
                      10     1 Jun 2027 14:12:12.361     1 Jun 2027 14:15:01.105           168.744
                      11     1 Jun 2027 15:48:38.401     1 Jun 2027 15:52:36.187           237.786
                      12     1 Jun 2027 15:53:32.173     1 Jun 2027 15:56:37.390           185.217
                      13     1 Jun 2027 17:25:11.607     1 Jun 2027 17:31:37.894           386.287
                      14     1 Jun 2027 19:00:44.603     1 Jun 2027 19:08:31.711           467.108
                      15     1 Jun 2027 20:37:56.913     1 Jun 2027 20:38:03.132             6.219
                      16     1 Jun 2027 20:38:17.598     1 Jun 2027 20:38:45.225            27.627
                      17     1 Jun 2027 20:38:47.085     1 Jun 2027 20:43:48.631           301.546
                      18     1 Jun 2027 22:16:39.218     1 Jun 2027 22:23:21.364           402.146
                      19     1 Jun 2027 23:40:46.030     1 Jun 2027 23:42:56.099           130.068
                      20     2 Jun 2027 01:16:43.196     2 Jun 2027 01:20:37.474           234.278
                      21     2 Jun 2027 02:50:33.071     2 Jun 2027 02:57:52.693           439.622
                      22     2 Jun 2027 02:58:02.955     2 Jun 2027 02:59:02.608            59.654
                      23     2 Jun 2027 04:27:36.207     2 Jun 2027 04:34:56.323           440.116
                      24     2 Jun 2027 06:04:30.630     2 Jun 2027 06:09:33.572           302.942
                      25     2 Jun 2027 06:09:44.606     2 Jun 2027 06:10:51.209            66.603
                      26     2 Jun 2027 07:41:36.974     2 Jun 2027 07:46:30.275           293.301
                      27     2 Jun 2027 09:16:38.471     2 Jun 2027 09:17:21.691            43.221
                      28     2 Jun 2027 09:18:18.159     2 Jun 2027 09:21:37.993           199.834
                      29     2 Jun 2027 14:24:17.409     2 Jun 2027 14:26:34.667           137.258
                      30     2 Jun 2027 14:26:56.250     2 Jun 2027 14:29:29.363           153.113
                      31     2 Jun 2027 16:00:32.271     2 Jun 2027 16:05:24.177           291.906
                      32     2 Jun 2027 16:05:26.481     2 Jun 2027 16:07:24.640           118.158
                      33     2 Jun 2027 17:37:12.200     2 Jun 2027 17:43:46.785           394.585
                      34     2 Jun 2027 19:12:43.080     2 Jun 2027 19:20:22.951           459.871
                      35     2 Jun 2027 20:50:49.243     2 Jun 2027 20:51:49.228            59.985
                      36     2 Jun 2027 20:51:54.415     2 Jun 2027 20:57:01.717           307.303
                      37     2 Jun 2027 22:29:15.629     2 Jun 2027 22:33:57.609           281.980
                      38     2 Jun 2027 23:52:40.134     2 Jun 2027 23:55:04.938           144.804
                      39     3 Jun 2027 01:29:01.173     3 Jun 2027 01:32:29.074           207.900
                      40     3 Jun 2027 03:02:31.031     3 Jun 2027 03:11:01.857           510.826
                      41     3 Jun 2027 04:40:01.928     3 Jun 2027 04:46:46.839           404.912
                      42     3 Jun 2027 06:16:58.056     3 Jun 2027 06:21:21.431           263.375
                      43     3 Jun 2027 06:21:27.500     3 Jun 2027 06:22:44.926            77.426
                      44     3 Jun 2027 07:53:48.464     3 Jun 2027 07:58:21.042           272.578
                      45     3 Jun 2027 09:31:25.581     3 Jun 2027 09:33:08.508           102.928
                      46     3 Jun 2027 14:36:31.347     3 Jun 2027 14:39:04.528           153.180
                      47     3 Jun 2027 14:39:48.671     3 Jun 2027 14:41:09.284            80.613
                      48     3 Jun 2027 16:12:32.863     3 Jun 2027 16:19:10.681           397.818
                      49     3 Jun 2027 17:49:14.924     3 Jun 2027 17:55:38.392           383.468
                      50     3 Jun 2027 19:24:46.993     3 Jun 2027 19:32:20.430           453.438
                      51     3 Jun 2027 21:02:53.571     3 Jun 2027 21:03:20.402            26.831
                      52     3 Jun 2027 21:03:24.371     3 Jun 2027 21:09:03.140           338.769
                      53     3 Jun 2027 22:40:54.534     3 Jun 2027 22:45:42.186           287.651
                      54     4 Jun 2027 00:04:31.011     4 Jun 2027 00:07:13.835           162.823
                      55     4 Jun 2027 01:41:02.744     4 Jun 2027 01:44:36.388           213.644
                      56     4 Jun 2027 03:15:20.771     4 Jun 2027 03:21:56.004           395.232
                      57     4 Jun 2027 03:21:58.863     4 Jun 2027 03:22:57.097            58.234
                      58     4 Jun 2027 04:52:08.781     4 Jun 2027 04:58:51.512           402.731
                      59     4 Jun 2027 06:29:49.792     4 Jun 2027 06:34:17.165           267.373
                      60     4 Jun 2027 08:05:50.965     4 Jun 2027 08:10:38.768           287.803
                      61     4 Jun 2027 14:48:41.120     4 Jun 2027 14:50:58.316           137.197
                      62     4 Jun 2027 16:24:36.490     4 Jun 2027 16:30:58.034           381.544
                      63     4 Jun 2027 18:01:17.664     4 Jun 2027 18:07:46.703           389.040
                      64     4 Jun 2027 19:36:50.013     4 Jun 2027 19:44:14.886           444.873
                      65     4 Jun 2027 21:14:59.469     4 Jun 2027 21:16:00.806            61.337
                      66     4 Jun 2027 21:16:08.587     4 Jun 2027 21:21:13.809           305.221
                      67     4 Jun 2027 22:54:07.448     4 Jun 2027 22:57:33.730           206.282
                      68     5 Jun 2027 00:16:41.019     5 Jun 2027 00:19:47.152           186.133
                      69     5 Jun 2027 01:53:12.165     5 Jun 2027 01:56:46.115           213.950
                      70     5 Jun 2027 03:28:21.834     5 Jun 2027 03:34:58.768           396.934
                      71     5 Jun 2027 05:04:44.418     5 Jun 2027 05:10:57.380           372.962
                      72     5 Jun 2027 06:41:59.491     5 Jun 2027 06:46:37.574           278.082
                      73     5 Jun 2027 08:18:14.387     5 Jun 2027 08:22:57.790           283.402
                      74     5 Jun 2027 15:00:49.405     5 Jun 2027 15:03:54.070           184.664
                      75     5 Jun 2027 16:36:42.002     5 Jun 2027 16:42:20.213           338.212
                      76     5 Jun 2027 18:13:22.939     5 Jun 2027 18:19:31.389           368.449
                      77     5 Jun 2027 19:48:48.244     5 Jun 2027 19:55:48.509           420.265
                      78     5 Jun 2027 21:27:03.901     5 Jun 2027 21:27:45.207            41.306
                      79     5 Jun 2027 21:28:07.061     5 Jun 2027 21:33:08.718           301.657
                      80     5 Jun 2027 23:05:16.108     5 Jun 2027 23:05:52.644            36.535
                      81     5 Jun 2027 23:06:21.330     5 Jun 2027 23:08:48.301           146.972
                      82     6 Jun 2027 00:29:20.761     6 Jun 2027 00:31:53.013           152.251
                      83     6 Jun 2027 02:05:06.077     6 Jun 2027 02:09:03.069           236.992
                      84     6 Jun 2027 03:40:03.615     6 Jun 2027 03:47:06.037           422.422
                      85     6 Jun 2027 05:16:16.237     6 Jun 2027 05:22:43.910           387.673
                      86     6 Jun 2027 06:54:29.101     6 Jun 2027 06:58:27.822           238.721
                      87     6 Jun 2027 08:29:56.830     6 Jun 2027 08:34:20.645           263.815
                      88     6 Jun 2027 08:34:27.794     6 Jun 2027 08:35:24.951            57.156
                      89     6 Jun 2027 13:36:52.538     6 Jun 2027 13:38:17.574            85.036
                      90     6 Jun 2027 15:12:41.160     6 Jun 2027 15:15:49.591           188.431
                      91     6 Jun 2027 16:49:13.348     6 Jun 2027 16:54:21.877           308.529
                      92     6 Jun 2027 18:25:21.481     6 Jun 2027 18:32:09.109           407.629
                      93     6 Jun 2027 20:00:49.922     6 Jun 2027 20:07:57.507           427.586
                      94     6 Jun 2027 21:40:08.323     6 Jun 2027 21:45:47.593           339.270
                      95     6 Jun 2027 21:46:18.489     6 Jun 2027 21:47:53.638            95.149
                      96     6 Jun 2027 23:06:04.702     6 Jun 2027 23:06:48.522            43.820
                      97     6 Jun 2027 23:17:11.647     6 Jun 2027 23:18:55.491           103.844
                      98     6 Jun 2027 23:19:02.942     6 Jun 2027 23:20:31.192            88.250
                      99     7 Jun 2027 00:40:08.969     7 Jun 2027 00:44:23.383           254.414
                     100     7 Jun 2027 02:15:41.530     7 Jun 2027 02:15:52.203            10.674
                     101     7 Jun 2027 02:16:51.673     7 Jun 2027 02:21:20.751           269.078
                     102     7 Jun 2027 03:51:36.942     7 Jun 2027 03:59:10.926           453.984
                     103     7 Jun 2027 05:28:38.231     7 Jun 2027 05:34:45.929           367.699
                     104     7 Jun 2027 07:06:38.327     7 Jun 2027 07:10:35.346           237.019
                     105     7 Jun 2027 08:39:51.780     7 Jun 2027 08:46:01.969           370.189
                     106     7 Jun 2027 08:46:03.435     7 Jun 2027 08:47:45.093           101.658
                     107     7 Jun 2027 13:48:23.568     7 Jun 2027 13:50:49.286           145.718
                     108     7 Jun 2027 15:24:39.060     7 Jun 2027 15:28:02.754           203.694
                     109     7 Jun 2027 17:01:21.784     7 Jun 2027 17:07:34.889           373.104
                     110     7 Jun 2027 18:37:30.403     7 Jun 2027 18:44:05.882           395.479
                     111     7 Jun 2027 20:13:30.257     7 Jun 2027 20:19:55.779           385.522
                     112     7 Jun 2027 21:52:31.104     7 Jun 2027 21:59:46.688           435.584
                     113     7 Jun 2027 23:17:30.286     7 Jun 2027 23:19:01.017            90.731
                     114     7 Jun 2027 23:29:12.628     7 Jun 2027 23:30:33.361            80.732
                     115     8 Jun 2027 00:51:25.699     8 Jun 2027 00:52:39.224            73.524
                     116     8 Jun 2027 00:53:27.543     8 Jun 2027 00:56:36.704           189.161
                     117     8 Jun 2027 02:26:33.321     8 Jun 2027 02:28:02.174            88.853
                     118     8 Jun 2027 02:28:35.016     8 Jun 2027 02:33:33.614           298.598
                     119     8 Jun 2027 02:34:26.950     8 Jun 2027 02:34:44.273            17.322
                     120     8 Jun 2027 04:03:46.275     8 Jun 2027 04:11:11.949           445.674
                     121     8 Jun 2027 05:40:42.837     8 Jun 2027 05:46:51.879           369.042
                     122     8 Jun 2027 07:18:36.481     8 Jun 2027 07:22:37.603           241.122
                     123     8 Jun 2027 08:52:10.689     8 Jun 2027 08:59:42.748           452.059
                     124     8 Jun 2027 14:00:23.665     8 Jun 2027 14:03:01.964           158.300
                     125     8 Jun 2027 15:36:47.466     8 Jun 2027 15:40:09.971           202.505
                     126     8 Jun 2027 15:41:44.653     8 Jun 2027 15:43:56.772           132.119
                     127     8 Jun 2027 17:13:37.867     8 Jun 2027 17:19:33.798           355.930
                     128     8 Jun 2027 18:49:30.009     8 Jun 2027 18:56:17.624           407.615
                     129     8 Jun 2027 20:25:45.853     8 Jun 2027 20:31:44.361           358.508
                     130     8 Jun 2027 22:04:49.383     8 Jun 2027 22:11:49.427           420.044
                     131     8 Jun 2027 23:28:58.267     8 Jun 2027 23:31:13.368           135.101
                     132     8 Jun 2027 23:41:09.632     8 Jun 2027 23:41:49.307            39.675
                     133     9 Jun 2027 01:03:11.065     9 Jun 2027 01:04:32.126            81.061
                     134     9 Jun 2027 01:05:14.205     9 Jun 2027 01:08:48.009           213.804
                     135     9 Jun 2027 02:38:02.823     9 Jun 2027 02:45:54.203           471.380
                     136     9 Jun 2027 02:46:18.672     9 Jun 2027 02:47:12.817            54.145
                     137     9 Jun 2027 04:15:48.211     9 Jun 2027 04:23:13.682           445.471
                     138     9 Jun 2027 05:52:35.809     9 Jun 2027 05:58:29.017           353.208
                     139     9 Jun 2027 05:58:36.827     9 Jun 2027 05:59:18.286            41.459
                     140     9 Jun 2027 07:30:39.622     9 Jun 2027 07:34:47.205           247.583
                     141     9 Jun 2027 09:04:29.736     9 Jun 2027 09:11:10.433           400.697
                     142     9 Jun 2027 14:12:27.078     9 Jun 2027 14:15:16.400           169.322
                     143     9 Jun 2027 15:48:52.926     9 Jun 2027 15:52:51.911           238.985
