DATA_Files/Russia2Constellation/AreaTarget-Russia-To-Satellite-KinoSat_19_plane.txt

                                                                                                                                                                                                                                                                                           10 May 2023 22:44:26
Civil Air Patrol Use Only
AreaTarget-Russia-To-Satellite-KinoSat_111901, Satellite-KinoSat_111902, Satellite-KinoSat_111903, Satellite-KinoSat_111904, Satellite-KinoSat_111905, Satellite-KinoSat_111906, Satellite-KinoSat_111907, Satellite-KinoSat_111908, Satellite-KinoSat_111909, Satellite-KinoSat_111910:  Access Summary Report


Russia-To-KinoSat_111901
------------------------
                  Access        Start Time (UTCG)           Stop Time (UTCG)        Duration (sec)
                  ------    ------------------------    ------------------------    --------------
                       1     1 Jun 2027 00:27:30.744     1 Jun 2027 00:32:38.604           307.860
                       2     1 Jun 2027 02:03:39.014     1 Jun 2027 02:10:28.143           409.129
                       3     1 Jun 2027 03:39:08.687     1 Jun 2027 03:46:15.236           426.549
                       4     1 Jun 2027 05:18:25.780     1 Jun 2027 05:23:49.986           324.206
                       5     1 Jun 2027 05:24:35.048     1 Jun 2027 05:26:12.470            97.422
                       6     1 Jun 2027 06:44:36.952     1 Jun 2027 06:45:00.559            23.608
                       7     1 Jun 2027 06:55:29.175     1 Jun 2027 06:58:56.066           206.891
                       8     1 Jun 2027 08:19:27.574     1 Jun 2027 08:22:13.620           166.046
                       9     1 Jun 2027 09:55:12.228     1 Jun 2027 09:59:28.647           256.420
                      10     1 Jun 2027 11:29:55.926     1 Jun 2027 11:37:28.085           452.159
                      11     1 Jun 2027 13:06:44.133     1 Jun 2027 13:13:05.434           381.301
                      12     1 Jun 2027 14:44:58.977     1 Jun 2027 14:48:54.077           235.100
                      13     1 Jun 2027 16:18:15.647     1 Jun 2027 16:19:48.486            92.839
                      14     1 Jun 2027 16:19:52.099     1 Jun 2027 16:24:32.883           280.784
                      15     1 Jun 2027 16:24:53.859     1 Jun 2027 16:25:57.594            63.735
                      16     1 Jun 2027 21:26:41.287     1 Jun 2027 21:29:05.455           144.168
                      17     1 Jun 2027 23:02:56.878     1 Jun 2027 23:06:20.335           203.458
                      18     2 Jun 2027 00:39:39.650     2 Jun 2027 00:45:49.368           369.717
                      19     2 Jun 2027 02:15:48.252     2 Jun 2027 02:22:28.242           399.990
                      20     2 Jun 2027 03:51:48.543     2 Jun 2027 03:58:13.128           384.586
                      21     2 Jun 2027 05:30:48.958     2 Jun 2027 05:38:06.176           437.219
                      22     2 Jun 2027 06:55:51.382     2 Jun 2027 06:57:16.071            84.689
                      23     2 Jun 2027 07:07:30.490     2 Jun 2027 07:08:51.175            80.684
                      24     2 Jun 2027 08:30:03.114     2 Jun 2027 08:31:03.769            60.655
                      25     2 Jun 2027 08:31:44.129     2 Jun 2027 08:34:48.666           184.537
                      26     2 Jun 2027 10:05:05.982     2 Jun 2027 10:06:24.633            78.651
                      27     2 Jun 2027 10:06:56.848     2 Jun 2027 10:11:48.747           291.899
                      28     2 Jun 2027 11:42:04.446     2 Jun 2027 11:49:28.942           444.496
                      29     2 Jun 2027 13:19:02.597     2 Jun 2027 13:24:54.243           351.646
                      30     2 Jun 2027 13:25:04.583     2 Jun 2027 13:25:12.524             7.941
                      31     2 Jun 2027 14:56:57.547     2 Jun 2027 15:00:56.507           238.960
                      32     2 Jun 2027 16:30:17.888     2 Jun 2027 16:36:33.062           375.174
                      33     2 Jun 2027 16:36:42.113     2 Jun 2027 16:38:04.189            82.076
                      34     2 Jun 2027 21:38:41.837     2 Jun 2027 21:41:19.742           157.905
                      35     2 Jun 2027 23:15:06.031     2 Jun 2027 23:18:27.565           201.534
                      36     2 Jun 2027 23:20:03.396     2 Jun 2027 23:22:07.276           123.880
                      37     3 Jun 2027 00:51:55.550     3 Jun 2027 00:57:53.530           357.980
                      38     3 Jun 2027 02:27:48.191     3 Jun 2027 02:34:33.492           405.301
                      39     3 Jun 2027 04:04:06.696     3 Jun 2027 04:10:01.287           354.591
                      40     3 Jun 2027 05:43:07.649     3 Jun 2027 05:50:04.428           416.779
                      41     3 Jun 2027 07:07:12.635     3 Jun 2027 07:09:27.313           134.678
                      42     3 Jun 2027 07:19:27.785     3 Jun 2027 07:20:07.596            39.810
                      43     3 Jun 2027 08:41:27.327     3 Jun 2027 08:42:51.254            83.926
                      44     3 Jun 2027 08:43:36.047     3 Jun 2027 08:47:03.556           207.509
                      45     3 Jun 2027 10:16:30.451     3 Jun 2027 10:24:08.305           457.854
                      46     3 Jun 2027 10:24:39.734     3 Jun 2027 10:25:07.707            27.973
                      47     3 Jun 2027 11:54:06.736     3 Jun 2027 12:01:32.858           446.122
                      48     3 Jun 2027 13:30:52.513     3 Jun 2027 13:37:07.228           374.716
                      49     3 Jun 2027 13:37:11.083     3 Jun 2027 13:37:32.862            21.779
                      50     3 Jun 2027 15:08:57.377     3 Jun 2027 15:13:06.746           249.369
                      51     3 Jun 2027 16:42:45.462     3 Jun 2027 16:49:33.288           407.826
                      52     3 Jun 2027 21:50:45.657     3 Jun 2027 21:53:33.498           167.841
                      53     3 Jun 2027 21:54:37.909     3 Jun 2027 21:54:41.121             3.212
                      54     3 Jun 2027 23:27:10.912     3 Jun 2027 23:31:07.772           236.860
                      55     3 Jun 2027 23:32:08.757     3 Jun 2027 23:35:09.328           180.571
                      56     4 Jun 2027 01:03:45.303     4 Jun 2027 01:10:10.503           385.200
                      57     4 Jun 2027 02:39:16.574     4 Jun 2027 02:47:03.229           466.655
                      58     4 Jun 2027 04:16:30.705     4 Jun 2027 04:16:35.272             4.568
                      59     4 Jun 2027 04:16:51.875     4 Jun 2027 04:22:21.679           329.804
                      60     4 Jun 2027 05:55:12.844     4 Jun 2027 06:01:14.089           361.245
                      61     4 Jun 2027 07:19:20.268     4 Jun 2027 07:21:14.746           114.478
                      62     4 Jun 2027 08:53:09.753     4 Jun 2027 08:59:14.205           364.452
                      63     4 Jun 2027 10:28:01.795     4 Jun 2027 10:36:16.954           495.159
                      64     4 Jun 2027 10:36:36.874     4 Jun 2027 10:37:12.571            35.697
                      65     4 Jun 2027 10:37:13.651     4 Jun 2027 10:37:35.567            21.915
                      66     4 Jun 2027 12:06:07.558     4 Jun 2027 12:13:34.709           447.150
                      67     4 Jun 2027 13:43:01.733     4 Jun 2027 13:48:10.932           309.198
                      68     4 Jun 2027 13:48:36.969     4 Jun 2027 13:49:30.932            53.962
                      69     4 Jun 2027 15:20:10.835     4 Jun 2027 15:25:05.488           294.653
                      70     4 Jun 2027 16:55:01.297     4 Jun 2027 16:55:57.864            56.567
                      71     4 Jun 2027 16:56:52.834     4 Jun 2027 17:00:15.264           202.430
                      72     4 Jun 2027 22:03:13.198     4 Jun 2027 22:05:00.837           107.639
                      73     4 Jun 2027 22:05:29.534     4 Jun 2027 22:07:54.615           145.081
                      74     4 Jun 2027 23:39:05.197     4 Jun 2027 23:43:55.877           290.680
                      75     4 Jun 2027 23:44:00.136     4 Jun 2027 23:47:27.352           207.216
                      76     5 Jun 2027 01:15:47.034     5 Jun 2027 01:22:19.825           392.791
                      77     5 Jun 2027 02:51:16.371     5 Jun 2027 02:58:59.260           462.889
                      78     5 Jun 2027 04:29:24.345     5 Jun 2027 04:30:21.902            57.557
                      79     5 Jun 2027 04:30:28.074     5 Jun 2027 04:31:09.661            41.587
                      80     5 Jun 2027 04:31:09.808     5 Jun 2027 04:34:41.726           211.918
                      81     5 Jun 2027 06:07:49.747     5 Jun 2027 06:12:31.261           281.514
                      82     5 Jun 2027 07:31:17.051     5 Jun 2027 07:33:35.255           138.204
                      83     5 Jun 2027 09:07:21.132     5 Jun 2027 09:10:58.855           217.723
                      84     5 Jun 2027 10:41:02.639     5 Jun 2027 10:48:32.288           449.649
                      85     5 Jun 2027 10:48:36.512     5 Jun 2027 10:49:37.234            60.722
                      86     5 Jun 2027 12:18:33.691     5 Jun 2027 12:25:22.198           408.506
                      87     5 Jun 2027 13:55:29.955     5 Jun 2027 13:59:59.545           269.591
                      88     5 Jun 2027 14:00:05.686     5 Jun 2027 14:01:21.322            75.636
                      89     5 Jun 2027 15:32:23.977     5 Jun 2027 15:37:03.254           279.277
                      90     5 Jun 2027 17:09:34.098     5 Jun 2027 17:12:02.286           148.188
                      91     5 Jun 2027 22:15:05.084     5 Jun 2027 22:17:38.210           153.126
                      92     5 Jun 2027 22:18:21.721     5 Jun 2027 22:19:46.049            84.328
                      93     5 Jun 2027 23:51:07.515     5 Jun 2027 23:57:45.577           398.062
                      94     6 Jun 2027 01:27:48.949     6 Jun 2027 01:34:12.632           383.683
                      95     6 Jun 2027 03:03:21.831     6 Jun 2027 03:10:54.402           452.570
                      96     6 Jun 2027 04:41:25.819     6 Jun 2027 04:41:53.946            28.127
                      97     6 Jun 2027 04:41:56.789     6 Jun 2027 04:47:37.288           340.498
                      98     6 Jun 2027 06:19:28.661     6 Jun 2027 06:24:18.805           290.145
                      99     6 Jun 2027 07:43:07.912     6 Jun 2027 07:45:46.984           159.072
                     100     6 Jun 2027 09:19:34.786     6 Jun 2027 09:23:09.328           214.542
                     101     6 Jun 2027 10:51:42.842     6 Jun 2027 10:51:53.904            11.061
                     102     6 Jun 2027 10:53:41.712     6 Jun 2027 11:00:30.351           408.639
                     103     6 Jun 2027 11:00:33.412     6 Jun 2027 11:01:34.823            61.411
                     104     6 Jun 2027 12:30:40.543     6 Jun 2027 12:37:24.214           403.671
                     105     6 Jun 2027 14:08:03.930     6 Jun 2027 14:12:05.302           241.372
                     106     6 Jun 2027 14:12:07.630     6 Jun 2027 14:12:42.979            35.349
                     107     6 Jun 2027 15:44:26.750     6 Jun 2027 15:49:31.955           305.205
                     108     6 Jun 2027 17:22:42.589     6 Jun 2027 17:23:23.509            40.920
                     109     6 Jun 2027 22:27:16.019     6 Jun 2027 22:29:32.835           136.816
                     110     7 Jun 2027 00:03:11.320     7 Jun 2027 00:09:32.894           381.574
                     111     7 Jun 2027 01:39:52.851     7 Jun 2027 01:46:21.720           388.869
                     112     7 Jun 2027 03:15:24.692     7 Jun 2027 03:22:50.699           446.007
                     113     7 Jun 2027 04:53:33.876     7 Jun 2027 04:54:34.422            60.546
                     114     7 Jun 2027 04:54:42.941     7 Jun 2027 04:59:49.246           306.305
                     115     7 Jun 2027 06:32:42.089     7 Jun 2027 06:36:10.591           208.502
                     116     7 Jun 2027 07:55:16.434     7 Jun 2027 07:58:18.500           182.066
                     117     7 Jun 2027 09:31:44.855     7 Jun 2027 09:35:23.446           218.592
                     118     7 Jun 2027 11:06:56.180     7 Jun 2027 11:13:36.297           400.117
                     119     7 Jun 2027 12:43:14.841     7 Jun 2027 12:49:31.075           376.234
                     120     7 Jun 2027 14:20:37.689     7 Jun 2027 14:25:09.524           271.835
                     121     7 Jun 2027 15:56:47.882     7 Jun 2027 16:01:02.545           254.663
                     122     7 Jun 2027 21:04:29.442     7 Jun 2027 21:04:43.732            14.289
                     123     7 Jun 2027 22:39:25.883     7 Jun 2027 22:42:28.884           183.000
                     124     8 Jun 2027 00:15:17.339     8 Jun 2027 00:20:55.079           337.740
                     125     8 Jun 2027 01:51:57.717     8 Jun 2027 01:58:06.536           368.819
                     126     8 Jun 2027 03:27:22.097     8 Jun 2027 03:34:23.662           421.565
                     127     8 Jun 2027 05:05:38.743     8 Jun 2027 05:05:55.508            16.765
                     128     8 Jun 2027 05:06:41.467     8 Jun 2027 05:11:43.168           301.702
                     129     8 Jun 2027 05:13:56.948     8 Jun 2027 05:14:22.007            25.058
                     130     8 Jun 2027 06:43:50.394     8 Jun 2027 06:44:27.602            37.208
                     131     8 Jun 2027 06:44:56.707     8 Jun 2027 06:47:23.002           146.295
                     132     8 Jun 2027 08:07:59.081     8 Jun 2027 08:10:27.291           148.210
                     133     8 Jun 2027 09:43:44.528     8 Jun 2027 09:47:11.699           207.171
                     134     8 Jun 2027 11:18:57.391     8 Jun 2027 11:25:35.207           397.816
                     135     8 Jun 2027 12:54:53.836     8 Jun 2027 13:01:11.691           377.855
                     136     8 Jun 2027 14:32:51.693     8 Jun 2027 14:37:17.199           265.506
                     137     8 Jun 2027 16:08:43.052     8 Jun 2027 16:12:57.521           254.469
                     138     8 Jun 2027 16:13:03.304     8 Jun 2027 16:13:54.021            50.717
                     139     8 Jun 2027 21:15:25.094     8 Jun 2027 21:16:53.179            88.085
                     140     8 Jun 2027 22:51:15.199     8 Jun 2027 22:54:24.807           189.608
                     141     9 Jun 2027 00:27:48.164     9 Jun 2027 00:32:56.985           308.821
                     142     9 Jun 2027 02:03:56.986     9 Jun 2027 02:10:44.353           407.367
                     143     9 Jun 2027 03:39:52.100     9 Jun 2027 03:46:32.982           400.883
                     144     9 Jun 2027 05:18:44.234     9 Jun 2027 05:24:22.785           338.551
                     145     9 Jun 2027 05:24:53.566     9 Jun 2027 05:26:29.560            95.993
                     146     9 Jun 2027 06:44:51.066     9 Jun 2027 06:45:19.602            28.535
                     147     9 Jun 2027 06:55:46.578     9 Jun 2027 06:57:30.338           103.760
                     148     9 Jun 2027 06:57:39.938     9 Jun 2027 06:59:06.403            86.465
                     149     9 Jun 2027 08:19:06.190     9 Jun 2027 08:22:40.714           214.525
                     150     9 Jun 2027 09:55:29.166     9 Jun 2027 09:59:47.389           258.222
                     151     9 Jun 2027 11:30:13.999     9 Jun 2027 11:37:46.306           452.308
                     152     9 Jun 2027 13:07:03.385     9 Jun 2027 13:13:22.679           379.294
                     153     9 Jun 2027 14:45:14.396     9 Jun 2027 14:49:11.825           237.429
                     154     9 Jun 2027 16:18:31.569     9 Jun 2027 16:20:15.487           103.918
                     155     9 Jun 2027 16:20:19.606     9 Jun 2027 16:24:55.343           275.737
                     156     9 Jun 2027 16:25:12.687     9 Jun 2027 16:26:16.555            63.869
                     157     9 Jun 2027 21:26:58.390     9 Jun 2027 21:29:25.302           146.912
                     158     9 Jun 2027 23:03:15.017     9 Jun 2027 23:06:38.384           203.366
                     159    10 Jun 2027 00:39:57.529    10 Jun 2027 00:46:10.354           372.826
                     160    10 Jun 2027 02:16:05.203    10 Jun 2027 02:22:41.478           396.275
                     161    10 Jun 2027 03:52:06.792    10 Jun 2027 03:58:31.457           384.665
                     162    10 Jun 2027 05:31:08.273    10 Jun 2027 05:38:23.056           434.783
                     163    10 Jun 2027 06:56:08.657    10 Jun 2027 06:57:34.526            85.869
                     164    10 Jun 2027 07:07:48.574    10 Jun 2027 07:09:08.619            80.046
                     165    10 Jun 2027 08:30:04.679    10 Jun 2027 08:31:20.509            75.830
                     166    10 Jun 2027 08:32:01.582    10 Jun 2027 08:35:07.265           185.683
                     167    10 Jun 2027 10:05:16.828    10 Jun 2027 10:06:41.766            84.937
                     168    10 Jun 2027 10:07:13.079    10 Jun 2027 10:12:07.269           294.190
                     169    10 Jun 2027 11:42:21.403    10 Jun 2027 11:49:46.862           445.460
                     170    10 Jun 2027 13:19:19.492    10 Jun 2027 13:25:13.129           353.637
                     171    10 Jun 2027 13:25:16.953    10 Jun 2027 13:25:28.661            11.708
                     172    10 Jun 2027 14:57:15.999    10 Jun 2027 15:01:14.757           238.758
                     173    10 Jun 2027 16:30:37.334    10 Jun 2027 16:38:21.798           464.464
                     174    10 Jun 2027 21:38:59.562    10 Jun 2027 21:41:38.083           158.520
                     175    10 Jun 2027 23:15:24.986    10 Jun 2027 23:18:46.571           201.585
                     176    10 Jun 2027 23:20:20.584    10 Jun 2027 23:22:31.930           131.346
                     177    11 Jun 2027 00:52:12.430    11 Jun 2027 00:58:09.902           357.473
                     178    11 Jun 2027 02:27:44.773    11 Jun 2027 02:27:52.473             7.700
                     179    11 Jun 2027 02:28:06.550    11 Jun 2027 02:34:53.550           407.001
                     180    11 Jun 2027 04:04:24.719    11 Jun 2027 04:10:20.485           355.766
                     181    11 Jun 2027 05:43:27.002    11 Jun 2027 05:50:24.942           417.940
                     182    11 Jun 2027 07:07:30.209    11 Jun 2027 07:09:46.519           136.310
                     183    11 Jun 2027 07:19:45.655    11 Jun 2027 07:20:24.378            38.723
                     184    11 Jun 2027 08:41:45.892    11 Jun 2027 08:43:07.990            82.099
                     185    11 Jun 2027 08:43:52.137    11 Jun 2027 08:47:22.014           209.877
                     186    11 Jun 2027 10:16:44.560    11 Jun 2027 10:24:26.859           462.299
                     187    11 Jun 2027 10:24:56.550    11 Jun 2027 10:25:26.821            30.270
                     188    11 Jun 2027 11:54:23.718    11 Jun 2027 12:01:50.781           447.063
                     189    11 Jun 2027 13:31:10.492    11 Jun 2027 13:37:16.455           365.963
                     190    11 Jun 2027 13:37:20.852    11 Jun 2027 13:37:51.508            30.655
                     191    11 Jun 2027 15:09:13.595    11 Jun 2027 15:13:24.224           250.629
                     192    11 Jun 2027 16:43:04.052    11 Jun 2027 16:49:50.073           406.021
                     193    11 Jun 2027 21:51:04.087    11 Jun 2027 21:53:57.221           173.134
                     194    11 Jun 2027 21:54:51.395    11 Jun 2027 21:55:02.436            11.041
                     195    11 Jun 2027 23:27:28.055    11 Jun 2027 23:31:29.281           241.225
                     196    11 Jun 2027 23:32:22.479    11 Jun 2027 23:35:28.530           186.051
                     197    12 Jun 2027 01:04:04.296    12 Jun 2027 01:10:29.081           384.785
                     198    12 Jun 2027 02:39:33.906    12 Jun 2027 02:47:23.009           469.103
                     199    12 Jun 2027 04:17:10.776    12 Jun 2027 04:17:35.839            25.063
                     200    12 Jun 2027 04:17:38.266    12 Jun 2027 04:22:39.695           301.429
                     201    12 Jun 2027 05:55:33.000    12 Jun 2027 06:01:32.424           359.424
                     202    12 Jun 2027 07:19:38.011    12 Jun 2027 07:21:32.736           114.726
                     203    12 Jun 2027 08:53:26.207    12 Jun 2027 08:59:26.945           360.738
                     204    12 Jun 2027 10:28:18.500    12 Jun 2027 10:36:35.360           496.860
                     205    12 Jun 2027 10:36:54.099    12 Jun 2027 10:37:30.983            36.884
                     206    12 Jun 2027 10:37:31.175    12 Jun 2027 10:37:53.760            22.585
                     207    12 Jun 2027 12:06:26.134    12 Jun 2027 12:13:52.662           446.528
                     208    12 Jun 2027 13:43:21.218    12 Jun 2027 13:48:26.568           305.350
                     209    12 Jun 2027 13:48:37.950    12 Jun 2027 13:49:47.108            69.158
                     210    12 Jun 2027 15:20:28.407    12 Jun 2027 15:25:22.809           294.402
                     211    12 Jun 2027 16:55:23.983    12 Jun 2027 16:56:22.500            58.517
                     212    12 Jun 2027 16:57:10.890    12 Jun 2027 17:00:31.896           201.005
                     213    12 Jun 2027 22:03:31.619    12 Jun 2027 22:05:19.834           108.215
                     214    12 Jun 2027 22:05:48.778    12 Jun 2027 22:08:23.003           154.225
                     215    12 Jun 2027 23:39:22.266    12 Jun 2027 23:46:16.616           414.350
                     216    13 Jun 2027 01:16:05.878    13 Jun 2027 01:22:38.636           392.758
                     217    13 Jun 2027 02:51:33.752    13 Jun 2027 02:59:13.783           460.031
                     218    13 Jun 2027 04:29:43.802    13 Jun 2027 04:30:35.319            51.517
                     219    13 Jun 2027 04:30:45.360    13 Jun 2027 04:31:27.357            41.997
                     220    13 Jun 2027 04:31:27.913    13 Jun 2027 04:34:58.135           210.222
                     221    13 Jun 2027 06:08:07.625    13 Jun 2027 06:12:48.511           280.886
                     222    13 Jun 2027 07:31:33.824    13 Jun 2027 07:33:54.405           140.581
                     223    13 Jun 2027 09:07:48.397    13 Jun 2027 09:11:19.323           210.926
                     224    13 Jun 2027 10:41:20.908    13 Jun 2027 10:48:51.412           450.504
                     225    13 Jun 2027 10:48:53.352    13 Jun 2027 10:49:54.628            61.276
                     226    13 Jun 2027 12:18:53.513    13 Jun 2027 12:25:37.711           404.198
                     227    13 Jun 2027 13:55:48.126    13 Jun 2027 14:00:17.587           269.461
                     228    13 Jun 2027 14:00:22.573    13 Jun 2027 14:01:39.282            76.709
                     229    13 Jun 2027 15:32:41.084    13 Jun 2027 15:37:17.300           276.215
                     230    13 Jun 2027 17:09:51.810    13 Jun 2027 17:12:18.653           146.843
                     231    13 Jun 2027 22:15:22.738    13 Jun 2027 22:17:56.778           154.040
                     232    13 Jun 2027 22:18:43.273    13 Jun 2027 22:19:57.914            74.641
                     233    13 Jun 2027 23:51:25.924    13 Jun 2027 23:58:01.398           395.473

Min Duration          53     3 Jun 2027 21:54:37.909     3 Jun 2027 21:54:41.121             3.212
Max Duration         204    12 Jun 2027 10:28:18.500    12 Jun 2027 10:36:35.360           496.860
Mean Duration                                                                              233.963
Total Duration                                                                           54513.299


Russia-To-KinoSat_111902
------------------------
                  Access        Start Time (UTCG)           Stop Time (UTCG)        Duration (sec)
                  ------    ------------------------    ------------------------    --------------
                       1     1 Jun 2027 00:17:25.897     1 Jun 2027 00:23:02.339           336.442
                       2     1 Jun 2027 01:54:00.345     1 Jun 2027 02:00:14.833           374.488
                       3     1 Jun 2027 03:29:31.061     1 Jun 2027 03:36:30.232           419.172
                       4     1 Jun 2027 05:07:47.395     1 Jun 2027 05:07:58.502            11.107
                       5     1 Jun 2027 05:08:49.287     1 Jun 2027 05:13:55.799           306.512
                       6     1 Jun 2027 05:15:56.432     1 Jun 2027 05:16:39.885            43.453
                       7     1 Jun 2027 06:45:57.991     1 Jun 2027 06:46:36.408            38.418
                       8     1 Jun 2027 06:47:04.878     1 Jun 2027 06:49:34.809           149.930
                       9     1 Jun 2027 08:10:07.353     1 Jun 2027 08:12:35.926           148.573
                      10     1 Jun 2027 09:45:50.431     1 Jun 2027 09:49:23.560           213.128
                      11     1 Jun 2027 11:20:47.829     1 Jun 2027 11:27:47.058           419.228
                      12     1 Jun 2027 12:56:59.924     1 Jun 2027 13:03:21.953           382.028
                      13     1 Jun 2027 14:35:00.320     1 Jun 2027 14:39:24.626           264.306
                      14     1 Jun 2027 16:10:41.154     1 Jun 2027 16:15:05.239           264.085
                      15     1 Jun 2027 16:15:11.312     1 Jun 2027 16:16:05.179            53.867
                      16     1 Jun 2027 21:17:27.838     1 Jun 2027 21:19:04.516            96.678
                      17     1 Jun 2027 22:53:22.466     1 Jun 2027 22:56:32.615           190.149
                      18     2 Jun 2027 00:29:56.120     2 Jun 2027 00:35:06.249           310.129
                      19     2 Jun 2027 02:06:06.098     2 Jun 2027 02:12:53.848           407.751
                      20     2 Jun 2027 03:42:07.327     2 Jun 2027 03:48:40.080           392.753
                      21     2 Jun 2027 05:20:52.757     2 Jun 2027 05:26:30.403           337.646
                      22     2 Jun 2027 05:27:01.614     2 Jun 2027 05:28:31.479            89.865
                      23     2 Jun 2027 06:46:54.382     2 Jun 2027 06:47:29.111            34.729
                      24     2 Jun 2027 06:57:54.476     2 Jun 2027 06:59:36.202           101.726
                      25     2 Jun 2027 06:59:55.150     2 Jun 2027 07:01:13.335            78.185
                      26     2 Jun 2027 08:20:54.770     2 Jun 2027 08:24:50.795           236.025
                      27     2 Jun 2027 09:56:26.424     2 Jun 2027 09:56:32.523             6.099
                      28     2 Jun 2027 09:57:36.136     2 Jun 2027 10:02:00.404           264.267
                      29     2 Jun 2027 11:32:21.456     2 Jun 2027 11:39:55.069           453.612
                      30     2 Jun 2027 13:09:21.592     2 Jun 2027 13:15:31.105           369.513
                      31     2 Jun 2027 14:47:22.534     2 Jun 2027 14:51:19.775           237.240
                      32     2 Jun 2027 16:20:36.500     2 Jun 2027 16:27:06.047           389.546
                      33     2 Jun 2027 16:27:22.003     2 Jun 2027 16:28:28.360            66.357
                      34     2 Jun 2027 21:29:06.027     2 Jun 2027 21:31:38.033           152.006
                      35     2 Jun 2027 23:05:23.916     2 Jun 2027 23:08:50.555           206.639
                      36     3 Jun 2027 00:42:05.646     3 Jun 2027 00:48:18.426           372.780
                      37     3 Jun 2027 02:18:12.267     3 Jun 2027 02:24:50.593           398.327
                      38     3 Jun 2027 03:54:16.163     3 Jun 2027 04:00:40.355           384.193
                      39     3 Jun 2027 05:33:21.044     3 Jun 2027 05:40:29.861           428.817
                      40     3 Jun 2027 06:58:15.236     3 Jun 2027 06:59:44.094            88.858
                      41     3 Jun 2027 07:09:57.465     3 Jun 2027 07:11:14.005            76.540
                      42     3 Jun 2027 08:32:10.816     3 Jun 2027 08:33:25.994            75.178
                      43     3 Jun 2027 08:34:10.301     3 Jun 2027 08:37:17.902           187.601
                      44     3 Jun 2027 10:07:18.159     3 Jun 2027 10:08:46.744            88.585
                      45     3 Jun 2027 10:09:19.895     3 Jun 2027 10:14:16.239           296.343
                      46     3 Jun 2027 11:44:30.085     3 Jun 2027 11:51:54.611           444.526
                      47     3 Jun 2027 13:21:27.489     3 Jun 2027 13:27:36.307           368.817
                      48     3 Jun 2027 14:59:20.463     3 Jun 2027 15:03:22.765           242.301
                      49     3 Jun 2027 16:32:49.539     3 Jun 2027 16:40:27.445           457.906
                      50     3 Jun 2027 21:41:07.276     3 Jun 2027 21:43:46.734           159.458
                      51     3 Jun 2027 23:17:35.094     3 Jun 2027 23:20:56.136           201.041
                      52     3 Jun 2027 23:22:26.573     3 Jun 2027 23:24:47.328           140.755
                      53     4 Jun 2027 00:54:20.591     4 Jun 2027 01:00:15.949           355.359
                      54     4 Jun 2027 02:29:50.434     4 Jun 2027 02:30:03.106            12.672
                      55     4 Jun 2027 02:30:17.156     4 Jun 2027 02:37:04.842           407.686
                      56     4 Jun 2027 04:06:35.004     4 Jun 2027 04:07:05.998            30.994
                      57     4 Jun 2027 04:07:07.429     4 Jun 2027 04:12:31.160           323.731
                      58     4 Jun 2027 05:45:31.875     4 Jun 2027 05:52:31.986           420.111
                      59     4 Jun 2027 07:09:41.399     4 Jun 2027 07:11:56.115           134.716
                      60     4 Jun 2027 07:21:58.570     4 Jun 2027 07:22:30.682            32.111
                      61     4 Jun 2027 08:43:55.824     4 Jun 2027 08:45:15.142            79.318
                      62     4 Jun 2027 08:45:59.431     4 Jun 2027 08:49:31.138           211.708
                      63     4 Jun 2027 10:18:47.792     4 Jun 2027 10:26:36.696           468.905
                      64     4 Jun 2027 10:27:04.121     4 Jun 2027 10:27:35.893            31.772
                      65     4 Jun 2027 11:56:32.249     4 Jun 2027 12:03:58.785           446.535
                      66     4 Jun 2027 13:33:20.224     4 Jun 2027 13:39:15.207           354.983
                      67     4 Jun 2027 13:39:34.341     4 Jun 2027 13:40:01.784            27.443
                      68     4 Jun 2027 15:11:22.607     4 Jun 2027 15:15:31.773           249.165
                      69     4 Jun 2027 16:45:14.490     4 Jun 2027 16:51:56.721           402.231
                      70     4 Jun 2027 21:53:12.843     4 Jun 2027 21:56:08.566           175.723
                      71     4 Jun 2027 21:57:27.466     4 Jun 2027 21:57:34.107             6.641
                      72     4 Jun 2027 23:29:36.009     4 Jun 2027 23:33:43.064           247.055
                      73     4 Jun 2027 23:34:25.470     4 Jun 2027 23:37:39.564           194.094
                      74     5 Jun 2027 01:06:11.330     5 Jun 2027 01:12:39.183           387.853
                      75     5 Jun 2027 02:41:42.102     5 Jun 2027 02:49:29.269           467.168
                      76     5 Jun 2027 04:19:19.806     5 Jun 2027 04:19:43.408            23.602
                      77     5 Jun 2027 04:19:46.658     5 Jun 2027 04:21:01.911            75.254
                      78     5 Jun 2027 04:21:09.329     5 Jun 2027 04:24:53.919           224.590
                      79     5 Jun 2027 05:57:42.501     5 Jun 2027 06:02:57.126           314.625
                      80     5 Jun 2027 07:21:45.817     5 Jun 2027 07:23:47.252           121.435
                      81     5 Jun 2027 08:57:43.268     5 Jun 2027 09:01:35.638           232.369
                      82     5 Jun 2027 10:31:32.663     5 Jun 2027 10:38:44.317           431.653
                      83     5 Jun 2027 10:39:01.701     5 Jun 2027 10:40:02.597            60.896
                      84     5 Jun 2027 12:08:35.797     5 Jun 2027 12:16:00.430           444.634
                      85     5 Jun 2027 13:45:30.276     5 Jun 2027 13:50:33.868           303.592
                      86     5 Jun 2027 13:50:45.422     5 Jun 2027 13:51:53.204            67.783
                      87     5 Jun 2027 15:22:36.592     5 Jun 2027 15:27:30.306           293.714
                      88     5 Jun 2027 16:57:38.376     5 Jun 2027 16:58:21.427            43.050
                      89     5 Jun 2027 16:59:17.856     5 Jun 2027 17:02:38.487           200.631
                      90     5 Jun 2027 22:05:36.516     5 Jun 2027 22:07:46.909           130.393
                      91     5 Jun 2027 22:08:01.513     5 Jun 2027 22:10:36.178           154.666
                      92     5 Jun 2027 23:41:30.085     5 Jun 2027 23:48:26.533           416.448
                      93     6 Jun 2027 01:18:15.131     6 Jun 2027 01:24:46.085           390.954
                      94     6 Jun 2027 02:53:42.081     6 Jun 2027 03:01:21.746           459.665
                      95     6 Jun 2027 04:31:57.376     6 Jun 2027 04:32:42.111            44.734
                      96     6 Jun 2027 04:32:51.161     6 Jun 2027 04:33:34.616            43.454
                      97     6 Jun 2027 04:33:35.919     6 Jun 2027 04:37:08.292           212.373
                      98     6 Jun 2027 06:10:17.348     6 Jun 2027 06:14:55.790           278.442
                      99     6 Jun 2027 07:33:40.886     6 Jun 2027 07:36:04.155           143.269
                     100     6 Jun 2027 09:10:00.535     6 Jun 2027 09:13:28.768           208.232
                     101     6 Jun 2027 10:43:31.055     6 Jun 2027 10:51:00.708           449.653
                     102     6 Jun 2027 10:51:00.794     6 Jun 2027 10:52:02.476            61.681
                     103     6 Jun 2027 12:21:02.027     6 Jun 2027 12:27:46.415           404.388
                     104     6 Jun 2027 13:57:58.078     6 Jun 2027 14:02:24.696           266.618
                     105     6 Jun 2027 14:02:29.670     6 Jun 2027 14:03:46.638            76.968
                     106     6 Jun 2027 15:34:48.514     6 Jun 2027 15:39:21.165           272.651
                     107     6 Jun 2027 17:12:25.671     6 Jun 2027 17:14:25.620           119.949
                     108     6 Jun 2027 22:17:33.991     6 Jun 2027 22:19:52.959           138.968
                     109     6 Jun 2027 22:20:52.315     6 Jun 2027 22:21:58.298            65.983
                     110     6 Jun 2027 23:53:34.960     7 Jun 2027 00:00:07.546           392.586
                     111     7 Jun 2027 01:30:16.239     7 Jun 2027 01:36:37.879           381.641
                     112     7 Jun 2027 03:05:49.882     7 Jun 2027 03:13:21.502           451.619
                     113     7 Jun 2027 04:43:51.223     7 Jun 2027 04:43:56.839             5.615
                     114     7 Jun 2027 04:44:09.174     7 Jun 2027 04:50:07.875           358.702
                     115     7 Jun 2027 06:21:55.519     7 Jun 2027 06:26:32.471           276.953
                     116     7 Jun 2027 07:45:31.675     7 Jun 2027 07:48:13.992           162.318
                     117     7 Jun 2027 09:22:02.992     7 Jun 2027 09:25:36.869           213.877
                     118     7 Jun 2027 10:56:30.379     7 Jun 2027 11:02:55.975           385.596
                     119     7 Jun 2027 11:02:59.123     7 Jun 2027 11:03:57.053            57.929
                     120     7 Jun 2027 12:33:10.404     7 Jun 2027 12:39:51.241           400.837
                     121     7 Jun 2027 14:10:50.465     7 Jun 2027 14:15:15.177           264.712
                     122     7 Jun 2027 15:46:51.380     7 Jun 2027 15:51:40.614           289.233
                     123     7 Jun 2027 22:29:41.269     7 Jun 2027 22:32:10.624           149.355
                     124     8 Jun 2027 00:05:37.919     8 Jun 2027 00:11:49.237           371.318
                     125     8 Jun 2027 01:42:20.561     8 Jun 2027 01:48:46.674           386.113
                     126     8 Jun 2027 03:17:51.637     8 Jun 2027 03:25:09.795           438.159
                     127     8 Jun 2027 04:56:00.152     8 Jun 2027 04:57:01.618            61.465
                     128     8 Jun 2027 04:57:09.294     8 Jun 2027 05:02:19.816           310.522
                     129     8 Jun 2027 06:34:18.602     8 Jun 2027 06:34:49.448            30.847
                     130     8 Jun 2027 06:35:07.928     8 Jun 2027 06:38:10.885           182.957
                     131     8 Jun 2027 07:57:41.746     8 Jun 2027 08:00:47.019           185.273
                     132     8 Jun 2027 09:34:12.792     8 Jun 2027 09:37:48.221           215.430
                     133     8 Jun 2027 11:09:22.501     8 Jun 2027 11:15:59.577           397.076
                     134     8 Jun 2027 12:45:45.525     8 Jun 2027 12:51:57.933           372.407
                     135     8 Jun 2027 14:23:00.054     8 Jun 2027 14:27:37.836           277.782
                     136     8 Jun 2027 15:59:16.665     8 Jun 2027 16:03:54.421           277.757
                     137     8 Jun 2027 22:41:51.567     8 Jun 2027 22:44:57.183           185.617
                     138     9 Jun 2027 00:17:43.412     9 Jun 2027 00:23:21.431           338.019
                     139     9 Jun 2027 01:54:18.142     9 Jun 2027 02:00:33.135           374.993
                     140     9 Jun 2027 03:29:49.629     9 Jun 2027 03:36:47.021           417.392
                     141     9 Jun 2027 05:08:05.967     9 Jun 2027 05:08:13.053             7.086
                     142     9 Jun 2027 05:09:06.951     9 Jun 2027 05:14:14.415           307.463
                     143     9 Jun 2027 05:16:09.019     9 Jun 2027 05:17:03.076            54.056
                     144     9 Jun 2027 06:46:15.618     9 Jun 2027 06:46:54.624            39.005
                     145     9 Jun 2027 06:47:18.087     9 Jun 2027 06:49:51.985           153.898
                     146     9 Jun 2027 08:10:22.016     9 Jun 2027 08:12:53.918           151.902
                     147     9 Jun 2027 09:46:07.185     9 Jun 2027 09:49:43.918           216.733
                     148     9 Jun 2027 11:21:04.696     9 Jun 2027 11:28:06.067           421.372
                     149     9 Jun 2027 12:57:17.743     9 Jun 2027 13:03:41.751           384.007
                     150     9 Jun 2027 14:35:18.491     9 Jun 2027 14:39:29.975           251.485
                     151     9 Jun 2027 16:10:57.787     9 Jun 2027 16:15:22.393           264.606
                     152     9 Jun 2027 16:15:28.958     9 Jun 2027 16:16:25.198            56.240
                     153     9 Jun 2027 21:17:41.917     9 Jun 2027 21:19:24.882           102.964
                     154     9 Jun 2027 22:53:39.800     9 Jun 2027 22:56:51.012           191.211
                     155    10 Jun 2027 00:30:13.826    10 Jun 2027 00:35:25.069           311.243
                     156    10 Jun 2027 02:06:24.151    10 Jun 2027 02:13:11.604           407.453
                     157    10 Jun 2027 03:42:27.314    10 Jun 2027 03:49:01.246           393.932
                     158    10 Jun 2027 05:21:10.796    10 Jun 2027 05:26:44.645           333.848
                     159    10 Jun 2027 05:27:15.341    10 Jun 2027 05:28:49.906            94.565
                     160    10 Jun 2027 06:47:08.008    10 Jun 2027 06:47:49.125            41.117
                     161    10 Jun 2027 06:58:12.121    10 Jun 2027 06:59:53.193           101.072
                     162    10 Jun 2027 07:00:19.595    10 Jun 2027 07:01:29.447            69.852
                     163    10 Jun 2027 08:21:10.033    10 Jun 2027 08:25:11.419           241.386
                     164    10 Jun 2027 09:56:29.413    10 Jun 2027 09:56:54.477            25.064
                     165    10 Jun 2027 09:57:52.681    10 Jun 2027 10:02:20.264           267.583
                     166    10 Jun 2027 11:32:37.810    10 Jun 2027 11:40:12.904           455.095
                     167    10 Jun 2027 13:09:40.039    10 Jun 2027 13:15:48.021           367.982
                     168    10 Jun 2027 14:47:39.826    10 Jun 2027 14:51:37.025           237.199
                     169    10 Jun 2027 16:20:50.836    10 Jun 2027 16:27:07.526           376.690
                     170    10 Jun 2027 16:27:07.752    10 Jun 2027 16:28:46.959            99.207
                     171    10 Jun 2027 21:29:23.568    10 Jun 2027 21:31:57.788           154.220
                     172    10 Jun 2027 23:05:42.170    10 Jun 2027 23:09:09.509           207.338
                     173    11 Jun 2027 00:42:23.081    11 Jun 2027 00:48:36.223           373.142
                     174    11 Jun 2027 02:18:29.412    11 Jun 2027 02:25:08.594           399.182
                     175    11 Jun 2027 03:54:34.324    11 Jun 2027 03:56:19.307           104.983
                     176    11 Jun 2027 03:56:21.531    11 Jun 2027 04:00:55.872           274.341
                     177    11 Jun 2027 05:33:40.576    11 Jun 2027 05:40:47.412           426.837
                     178    11 Jun 2027 06:58:32.146    11 Jun 2027 07:00:02.614            90.468
                     179    11 Jun 2027 07:10:14.880    11 Jun 2027 07:11:18.006            63.126
                     180    11 Jun 2027 08:32:27.664    11 Jun 2027 08:33:40.759            73.095
                     181    11 Jun 2027 08:34:29.505    11 Jun 2027 08:37:37.228           187.723
                     182    11 Jun 2027 10:07:34.066    11 Jun 2027 10:09:15.918           101.852
                     183    11 Jun 2027 10:09:36.424    11 Jun 2027 10:14:34.175           297.751
                     184    11 Jun 2027 11:44:49.565    11 Jun 2027 11:52:13.525           443.960
                     185    11 Jun 2027 13:21:43.787    11 Jun 2027 13:27:53.940           370.153
                     186    11 Jun 2027 14:59:40.010    11 Jun 2027 15:03:39.940           239.930
                     187    11 Jun 2027 16:33:15.212    11 Jun 2027 16:40:44.912           449.700
                     188    11 Jun 2027 21:41:24.521    11 Jun 2027 21:44:06.088           161.568
                     189    11 Jun 2027 23:17:54.296    11 Jun 2027 23:21:15.008           200.712
                     190    11 Jun 2027 23:22:40.847    11 Jun 2027 23:25:10.128           149.281
                     191    12 Jun 2027 00:54:37.073    12 Jun 2027 01:00:34.411           357.338
                     192    12 Jun 2027 02:30:06.838    12 Jun 2027 02:30:25.905            19.066
                     193    12 Jun 2027 02:30:35.058    12 Jun 2027 02:37:25.037           409.979
                     194    12 Jun 2027 04:06:53.638    12 Jun 2027 04:08:03.659            70.021
                     195    12 Jun 2027 04:08:04.828    12 Jun 2027 04:09:05.764            60.936
                     196    12 Jun 2027 04:09:06.485    12 Jun 2027 04:12:53.435           226.949
                     197    12 Jun 2027 05:45:41.329    12 Jun 2027 05:52:48.095           426.766
                     198    12 Jun 2027 07:10:00.731    12 Jun 2027 07:12:14.750           134.019
                     199    12 Jun 2027 07:22:16.552    12 Jun 2027 07:22:48.141            31.589
                     200    12 Jun 2027 08:44:13.489    12 Jun 2027 08:45:34.205            80.716
                     201    12 Jun 2027 08:46:16.306    12 Jun 2027 08:49:49.733           213.427
                     202    12 Jun 2027 10:19:03.243    12 Jun 2027 10:26:55.795           472.552
                     203    12 Jun 2027 10:27:21.505    12 Jun 2027 10:27:54.054            32.548
                     204    12 Jun 2027 11:56:50.236    12 Jun 2027 12:04:16.340           446.105
                     205    12 Jun 2027 13:33:35.334    12 Jun 2027 13:39:31.770           356.436
                     206    12 Jun 2027 13:39:40.371    12 Jun 2027 13:40:20.370            39.998
                     207    12 Jun 2027 15:11:40.983    12 Jun 2027 15:15:49.479           248.496
                     208    12 Jun 2027 16:45:32.419    12 Jun 2027 16:52:13.175           400.756
                     209    12 Jun 2027 21:53:30.443    12 Jun 2027 21:56:24.133           173.690
                     210    12 Jun 2027 21:57:43.429    12 Jun 2027 21:57:55.101            11.672
                     211    12 Jun 2027 23:29:54.096    12 Jun 2027 23:34:04.137           250.040
                     212    12 Jun 2027 23:34:43.944    12 Jun 2027 23:37:58.363           194.420
                     213    13 Jun 2027 01:06:28.764    13 Jun 2027 01:12:59.830           391.066
                     214    13 Jun 2027 02:42:00.433    13 Jun 2027 02:49:46.173           465.740
                     215    13 Jun 2027 04:19:38.072    13 Jun 2027 04:21:17.634            99.562
                     216    13 Jun 2027 04:21:39.763    13 Jun 2027 04:25:11.953           212.190
                     217    13 Jun 2027 05:58:01.626    13 Jun 2027 06:03:13.806           312.180
                     218    13 Jun 2027 07:22:03.247    13 Jun 2027 07:24:07.269           124.022
                     219    13 Jun 2027 08:58:00.858    13 Jun 2027 09:01:54.362           233.505
                     220    13 Jun 2027 10:31:50.037    13 Jun 2027 10:39:02.214           432.177
                     221    13 Jun 2027 10:39:19.488    13 Jun 2027 10:40:20.420            60.932
                     222    13 Jun 2027 12:08:55.510    13 Jun 2027 12:16:14.556           439.046
                     223    13 Jun 2027 13:45:57.579    13 Jun 2027 13:50:51.048           293.469
                     224    13 Jun 2027 13:51:02.225    13 Jun 2027 13:52:09.511            67.286
                     225    13 Jun 2027 15:22:55.355    13 Jun 2027 15:27:47.799           292.444
                     226    13 Jun 2027 16:57:59.501    13 Jun 2027 16:58:29.993            30.492
                     227    13 Jun 2027 16:59:37.368    13 Jun 2027 17:02:54.891           197.524
                     228    13 Jun 2027 22:05:53.939    13 Jun 2027 22:08:04.639           130.701
                     229    13 Jun 2027 22:08:21.356    13 Jun 2027 22:10:58.827           157.471
                     230    13 Jun 2027 23:41:47.891    13 Jun 2027 23:48:45.067           417.177

Min Duration         113     7 Jun 2027 04:43:51.223     7 Jun 2027 04:43:56.839             5.615
Max Duration         202    12 Jun 2027 10:19:03.243    12 Jun 2027 10:26:55.795           472.552
Mean Duration                                                                              233.592
Total Duration                                                                           53726.247


Russia-To-KinoSat_111903
------------------------
                  Access        Start Time (UTCG)           Stop Time (UTCG)        Duration (sec)
                  ------    ------------------------    ------------------------    --------------
                       1     1 Jun 2027 00:07:46.637     1 Jun 2027 00:13:53.450           366.813
                       2     1 Jun 2027 01:44:29.273     1 Jun 2027 01:50:53.241           383.968
                       3     1 Jun 2027 03:20:00.432     1 Jun 2027 03:27:13.987           433.555
                       4     1 Jun 2027 04:58:08.455     1 Jun 2027 04:59:10.388            61.933
                       5     1 Jun 2027 04:59:16.876     1 Jun 2027 05:04:22.694           305.818
                       6     1 Jun 2027 06:36:27.026     1 Jun 2027 06:36:59.241            32.215
                       7     1 Jun 2027 06:37:16.080     1 Jun 2027 06:40:17.895           181.814
                       8     1 Jun 2027 07:59:49.511     1 Jun 2027 08:02:56.320           186.810
                       9     1 Jun 2027 09:36:21.440     1 Jun 2027 09:39:55.000           213.560
                      10     1 Jun 2027 11:11:31.326     1 Jun 2027 11:18:07.675           396.349
                      11     1 Jun 2027 12:47:56.851     1 Jun 2027 12:54:06.546           369.695
                      12     1 Jun 2027 14:25:11.294     1 Jun 2027 14:29:46.896           275.602
                      13     1 Jun 2027 16:01:25.898     1 Jun 2027 16:06:08.007           282.109
                      14     1 Jun 2027 21:08:31.447     1 Jun 2027 21:08:33.115             1.669
                      15     1 Jun 2027 22:43:59.811     1 Jun 2027 22:47:06.864           187.053
                      16     2 Jun 2027 00:19:51.449     2 Jun 2027 00:25:29.647           338.199
                      17     2 Jun 2027 01:56:26.762     2 Jun 2027 02:02:40.666           373.904
                      18     2 Jun 2027 03:31:57.786     2 Jun 2027 03:38:53.713           415.927
                      19     2 Jun 2027 05:11:15.141     2 Jun 2027 05:16:23.173           308.032
                      20     2 Jun 2027 05:17:45.622     2 Jun 2027 05:19:12.465            86.843
                      21     2 Jun 2027 06:48:23.427     2 Jun 2027 06:49:03.043            39.616
                      22     2 Jun 2027 06:49:23.244     2 Jun 2027 06:51:56.785           153.541
                      23     2 Jun 2027 08:12:25.318     2 Jun 2027 08:15:02.491           157.173
                      24     2 Jun 2027 09:48:14.649     2 Jun 2027 09:52:14.557           239.908
                      25     2 Jun 2027 11:23:10.673     2 Jun 2027 11:30:15.388           424.715
                      26     2 Jun 2027 12:59:29.724     2 Jun 2027 13:05:53.502           383.777
                      27     2 Jun 2027 14:37:45.002     2 Jun 2027 14:41:37.044           232.042
                      28     2 Jun 2027 16:13:05.259     2 Jun 2027 16:17:15.635           250.375
                      29     2 Jun 2027 16:17:25.016     2 Jun 2027 16:18:35.330            70.314
                      30     2 Jun 2027 21:19:45.020     2 Jun 2027 21:21:36.794           111.775
                      31     2 Jun 2027 22:55:47.509     2 Jun 2027 22:59:08.281           200.772
                      32     3 Jun 2027 00:32:22.350     3 Jun 2027 00:37:35.657           313.307
                      33     3 Jun 2027 02:08:32.897     3 Jun 2027 02:15:20.164           407.268
                      34     3 Jun 2027 03:44:38.171     3 Jun 2027 03:51:09.312           391.142
                      35     3 Jun 2027 05:23:19.250     3 Jun 2027 05:28:50.065           330.815
                      36     3 Jun 2027 05:29:21.288     3 Jun 2027 05:30:56.262            94.974
                      37     3 Jun 2027 06:49:10.941     3 Jun 2027 06:49:58.728            47.787
                      38     3 Jun 2027 07:00:19.653     3 Jun 2027 07:02:00.574           100.921
                      39     3 Jun 2027 07:02:59.420     3 Jun 2027 07:03:22.626            23.207
                      40     3 Jun 2027 08:22:58.391     3 Jun 2027 08:27:33.457           275.066
                      41     3 Jun 2027 09:58:33.473     3 Jun 2027 09:59:12.091            38.618
                      42     3 Jun 2027 09:59:58.890     3 Jun 2027 10:04:30.807           271.917
                      43     3 Jun 2027 11:34:44.208     3 Jun 2027 11:42:21.151           456.943
                      44     3 Jun 2027 13:11:49.677     3 Jun 2027 13:17:56.013           366.336
                      45     3 Jun 2027 14:49:48.392     3 Jun 2027 14:53:44.543           236.150
                      46     3 Jun 2027 16:22:56.892     3 Jun 2027 16:29:31.803           394.911
                      47     3 Jun 2027 16:29:50.806     3 Jun 2027 16:30:53.949            63.143
                      48     3 Jun 2027 21:31:31.585     3 Jun 2027 21:34:17.215           165.630
                      49     3 Jun 2027 23:07:51.221     3 Jun 2027 23:11:16.803           205.583
                      50     4 Jun 2027 00:44:30.263     4 Jun 2027 00:50:44.005           373.742
                      51     4 Jun 2027 02:20:36.958     4 Jun 2027 02:27:17.837           400.879
                      52     4 Jun 2027 03:56:44.226     4 Jun 2027 04:02:54.190           369.964
                      53     4 Jun 2027 05:35:48.546     4 Jun 2027 05:42:56.766           428.220
                      54     4 Jun 2027 07:00:40.620     4 Jun 2027 07:02:11.926            91.305
                      55     4 Jun 2027 07:12:22.976     4 Jun 2027 07:13:23.045            60.069
                      56     4 Jun 2027 08:34:36.522     4 Jun 2027 08:35:47.120            70.598
                      57     4 Jun 2027 08:36:37.217     4 Jun 2027 08:39:47.394           190.177
                      58     4 Jun 2027 10:09:39.635     4 Jun 2027 10:11:23.682           104.048
                      59     4 Jun 2027 10:11:43.623     4 Jun 2027 10:16:44.049           300.425
                      60     4 Jun 2027 10:17:40.787     4 Jun 2027 10:17:47.761             6.974
                      61     4 Jun 2027 11:47:03.409     4 Jun 2027 11:54:22.210           438.801
                      62     4 Jun 2027 13:23:51.564     4 Jun 2027 13:30:02.120           370.555
                      63     4 Jun 2027 15:01:48.544     4 Jun 2027 15:05:46.660           238.116
                      64     4 Jun 2027 16:35:24.397     4 Jun 2027 16:42:53.110           448.713
                      65     4 Jun 2027 21:43:32.201     4 Jun 2027 21:46:16.856           164.655
                      66     4 Jun 2027 23:20:03.502     4 Jun 2027 23:23:25.467           201.964
                      67     4 Jun 2027 23:24:47.920     4 Jun 2027 23:27:28.837           160.917
                      68     5 Jun 2027 00:56:44.688     5 Jun 2027 01:02:44.230           359.541
                      69     5 Jun 2027 02:32:12.009     5 Jun 2027 02:32:37.332            25.323
                      70     5 Jun 2027 02:32:43.662     5 Jun 2027 02:39:40.972           417.309
                      71     5 Jun 2027 04:09:04.695     5 Jun 2027 04:09:31.122            26.427
                      72     5 Jun 2027 04:09:35.988     5 Jun 2027 04:10:10.986            34.998
                      73     5 Jun 2027 04:10:14.421     5 Jun 2027 04:15:03.877           289.455
                      74     5 Jun 2027 05:47:50.811     5 Jun 2027 05:54:53.216           422.405
                      75     5 Jun 2027 07:12:11.311     5 Jun 2027 07:14:24.393           133.082
                      76     5 Jun 2027 07:24:25.352     5 Jun 2027 07:24:56.345            30.993
                      77     5 Jun 2027 08:46:20.285     5 Jun 2027 08:47:34.571            74.286
                      78     5 Jun 2027 08:48:23.453     5 Jun 2027 08:51:58.902           215.449
                      79     5 Jun 2027 10:21:08.210     5 Jun 2027 10:29:04.861           476.651
                      80     5 Jun 2027 10:29:29.350     5 Jun 2027 10:30:02.938            33.588
                      81     5 Jun 2027 11:58:58.025     5 Jun 2027 12:06:24.376           446.351
                      82     5 Jun 2027 13:35:42.465     5 Jun 2027 13:41:38.976           356.511
                      83     5 Jun 2027 13:41:46.280     5 Jun 2027 13:42:28.987            42.707
                      84     5 Jun 2027 15:13:51.025     5 Jun 2027 15:17:57.972           246.947
                      85     5 Jun 2027 16:47:41.933     5 Jun 2027 16:54:19.296           397.363
                      86     5 Jun 2027 21:55:40.088     5 Jun 2027 22:00:04.427           264.339
                      87     5 Jun 2027 23:32:02.595     5 Jun 2027 23:36:23.128           260.533
                      88     5 Jun 2027 23:36:55.733     5 Jun 2027 23:40:04.832           189.099
                      89     6 Jun 2027 01:08:36.226     6 Jun 2027 01:15:09.930           393.704
                      90     6 Jun 2027 02:44:08.174     6 Jun 2027 02:51:51.566           463.392
                      91     6 Jun 2027 04:21:47.289     6 Jun 2027 04:23:24.549            97.260
                      92     6 Jun 2027 04:23:51.452     6 Jun 2027 04:27:21.164           209.712
                      93     6 Jun 2027 06:00:14.682     6 Jun 2027 06:05:21.762           307.080
                      94     6 Jun 2027 07:24:10.364     6 Jun 2027 07:26:26.556           136.192
                      95     6 Jun 2027 09:00:07.055     6 Jun 2027 09:04:03.519           236.464
                      96     6 Jun 2027 10:33:56.724     6 Jun 2027 10:41:18.383           441.659
                      97     6 Jun 2027 10:41:28.610     6 Jun 2027 10:42:28.534            59.924
                      98     6 Jun 2027 12:11:05.240     6 Jun 2027 12:18:21.902           436.662
                      99     6 Jun 2027 13:48:08.177     6 Jun 2027 13:52:57.882           289.705
                     100     6 Jun 2027 13:53:04.722     6 Jun 2027 13:54:15.739            71.017
                     101     6 Jun 2027 15:25:05.038     6 Jun 2027 15:29:55.857           290.819
                     102     6 Jun 2027 17:00:09.698     6 Jun 2027 17:00:33.360            23.662
                     103     6 Jun 2027 17:01:48.953     6 Jun 2027 17:05:01.118           192.166
                     104     6 Jun 2027 22:08:02.034     6 Jun 2027 22:10:17.240           135.206
                     105     6 Jun 2027 22:10:38.552     6 Jun 2027 22:13:12.592           154.040
                     106     6 Jun 2027 23:43:56.079     6 Jun 2027 23:50:53.344           417.265
                     107     7 Jun 2027 01:20:40.196     7 Jun 2027 01:27:08.287           388.091
                     108     7 Jun 2027 02:56:08.220     7 Jun 2027 03:03:41.567           453.347
                     109     7 Jun 2027 04:34:32.128     7 Jun 2027 04:34:51.838            19.710
                     110     7 Jun 2027 04:35:07.135     7 Jun 2027 04:36:00.043            52.907
                     111     7 Jun 2027 04:36:01.838     7 Jun 2027 04:40:32.560           270.723
                     112     7 Jun 2027 06:12:40.264     7 Jun 2027 06:17:22.869           282.605
                     113     7 Jun 2027 07:36:04.969     7 Jun 2027 07:38:31.624           146.655
                     114     7 Jun 2027 09:12:29.070     7 Jun 2027 09:15:55.295           206.225
                     115     7 Jun 2027 10:46:17.182     7 Jun 2027 10:54:28.100           490.918
                     116     7 Jun 2027 12:23:31.997     7 Jun 2027 12:30:13.088           401.091
                     117     7 Jun 2027 14:00:28.704     7 Jun 2027 14:04:49.273           260.568
                     118     7 Jun 2027 14:04:51.798     7 Jun 2027 14:06:01.721            69.923
                     119     7 Jun 2027 15:37:18.547     7 Jun 2027 15:41:47.039           268.492
                     120     7 Jun 2027 17:15:00.582     7 Jun 2027 17:16:35.368            94.786
                     121     7 Jun 2027 22:20:03.849     7 Jun 2027 22:22:19.091           135.242
